time,x,y,z,yaw,throttle,roll_rate,pitch_rate,yaw_rate,x_ref,y_ref,z_ref,yaw_ref,mpc_time,metadata
7.152557373046875e-07,0.008320566266775131,-0.015150904655456543,-0.0048896013759076595,-0.0035266830132156,-0.921698030271948,0.1495996332377408,0.051805793618942816,0.022522790986459866,0.0,0.0,-0.6,0.0,0.001527547836303711,Sim
0.009994029998779297,0.008509811945259571,-0.01500992476940155,-0.004959396086633205,-0.00352264864506383,-0.9216599720810612,0.14991454201699342,0.052587380356755864,0.02249694284039231,0.0,0.0,-0.6,0.0,0.0006029605865478516,Horizon:3.0
0.02016139030456543,0.008509811945259571,-0.01500992476940155,-0.004959396086633205,-0.00352264864506383,-0.9216599720810612,0.14991454201699342,0.052587380356755864,0.02249694284039231,0.0,0.0,-0.6,0.0,0.00022554397583007812,Num Steps:20
0.029888391494750977,0.008632462471723557,-0.014932408928871155,-0.004990006797015667,-0.0035413356283198866,-0.9216841580864591,0.14820032157729607,0.05234427404775411,0.022616388227598445,0.0,0.0,-0.6,0.0,0.0008342266082763672,No Pyjoules
0.04023027420043945,0.008632462471723557,-0.014932408928871155,-0.004990006797015667,-0.0035413356283198866,-0.9216841580864591,0.14820032157729607,0.05234427404775411,0.022616388227598445,0.0,0.0,-0.6,0.0,0.0002505779266357422,0
0.04983043670654297,0.00875131506472826,-0.014857431873679161,-0.005011285655200481,-0.0035549868878337067,-0.9216284862778037,0.14592595897032992,0.05338745971173859,0.022703811049253016,0.0,0.0,-0.6,0.0,0.0006465911865234375,0
0.06014060974121094,0.00875131506472826,-0.014857431873679161,-0.005011285655200481,-0.0035549868878337067,-0.9216284862778037,0.14592595897032992,0.05338745971173859,0.022703811049253016,0.0,0.0,-0.6,0.0,0.0002117156982421875,0
0.07013869285583496,0.008924477733671665,-0.014737026765942574,-0.005583969410508871,-0.0035336009576407207,-0.9089272423213529,0.13118542456460267,0.05385039947742823,0.022571580307588476,0.0,0.0,-0.6,0.0,0.0006995201110839844,0
0.08005714416503906,0.008924477733671665,-0.014737026765942574,-0.005583969410508871,-0.0035336009576407207,-0.9089272423213529,0.13118542456460267,0.05385039947742823,0.022571580307588476,0.0,0.0,-0.6,0.0,0.0002257823944091797,0
0.09036135673522949,0.00908912904560566,-0.014600040391087532,-0.008697301149368286,-0.0034488620455623343,-0.8840538002189547,0.10117250545010938,0.05121374311548997,0.022040321195590892,0.0,0.0,-0.6,0.0,0.0015556812286376953,0
0.1002347469329834,0.00908912904560566,-0.014600040391087532,-0.008697301149368286,-0.0034488620455623343,-0.8840538002189547,0.10117250545010938,0.05121374311548997,0.022040321195590892,0.0,0.0,-0.6,0.0,0.0002684593200683594,0
0.11055374145507812,0.009194922633469105,-0.014501811005175114,-0.012546265497803688,-0.003327124205517761,-0.8654921381461,0.07461143226657804,0.047111197224591755,0.021270982955655045,0.0,0.0,-0.6,0.0,0.0015017986297607422,0
0.12045097351074219,0.009194922633469105,-0.014501811005175114,-0.012546265497803688,-0.003327124205517761,-0.8654921381461,0.07461143226657804,0.047111197224591755,0.021270982955655045,0.0,0.0,-0.6,0.0,0.00040435791015625,0
0.13022255897521973,0.009244981221854687,-0.014447364956140518,-0.014993488788604736,-0.0032460660803373246,-0.8559958018120779,0.05996119296008637,0.04420156802327581,0.02075725373609545,0.0,0.0,-0.6,0.0,0.0016758441925048828,0
0.14046859741210938,0.009338566102087498,-0.01431963313370943,-0.020942935720086098,-0.003075651753058038,-0.8370108059329581,0.02982884037636744,0.04064982524164616,0.01967790896267437,0.0,0.0,-0.6,0.0,0.0019898414611816406,0
0.15036487579345703,0.00943318847566843,-0.014166631735861301,-0.028211571276187897,-0.0028178267898750125,-0.8186133097201198,0.0006612694591603893,0.036016002334651236,0.01803933346911791,0.0,0.0,-0.6,0.0,0.001332998275756836,0
0.16016721725463867,0.00943318847566843,-0.014166631735861301,-0.028211571276187897,-0.0028178267898750125,-0.8186133097201198,0.0006612694591603893,0.036016002334651236,0.01803933346911791,0.0,0.0,-0.6,0.0,0.0002856254577636719,0
0.17032361030578613,0.009565919637680054,-0.013871904462575912,-0.041321128606796265,-0.0024068935380507405,-0.7921887886453807,-0.045016946849027975,0.027767617527043292,0.015426277255788476,0.0,0.0,-0.6,0.0,0.0015506744384765625,0
0.18035602569580078,0.009565919637680054,-0.013871904462575912,-0.041321128606796265,-0.0024068935380507405,-0.7921887886453807,-0.045016946849027975,0.027767617527043292,0.015426277255788476,0.0,0.0,-0.6,0.0,0.00041556358337402344,0
0.19004082679748535,0.009636880829930305,-0.013622417114675045,-0.05136498063802719,-0.0020834060468804864,-0.7754792073665217,-0.07511723669660327,0.019332006567423246,0.013365383913728456,0.0,0.0,-0.6,0.0,0.001470327377319336,0
0.20037317276000977,0.009636880829930305,-0.013622417114675045,-0.05136498063802719,-0.0020834060468804864,-0.7754792073665217,-0.07511723669660327,0.019332006567423246,0.013365383913728456,0.0,0.0,-0.6,0.0,0.0003705024719238281,0
0.21039605140686035,0.009693888016045094,-0.013328050263226032,-0.06231153383851051,-0.00177065749624664,-0.7600831836112437,-0.1017840725594848,0.013265536804632782,0.011373533008888567,0.0,0.0,-0.6,0.0,0.0017282962799072266,0
0.22026300430297852,0.009693888016045094,-0.013328050263226032,-0.06231153383851051,-0.00177065749624664,-0.7600831836112437,-0.1017840725594848,0.013265536804632782,0.011373533008888567,0.0,0.0,-0.6,0.0,0.0003254413604736328,0
0.2306373119354248,0.00975358858704567,-0.012805926613509655,-0.08011182397603989,-0.0013050786853324853,-0.7394539117940151,-0.13577547467877055,0.004555690770961962,0.008406124493433014,0.0,0.0,-0.6,0.0,0.0015482902526855469,0
0.24013376235961914,0.00975358858704567,-0.012805926613509655,-0.08011182397603989,-0.0013050786853324853,-0.7394539117940151,-0.13577547467877055,0.004555690770961962,0.008406124493433014,0.0,0.0,-0.6,0.0,0.00029158592224121094,0
0.25060272216796875,0.009775415994226933,-0.012409129180014133,-0.09272532910108566,-0.0010019799787195085,-0.7271899557405058,-0.15170473818333394,-0.0009811362087136489,0.006471680679890097,0.0,0.0,-0.6,0.0,0.0015821456909179688,0
0.2604038715362549,0.009775415994226933,-0.012409129180014133,-0.09272532910108566,-0.0010019799787195085,-0.7271899557405058,-0.15170473818333394,-0.0009811362087136489,0.006471680679890097,0.0,0.0,-0.6,0.0,0.0003459453582763672,0
0.2706122398376465,0.009789703413844109,-0.011752923019230366,-0.11248541623353958,-0.0005880870523715403,-0.7108103390721007,-0.1672743962320091,-0.006580386113402853,0.00382891791896583,0.0,0.0,-0.6,0.0,0.0015065670013427734,0
0.28039050102233887,0.009789703413844109,-0.011752923019230366,-0.11248541623353958,-0.0005880870523715403,-0.7108103390721007,-0.1672743962320091,-0.006580386113402853,0.00382891791896583,0.0,0.0,-0.6,0.0,0.00034046173095703125,0
0.29001569747924805,0.009784074500203133,-0.011271970346570015,-0.1260664016008377,-0.00029552993515015387,-0.7011880597532599,-0.17415560575667816,-0.012408414646095134,0.001957174398767036,0.0,0.0,-0.6,0.0,0.0012269020080566406,0
0.3002617359161377,0.009784074500203133,-0.011271970346570015,-0.1260664016008377,-0.00029552993515015387,-0.7011880597532599,-0.17415560575667816,-0.012408414646095134,0.001957174398767036,0.0,0.0,-0.6,0.0,0.0003139972686767578,0
0.31052255630493164,0.0097465505823493,-0.010489555075764656,-0.14681650698184967,0.00011578591151266949,-0.6889706535332246,-0.1755909703550233,-0.0208650267631319,-0.000677456533899401,0.0,0.0,-0.6,0.0,0.0016868114471435547,0
0.3200957775115967,0.0097465505823493,-0.010489555075764656,-0.14681650698184967,0.00011578591151266949,-0.6889706535332246,-0.1755909703550233,-0.0208650267631319,-0.000677456533899401,0.0,0.0,-0.6,0.0,0.00032329559326171875,0
0.3299732208251953,0.009665589779615402,-0.009642472490668297,-0.1677747368812561,0.0004590571273930556,-0.6790683125748554,-0.16831732532328883,-0.02788256917204165,-0.0028780630330411143,0.0,0.0,-0.6,0.0,0.0011317729949951172,0
0.34023404121398926,0.009665589779615402,-0.009642472490668297,-0.1677747368812561,0.0004590571273930556,-0.6790683125748554,-0.16831732532328883,-0.02788256917204165,-0.0028780630330411143,0.0,0.0,-0.6,0.0,0.0003116130828857422,0
0.349959135055542,0.009590518660843372,-0.009053640998899937,-0.18173222243785858,0.0006546897213098409,-0.6735801116941177,-0.15717589788816277,-0.03260728082144504,-0.0041342900054485675,0.0,0.0,-0.6,0.0,0.0011188983917236328,0
0.36020851135253906,0.009590518660843372,-0.009053640998899937,-0.18173222243785858,0.0006546897213098409,-0.6735801116941177,-0.15717589788816277,-0.03260728082144504,-0.0041342900054485675,0.0,0.0,-0.6,0.0,0.00029277801513671875,0
0.3699474334716797,0.009461098350584507,-0.008166808634996414,-0.2025359570980072,0.000853447632410563,-0.6671259740033473,-0.13323588005624015,-0.035365052143070584,-0.005413777915849195,0.0,0.0,-0.6,0.0,0.0007331371307373047,0
0.38011670112609863,0.009461098350584507,-0.008166808634996414,-0.2025359570980072,0.000853447632410563,-0.6671259740033473,-0.13323588005624015,-0.035365052143070584,-0.005413777915849195,0.0,0.0,-0.6,0.0,0.00017118453979492188,0
0.390056848526001,0.009365769103169441,-0.007224646862596273,-0.21215058863162994,0.0009932820458047587,-0.6661672831320784,-0.11715510732623922,-0.03684928734804925,-0.006312551322064126,0.0,0.0,-0.6,0.0,0.000997304916381836,0
0.40024423599243164,0.009365769103169441,-0.007224646862596273,-0.21215058863162994,0.0009932820458047587,-0.6661672831320784,-0.11715510732623922,-0.03684928734804925,-0.006312551322064126,0.0,0.0,-0.6,0.0,0.0002346038818359375,0
0.41008687019348145,0.009199272841215134,-0.005847391672432423,-0.2264777272939682,0.0011023135992115525,-0.665602745163805,-0.08666227879463209,-0.03786713699958649,-0.007017684373523965,0.0,0.0,-0.6,0.0,0.0013399124145507812,0
0.42047762870788574,0.009199272841215134,-0.005847391672432423,-0.2264777272939682,0.0011023135992115525,-0.665602745163805,-0.08666227879463209,-0.03786713699958649,-0.007017684373523965,0.0,0.0,-0.6,0.0,0.0006158351898193359,0
0.4305269718170166,0.009076472371816635,-0.004963764455169439,-0.2359037697315216,0.0011304282999155893,-0.6658550983839518,-0.06324683937012145,-0.03461462524166132,-0.0072045987639658545,0.0,0.0,-0.6,0.0,0.0023381710052490234,0
0.4407172203063965,0.009076472371816635,-0.004963764455169439,-0.2359037697315216,0.0011304282999155893,-0.6658550983839518,-0.06324683937012145,-0.03461462524166132,-0.0072045987639658545,0.0,0.0,-0.6,0.0,0.0004658699035644531,0
0.45017313957214355,0.008879552595317364,-0.003698578104376793,-0.24986228346824646,0.0012061292954329015,-0.6668134282086322,-0.028466601012790183,-0.030429438346991036,-0.007698280391083777,0.0,0.0,-0.6,0.0,0.0015091896057128906,0
0.4603579044342041,0.008879552595317364,-0.003698578104376793,-0.24986228346824646,0.0012061292954329015,-0.6668134282086322,-0.028466601012790183,-0.030429438346991036,-0.007698280391083777,0.0,0.0,-0.6,0.0,0.00033926963806152344,0
0.4705846309661865,0.008738776668906212,-0.0028982374351471663,-0.2589505910873413,0.0012233075218879752,-0.6676683812707315,-0.004964149828077109,-0.026829758365227944,-0.007814440326470247,0.0,0.0,-0.6,0.0,0.0017268657684326172,0
0.48064279556274414,0.008738776668906212,-0.0028982374351471663,-0.2589505910873413,0.0012233075218879752,-0.6676683812707315,-0.004964149828077109,-0.026829758365227944,-0.007814440326470247,0.0,0.0,-0.6,0.0,0.0003409385681152344,0
0.490215539932251,0.008526102639734745,-0.0017644710605964065,-0.27222540974617004,0.0011979103129608204,-0.6692374524671297,0.023369659860999693,-0.01702955398006533,-0.007663380507696412,0.0,0.0,-0.6,0.0,0.0013155937194824219,0
0.5005486011505127,0.008453858084976673,-0.0014045261777937412,-0.27655014395713806,0.0011767387600503177,-0.6697743385146361,0.033702999483904754,-0.0159468288206019,-0.007529648763182427,0.0,0.0,-0.6,0.0,0.0010013580322265625,0
0.5100898742675781,0.008382508531212807,-0.0010547564597800374,-0.28086167573928833,0.0011531170526536145,-0.6703167287278918,0.0431636239787273,-0.013181377894316304,-0.007381604731991901,0.0,0.0,-0.6,0.0,0.0010695457458496094,0
0.5203497409820557,0.008311181329190731,-0.0007160360692068934,-0.2851215898990631,0.0011194844071726144,-0.6708182740045456,0.052807603867832884,-0.009422627250431876,-0.007170494206141552,0.0,0.0,-0.6,0.0,0.0011143684387207031,0
0.5301451683044434,0.008168341591954231,-7.747137715341523e-05,-0.29348447918891907,0.001071711989628467,-0.6718759377137653,0.07158099845752876,-0.004345117946320866,-0.0068696997185598435,0.0,0.0,-0.6,0.0,0.0011830329895019531,0
0.541053056716919,0.008096338249742985,0.0002231382968602702,-0.29758816957473755,0.001026671322605235,-0.6724106936261779,0.07951906024989532,-0.0013164352726354545,-0.0065843350841618175,0.0,0.0,-0.6,0.0,0.0016665458679199219,0
0.5501124858856201,0.008024481125175953,0.0005117440014146268,-0.30164027214050293,0.000996452346303165,-0.6729125974849499,0.08598415593447434,0.0010055239713665726,-0.006392771448861772,0.0,0.0,-0.6,0.0,0.0010747909545898438,0
0.560197114944458,0.007952467538416386,0.0007894870359450579,-0.3056420087814331,0.0009703904243508889,-0.6734042240445449,0.0910979209157328,0.003347175540907902,-0.0062277041610688585,0.0,0.0,-0.6,0.0,0.0012989044189453125,0
0.5705077648162842,0.007881943136453629,0.001056416193023324,-0.3095938563346863,0.0009372487287237314,-0.6738671762055088,0.09509083434962738,0.006884388048444207,-0.00601870003219946,0.0,0.0,-0.6,0.0,0.0012984275817871094,0
0.5800056457519531,0.007740555796772242,0.001557669835165143,-0.3173733651638031,0.0008822736603974462,-0.6747970013888356,0.10183631609640385,0.010648282411861153,-0.0056687615341255,0.0,0.0,-0.6,0.0,0.0010442733764648438,0
0.5899066925048828,0.007670220453292131,0.0017928677843883634,-0.321201890707016,0.0008452061501867669,-0.6751983003870464,0.10333793623458751,0.012901482495152742,-0.005432794550968796,0.0,0.0,-0.6,0.0,0.0005624294281005859,0
0.5998420715332031,0.007601025514304638,0.0020177809055894613,-0.32498306035995483,0.0008151875433337237,-0.6756053820125261,0.10540497007308645,0.015726346909808262,-0.005242573617626644,0.0,0.0,-0.6,0.0,0.0005764961242675781,0
0.6101052761077881,0.007468191906809807,0.002429820131510496,-0.3324021100997925,0.0006920215727947557,-0.6764628841905971,0.10973145640616201,0.019055137673498344,-0.004455291852897098,0.0,0.0,-0.6,0.0,0.0007181167602539062,0
0.6199240684509277,0.007401010487228632,0.002617059275507927,-0.33604124188423157,0.000643739613628872,-0.6768702431744401,0.11085441143658056,0.019873145244093553,-0.004145613908862082,0.0,0.0,-0.6,0.0,0.0005421638488769531,0
0.63006591796875,0.007335209753364325,0.0027924608439207077,-0.3396342694759369,0.0005929429293132153,-0.6772575881648933,0.11077496654609015,0.022255406612188233,-0.003821719521470421,0.0,0.0,-0.6,0.0,0.0005605220794677734,0
0.639972448348999,0.00727117108181119,0.002955891890451312,-0.34318140149116516,0.0005321917540822162,-0.6776670402803592,0.11058009177959509,0.023260989928891338,-0.0034326043082249873,0.0,0.0,-0.6,0.0,0.0005667209625244141,0
0.6500668525695801,0.0071415225975215435,0.0032498862128704786,-0.3501710891723633,0.00044679083107269175,-0.6783602816656481,0.1076694158608785,0.026311309621795672,-0.002886407466295241,0.0,0.0,-0.6,0.0,0.0008904933929443359,0
0.6599664688110352,0.007077586371451616,0.0033802741672843695,-0.35361483693122864,0.0003933660208741982,-0.6787495961512112,0.10579338831300333,0.027501861991434215,-0.0025443278207039235,0.0,0.0,-0.6,0.0,0.0008451938629150391,0
0.6699714660644531,0.007015677634626627,0.0035005665849894285,-0.35701319575309753,0.00035150767948395704,-0.6791019116306786,0.10304387577785311,0.028957018793428217,-0.0022765326844613196,0.0,0.0,-0.6,0.0,0.0004794597625732422,0
0.6800084114074707,0.006957530975341797,0.0036112142261117697,-0.36036673188209534,0.0003309602297238615,-0.679492978043208,0.09931334252793769,0.030947813771196906,-0.0021454988367118726,0.0,0.0,-0.6,0.0,0.0005307197570800781,0
0.6902139186859131,0.006901359651237726,0.003712526522576809,-0.3636753261089325,0.000277227038797514,-0.6798688734673242,0.09647490645270677,0.030592040804649057,-0.0018000860885698322,0.0,0.0,-0.6,0.0,0.0008246898651123047,0
0.6999955177307129,0.0067924815230071545,0.0038875488098710775,-0.3701627850532532,0.00017805699105653822,-0.6805210706218502,0.08767529413153666,0.031112790683396084,-0.0011634443300684966,0.0,0.0,-0.6,0.0,0.000995635986328125,0
0.7103447914123535,0.006740311626344919,0.003963025752454996,-0.37334319949150085,0.00011936133607677245,-0.6808502222792678,0.08251506030940785,0.030786596872082954,-0.0007865734745071915,0.0,0.0,-0.6,0.0,0.0013778209686279297,0
0.7203402519226074,0.006689602043479681,0.004031598102301359,-0.3764807879924774,8.216475963157088e-05,-0.6811960807349439,0.07686093187495917,0.03061428556803212,-0.0005473503912992702,0.0,0.0,-0.6,0.0,0.0012388229370117188,0
0.7299761772155762,0.006595000624656677,0.004148644860833883,-0.38270384073257446,8.385689282766183e-06,-0.6817064375839178,0.06646276418809215,0.030280949399786067,-7.29490915671346e-05,0.0,0.0,-0.6,0.0,0.0007910728454589844,0
0.7400856018066406,0.00655037397518754,0.004196701105684042,-0.3857537806034088,-5.862774242481976e-05,-0.6819970669697436,0.06085851770831375,0.029093831458812894,0.0003574554068375271,0.0,0.0,-0.6,0.0,0.0009586811065673828,0
0.7502775192260742,0.00650693429633975,0.004238623660057783,-0.38876277208328247,-8.377150114290798e-05,-0.6822916092964715,0.05504104482075645,0.028811837342693398,0.0005196229467099397,0.0,0.0,-0.6,0.0,0.0011515617370605469,0
0.7605643272399902,0.00650693429633975,0.004238623660057783,-0.38876277208328247,-8.377150114290798e-05,-0.6822916092964715,0.05504104482075645,0.028811837342693398,0.0005196229467099397,0.0,0.0,-0.6,0.0,0.0003688335418701172,0
0.7704019546508789,0.006425200030207634,0.0043064565397799015,-0.39466241002082825,-0.00017473576655986577,-0.6827705391436065,0.04309176854736302,0.025607502654791905,0.001105134785931408,0.0,0.0,-0.6,0.0,0.0014290809631347656,0
0.7804703712463379,0.006425200030207634,0.0043064565397799015,-0.39466241002082825,-0.00017473576655986577,-0.6827705391436065,0.04309176854736302,0.025607502654791905,0.001105134785931408,0.0,0.0,-0.6,0.0,0.0005688667297363281,0
0.7900795936584473,0.0058468482457101345,0.004399280529469252,-0.4050878584384918,-0.000301539388821558,-0.6825526656949393,0.02278267716410239,0.016119360142420935,0.001922144762858734,0.0,0.0,-0.6,0.0,0.0011248588562011719,0
0.8002529144287109,0.0058468482457101345,0.004399280529469252,-0.4050878584384918,-0.000301539388821558,-0.6825526656949393,0.02278267716410239,0.016119360142420935,0.001922144762858734,0.0,0.0,-0.6,0.0,0.0003287792205810547,0
0.8105044364929199,0.005079478956758976,0.0044669294729828835,-0.416027694940567,-0.00038313705881960053,-0.6818950341695338,0.003698603592690144,0.0028569014254515883,0.0024487577942568332,0.0,0.0,-0.6,0.0,0.002045869827270508,0
0.820885419845581,0.005079478956758976,0.0044669294729828835,-0.416027694940567,-0.00038313705881960053,-0.6818950341695338,0.003698603592690144,0.0028569014254515883,0.0024487577942568332,0.0,0.0,-0.6,0.0,0.0004222393035888672,0
0.8303449153900146,0.004592732526361942,0.0045034075155854225,-0.423042893409729,-0.00048153024741302565,-0.6813673914003963,-0.008379352164425997,-0.0051573216088883185,0.0030798458391358237,0.0,0.0,-0.6,0.0,0.0016431808471679688,0
0.8408346176147461,0.004592732526361942,0.0045034075155854225,-0.423042893409729,-0.00048153024741302565,-0.6813673914003963,-0.008379352164425997,-0.0051573216088883185,0.0030798458391358237,0.0,0.0,-0.6,0.0,0.0004513263702392578,0
0.8501145839691162,0.0038966587744653225,0.004540205933153629,-0.43316298723220825,-0.0005925073923948659,-0.6809909538208145,-0.021453004985349494,-0.015409351360911329,0.003790836275168915,0.0,0.0,-0.6,0.0,0.0012619495391845703,0
0.8603262901306152,0.0038966587744653225,0.004540205933153629,-0.43316298723220825,-0.0005925073923948659,-0.6809909538208145,-0.021453004985349494,-0.015409351360911329,0.003790836275168915,0.0,0.0,-0.6,0.0,0.0002903938293457031,0
0.8705952167510986,0.0034574943128973246,0.00455989595502615,-0.4396623969078064,-0.0006286026018181698,-0.6807778804075365,-0.03052638377809591,-0.020448101808821992,0.004022146157162527,0.0,0.0,-0.6,0.0,0.0012454986572265625,0
0.8802568912506104,0.0034574943128973246,0.00455989595502615,-0.4396623969078064,-0.0006286026018181698,-0.6807778804075365,-0.03052638377809591,-0.020448101808821992,0.004022146157162527,0.0,0.0,-0.6,0.0,0.0004279613494873047,0
0.8902397155761719,0.003035929286852479,0.00457731494680047,-0.44596970081329346,-0.0006660104970372374,-0.6806752447246835,-0.0369591346993541,-0.024866738385521874,0.004261436144022878,0.0,0.0,-0.6,0.0,0.0016133785247802734,0
0.9014222621917725,0.003035929286852479,0.00457731494680047,-0.44596970081329346,-0.0006660104970372374,-0.6806752447246835,-0.0369591346993541,-0.024866738385521874,0.004261436144022878,0.0,0.0,-0.6,0.0,0.0005900859832763672,0
0.9105691909790039,0.002433349145576358,0.00460504787042737,-0.4550296366214752,-0.0007155414885333248,-0.6808050940268041,-0.04691930440784328,-0.03146114338243979,0.004578221806686056,0.0,0.0,-0.6,0.0,0.0013730525970458984,0
0.9204480648040771,0.002433349145576358,0.00460504787042737,-0.4550296366214752,-0.0007155414885333248,-0.6808050940268041,-0.04691930440784328,-0.03146114338243979,0.004578221806686056,0.0,0.0,-0.6,0.0,0.0004012584686279297,0
0.9305112361907959,0.0018658967455849051,0.004643354564905167,-0.4636146128177643,-0.0007091878770704703,-0.6810826796886879,-0.052191096447493826,-0.03484805661916363,0.004537340538760429,0.0,0.0,-0.6,0.0,0.0012614727020263672,0
0.940253496170044,0.0018658967455849051,0.004643354564905167,-0.4636146128177643,-0.0007091878770704703,-0.6810826796886879,-0.052191096447493826,-0.03484805661916363,0.004537340538760429,0.0,0.0,-0.6,0.0,0.0003254413604736328,0
0.9508626461029053,0.00150040234439075,0.004674936179071665,-0.46907714009284973,-0.0007408229429898845,-0.6814724471889996,-0.05523133724151688,-0.0358194487497433,0.004739567544922725,0.0,0.0,-0.6,0.0,0.0011260509490966797,0
0.9600825309753418,0.00150040234439075,0.004674936179071665,-0.46907714009284973,-0.0007408229429898845,-0.6814724471889996,-0.05523133724151688,-0.0358194487497433,0.004739567544922725,0.0,0.0,-0.6,0.0,0.0005145072937011719,0
0.9715762138366699,0.0011472984915599227,0.004711869638413191,-0.47433122992515564,-0.0007447336408418736,-0.6818177692135113,-0.055246376365438846,-0.036876248730294006,0.004763849697512441,0.0,0.0,-0.6,0.0,0.0018367767333984375,0
0.9806334972381592,0.0009740452514961362,0.004730795975774527,-0.4768807291984558,-0.0007324872598525948,-0.682067740240986,-0.054517535743899705,-0.03681160907283299,0.004685205627100944,0.0,0.0,-0.6,0.0,0.001382589340209961,0
0.9902596473693848,0.0006397024262696505,0.004770700354129076,-0.48182448744773865,-0.0007137112507559185,-0.682610492855338,-0.05360807521796559,-0.033904490895047636,0.004564743155859974,0.0,0.0,-0.6,0.0,0.0010230541229248047,0
1.0004634857177734,0.0006397024262696505,0.004770700354129076,-0.48182448744773865,-0.0007137112507559185,-0.682610492855338,-0.05360807521796559,-0.033904490895047636,0.004564743155859974,0.0,0.0,-0.6,0.0,0.0004096031188964844,0
1.0107572078704834,0.00016659469110891223,0.004838826600462198,-0.48888906836509705,-0.0006653627660931636,-0.6834976027105681,-0.048304474853559196,-0.02837975346150825,0.00425490573950853,0.0,0.0,-0.6,0.0,0.0012698173522949219,0
1.0202226638793945,0.00016659469110891223,0.004838826600462198,-0.48888906836509705,-0.0006653627660931636,-0.6834976027105681,-0.048304474853559196,-0.02837975346150825,0.00425490573950853,0.0,0.0,-0.6,0.0,0.0002827644348144531,0
1.0316095352172852,-0.00012863967276643962,0.0048835198394954205,-0.49338990449905396,-0.0006234917482619901,-0.6841634292491445,-0.04179003310805761,-0.023187390677476324,0.003986663031846592,0.0,0.0,-0.6,0.0,0.0016360282897949219,0
1.0400946140289307,-0.00012863967276643962,0.0048835198394954205,-0.49338990449905396,-0.0006234917482619901,-0.6841634292491445,-0.04179003310805761,-0.023187390677476324,0.003986663031846592,0.0,0.0,-0.6,0.0,0.00023102760314941406,0
1.0500197410583496,-0.0005436824285425246,0.004952322691679001,-0.49977171421051025,-0.0005662645596655788,-0.6851351231900568,-0.034274349404794735,-0.015937557813199103,0.003619872764502633,0.0,0.0,-0.6,0.0,0.0005013942718505859,0
1.0601956844329834,-0.0005436824285425246,0.004952322691679001,-0.49977171421051025,-0.0005662645596655788,-0.6851351231900568,-0.034274349404794735,-0.015937557813199103,0.003619872764502633,0.0,0.0,-0.6,0.0,0.0002589225769042969,0
1.0702762603759766,-0.0007966166594997048,0.004996644798666239,-0.5037869811058044,-0.0004934841811918744,-0.6858160235399386,-0.02715088933026514,-0.008686442794982516,0.0031536548258239484,0.0,0.0,-0.6,0.0,0.0010330677032470703,0
1.0800340175628662,-0.0007966166594997048,0.004996644798666239,-0.5037869811058044,-0.0004934841811918744,-0.6858160235399386,-0.02715088933026514,-0.008686442794982516,0.0031536548258239484,0.0,0.0,-0.6,0.0,0.00018072128295898438,0
1.0898313522338867,-0.00113480759318918,0.005053240805864334,-0.5095030665397644,-0.00044341009441520914,-0.686897364348209,-0.014815487265557838,0.001376612749666371,0.0028323524358417843,0.0,0.0,-0.6,0.0,0.0005707740783691406,0
1.1000409126281738,-0.00113480759318918,0.005053240805864334,-0.5095030665397644,-0.00044341009441520914,-0.686897364348209,-0.014815487265557838,0.001376612749666371,0.0028323524358417843,0.0,0.0,-0.6,0.0,0.00015401840209960938,0
1.1098382472991943,-0.001330454833805561,0.005083779338747263,-0.5131033062934875,-0.00041795361189080575,-0.6874980431486383,-0.0075213045732261076,0.010726358353732174,0.002668108291292267,0.0,0.0,-0.6,0.0,0.0007457733154296875,0
1.1201825141906738,-0.001330454833805561,0.005083779338747263,-0.5131033062934875,-0.00041795361189080575,-0.6874980431486383,-0.0075213045732261076,0.010726358353732174,0.002668108291292267,0.0,0.0,-0.6,0.0,0.0003409385681152344,0
1.1308107376098633,-0.001501139486208558,0.0051099201664328575,-0.5165345072746277,-0.0003765489982182117,-0.6881837167318013,-0.0007282107743104676,0.018253103458382148,0.0024019732390350157,0.0,0.0,-0.6,0.0,0.001482248306274414,0
1.1406610012054443,-0.001501139486208558,0.0051099201664328575,-0.5165345072746277,-0.0003765489982182117,-0.6881837167318013,-0.0007282107743104676,0.018253103458382148,0.0024019732390350157,0.0,0.0,-0.6,0.0,0.00042939186096191406,0
1.1500627994537354,-0.001719274208880961,0.005130193196237087,-0.5213702917098999,-0.0002798175569089951,-0.6891963535652971,0.012116271483987504,0.02655881895716431,0.001782666165901526,0.0,0.0,-0.6,0.0,0.0012068748474121094,0
1.1605594158172607,-0.001719274208880961,0.005130193196237087,-0.5213702917098999,-0.0002798175569089951,-0.6891963535652971,0.012116271483987504,0.02655881895716431,0.001782666165901526,0.0,0.0,-0.6,0.0,0.0005304813385009766,0
1.1705090999603271,-0.0018506681080907583,0.005123150069266558,-0.5245040059089661,-0.00025660987357698244,-0.6898981488043493,0.020365995401244532,0.030708199689822916,0.0016342516467696563,0.0,0.0,-0.6,0.0,0.0012409687042236328,0
1.180314540863037,-0.0018506681080907583,0.005123150069266558,-0.5245040059089661,-0.00025660987357698244,-0.6898981488043493,0.020365995401244532,0.030708199689822916,0.0016342516467696563,0.0,0.0,-0.6,0.0,0.0005266666412353516,0
1.1900827884674072,-0.0022787575144320726,0.005148286931216717,-0.5301209688186646,-0.0002051987353178029,-0.6902675973386775,0.031066682473473974,0.03180168564560524,0.0013072549461743467,0.0,0.0,-0.6,0.0,0.0011410713195800781,0
1.2002673149108887,-0.0022787575144320726,0.005148286931216717,-0.5301209688186646,-0.0002051987353178029,-0.6902675973386775,0.031066682473473974,0.03180168564560524,0.0013072549461743467,0.0,0.0,-0.6,0.0,0.00029730796813964844,0
1.21006441116333,-0.0027859092224389315,0.005155855789780617,-0.5359137058258057,-0.00018048053534730466,-0.6902603609154827,0.041041885837822506,0.02837625072613831,0.0011524626925535875,0.0,0.0,-0.6,0.0,0.0010561943054199219,0
1.2205445766448975,-0.0027859092224389315,0.005155855789780617,-0.5359137058258057,-0.00018048053534730466,-0.6902603609154827,0.041041885837822506,0.02837625072613831,0.0011524626925535875,0.0,0.0,-0.6,0.0,0.00035691261291503906,0
1.2302377223968506,-0.003099987283349037,0.005142514128237963,-0.5395589470863342,-0.00015233051467767122,-0.6904096204352338,0.042803505001089225,0.024015043995799734,0.0009742679947009698,0.0,0.0,-0.6,0.0,0.0011906623840332031,0
1.2403178215026855,-0.003099987283349037,0.005142514128237963,-0.5395589470863342,-0.00015233051467767122,-0.6904096204352338,0.042803505001089225,0.024015043995799734,0.0009742679947009698,0.0,0.0,-0.6,0.0,0.0003476142883300781,0
1.2504358291625977,-0.0033923322334885597,0.0051163192838430405,-0.5430356860160828,-0.000118234960816436,-0.6905848743411404,0.04625065669071758,0.021112983895107178,0.0007579046573358651,0.0,0.0,-0.6,0.0,0.0011641979217529297,0
1.260451316833496,-0.0033923322334885597,0.0051163192838430405,-0.5430356860160828,-0.000118234960816436,-0.6905848743411404,0.04625065669071758,0.021112983895107178,0.0007579046573358651,0.0,0.0,-0.6,0.0,0.00041103363037109375,0
1.2704994678497314,-0.003795407246798277,0.005049441941082478,-0.5479106903076172,-3.734518942837116e-05,-0.6907508871075259,0.04645436245370501,0.013866526380466886,0.0002426313069540778,0.0,0.0,-0.6,0.0,0.0012466907501220703,0
1.2801086902618408,-0.003795407246798277,0.005049441941082478,-0.5479106903076172,-3.734518942837116e-05,-0.6907508871075259,0.04645436245370501,0.013866526380466886,0.0002426313069540778,0.0,0.0,-0.6,0.0,0.0006728172302246094,0
1.2902109622955322,-0.004152118694037199,0.004958368372172117,-0.5524033308029175,-3.0041516533702345e-05,-0.6910615971884664,0.044312403121378185,0.010112097950077883,0.0001958211364898445,0.0,0.0,-0.6,0.0,0.0008974075317382812,0
1.3003873825073242,-0.004152118694037199,0.004958368372172117,-0.5524033308029175,-3.0041516533702345e-05,-0.6910615971884664,0.044312403121378185,0.010112097950077883,0.0001958211364898445,0.0,0.0,-0.6,0.0,0.0002925395965576172,0
1.3101861476898193,-0.004358634352684021,0.004884270019829273,-0.5551856756210327,8.27739325963012e-06,-0.6913988758208404,0.04120104919646107,0.0076889072608338745,-4.958861648269316e-05,0.0,0.0,-0.6,0.0,0.0008556842803955078,0
1.3207647800445557,-0.004453027155250311,0.00484373327344656,-0.5565154552459717,2.3962190433568436e-05,-0.6915855042516558,0.03998964557618843,0.007134488746446223,-0.00015014698357008777,0.0,0.0,-0.6,0.0,0.0008590221405029297,0
1.3301949501037598,-0.004623692948371172,0.004757100250571966,-0.5590543150901794,3.7838964142090525e-05,-0.69203404123599,0.034513209871821666,0.005512465352664422,-0.0002395428018846332,0.0,0.0,-0.6,0.0,0.0008018016815185547,0
1.3402554988861084,-0.004702515434473753,0.00471153762191534,-0.5602642893791199,4.8870639955631325e-05,-0.692254637846838,0.03253714928011726,0.003389722537629061,-0.0003100713983503119,0.0,0.0,-0.6,0.0,0.0007388591766357422,0
1.3501789569854736,-0.004777432419359684,0.004664091859012842,-0.5614364147186279,8.674564830535624e-05,-0.6924417512243335,0.03006568327118751,0.0027889377565416982,-0.0005525736435064909,0.0,0.0,-0.6,0.0,0.000762939453125,0
1.3599207401275635,-0.004847269039601088,0.004615240730345249,-0.5625724196434021,9.715790332661845e-05,-0.6926358905338116,0.027418844728639983,0.001887284185459753,-0.0006194131437270613,0.0,0.0,-0.6,0.0,0.0008158683776855469,0
1.370229959487915,-0.004975771997123957,0.004513747990131378,-0.5647391080856323,0.00010151366447953155,-0.6931091680813235,0.02241769398345844,-4.5587515859143355e-05,-0.0006477261764815269,0.0,0.0,-0.6,0.0,0.0007653236389160156,0
1.380558729171753,-0.005033186171203852,0.004463167395442724,-0.5657699704170227,0.00012452146031757973,-0.6933880070763676,0.01887100110316974,-0.0010073160517476642,-0.0007950990951297878,0.0,0.0,-0.6,0.0,0.0008115768432617188,0
1.3900864124298096,-0.005086900666356087,0.0044111101888120174,-0.5667648315429688,0.00012106191448415157,-0.6936371333670931,0.017766067469866854,-0.0011894180819157101,-0.0007732327837439411,0.0,0.0,-0.6,0.0,0.0006341934204101562,0
1.4001758098602295,-0.005135414190590382,0.004356212913990021,-0.567725419998169,0.000128361593122566,-0.6938688777974824,0.0163830743848327,-0.0005691949321713207,-0.0008202003366907534,0.0,0.0,-0.6,0.0,0.0008170604705810547,0
1.4103643894195557,-0.005216766148805618,0.004242268390953541,-0.5695469975471497,0.0001145732788336256,-0.6943453700126619,0.011340448901153198,6.846449319649134e-05,-0.0007325013033076568,0.0,0.0,-0.6,0.0,0.0011341571807861328,0
1.4203088283538818,-0.005250420421361923,0.004184629302471876,-0.5704094767570496,0.00011794112180806417,-0.6945805914589346,0.008846378915709866,0.0013244721411881102,-0.0007541933123056635,0.0,0.0,-0.6,0.0,0.0006077289581298828,0
1.430128812789917,-0.005277751944959164,0.004127156920731068,-0.5712403059005737,0.00010115013915024244,-0.694841679613121,0.006060429222930162,0.003537966903293525,-0.0006469024139209281,0.0,0.0,-0.6,0.0,0.0006475448608398438,0
1.4400427341461182,-0.005277751944959164,0.004127156920731068,-0.5712403059005737,0.00010115013915024244,-0.694841679613121,0.006060429222930162,0.003537966903293525,-0.0006469024139209281,0.0,0.0,-0.6,0.0,0.00026798248291015625,0
1.4500141143798828,-0.005325907375663519,0.003955869935452938,-0.5735531449317932,8.63862013587594e-05,-0.6955597401507494,-0.0003417281128594779,0.006591061297342575,-0.0005524816403884644,0.0,0.0,-0.6,0.0,0.0006911754608154297,0
1.4604978561401367,-0.005325907375663519,0.003955869935452938,-0.5735531449317932,8.63862013587594e-05,-0.6955597401507494,-0.0003417281128594779,0.006591061297342575,-0.0005524816403884644,0.0,0.0,-0.6,0.0,0.000667572021484375,0
1.470435380935669,-0.0053375703282654285,0.00384101876989007,-0.5749460458755493,0.00010247739175273308,-0.6961344581559914,-0.00309793373675134,0.00859405600652222,-0.0006551944415216448,0.0,0.0,-0.6,0.0,0.0011169910430908203,0
1.4806876182556152,-0.0053375703282654285,0.00384101876989007,-0.5749460458755493,0.00010247739175273308,-0.6961344581559914,-0.00309793373675134,0.00859405600652222,-0.0006551944415216448,0.0,0.0,-0.6,0.0,0.0006148815155029297,0
1.4900267124176025,-0.005328899249434471,0.003663456765934825,-0.5768148899078369,8.337743858839589e-05,-0.6970229899152856,-0.006026976200953983,0.010097880225607737,-0.0005328211915438338,0.0,0.0,-0.6,0.0,0.0007109642028808594,0
1.500199556350708,-0.005328899249434471,0.003663456765934825,-0.5768148899078369,8.337743858839589e-05,-0.6970229899152856,-0.006026976200953983,0.010097880225607737,-0.0005328211915438338,0.0,0.0,-0.6,0.0,0.0002732276916503906,0
1.510467529296875,-0.005303467158228159,0.0035493129398673773,-0.5779221057891846,8.721077117716134e-05,-0.6976535539975837,-0.009399561430337839,0.011985089124837249,-0.000556991773488585,0.0,0.0,-0.6,0.0,0.0009732246398925781,0
1.519963264465332,-0.005303467158228159,0.0035493129398673773,-0.5779221057891846,8.721077117716134e-05,-0.6976535539975837,-0.009399561430337839,0.011985089124837249,-0.000556991773488585,0.0,0.0,-0.6,0.0,0.00016236305236816406,0
1.5300467014312744,-0.0052758920937776566,0.0034366920590400696,-0.5789859294891357,9.864536868438096e-05,-0.6982183924247614,-0.011170705854894929,0.013261829204950087,-0.0006298390185815136,0.0,0.0,-0.6,0.0,0.0005900859832763672,0
1.5403921604156494,-0.0052758920937776566,0.0034366920590400696,-0.5789859294891357,9.864536868438096e-05,-0.6982183924247614,-0.011170705854894929,0.013261829204950087,-0.0006298390185815136,0.0,0.0,-0.6,0.0,0.00035071372985839844,0
1.550201177597046,-0.005209178198128939,0.003275409573689103,-0.5803942680358887,0.00010053272171004012,-0.6989515705629759,-0.014949370918919484,0.014292336449853378,-0.000641526904066924,0.0,0.0,-0.6,0.0,0.0011785030364990234,0
1.5606849193572998,-0.005209178198128939,0.003275409573689103,-0.5803942680358887,0.00010053272171004012,-0.6989515705629759,-0.014949370918919484,0.014292336449853378,-0.000641526904066924,0.0,0.0,-0.6,0.0,0.0004978179931640625,0
1.5707476139068604,-0.0051236446015536785,0.003132288809865713,-0.5815858244895935,0.00010668670379833308,-0.6998700757355159,-0.01810966393324817,0.013661898924604135,-0.0006806461504467802,0.0,0.0,-0.6,0.0,0.0010483264923095703,0
1.5804047584533691,-0.0051236446015536785,0.003132288809865713,-0.5815858244895935,0.00010668670379833308,-0.6998700757355159,-0.01810966393324817,0.013661898924604135,-0.0006806461504467802,0.0,0.0,-0.6,0.0,0.0003902912139892578,0
1.5908100605010986,-0.00524287112057209,0.0032888869754970074,-0.583152174949646,7.448692601324547e-05,-0.69997479786544,-0.02276042721551212,0.011952234021055051,-0.0004746406997593338,0.0,0.0,-0.6,0.0,0.0009477138519287109,0
1.6000089645385742,-0.00524287112057209,0.0032888869754970074,-0.583152174949646,7.448692601324547e-05,-0.69997479786544,-0.02276042721551212,0.011952234021055051,-0.0004746406997593338,0.0,0.0,-0.6,0.0,0.0002551078796386719,0
1.6099903583526611,-0.00539127504453063,0.00351383863016963,-0.5852778553962708,3.00169778750794e-05,-0.7001956225885815,-0.025378805821285103,0.00857226514994684,-0.00019017793392314022,0.0,0.0,-0.6,0.0,0.0007541179656982422,0
1.620316505432129,-0.00539127504453063,0.00351383863016963,-0.5852778553962708,3.00169778750794e-05,-0.7001956225885815,-0.025378805821285103,0.00857226514994684,-0.00019017793392314022,0.0,0.0,-0.6,0.0,0.00029778480529785156,0
1.630218267440796,-0.005466123577207327,0.0036585654597729445,-0.5865528583526611,-3.632486768172736e-05,-0.7001801647729138,-0.02820661983324892,0.008123666845380618,0.00023456145334961603,0.0,0.0,-0.6,0.0,0.0007750988006591797,0
1.6403872966766357,-0.005466123577207327,0.0036585654597729445,-0.5865528583526611,-3.632486768172736e-05,-0.7001801647729138,-0.02820661983324892,0.008123666845380618,0.00023456145334961603,0.0,0.0,-0.6,0.0,0.00037479400634765625,0
1.6500890254974365,-0.0055239335633814335,0.003803555853664875,-0.5877255797386169,-6.343483089699712e-05,-0.7002229231011554,-0.030988078952623545,0.007010842475203356,0.000408431927455638,0.0,0.0,-0.6,0.0,0.0006134510040283203,0
1.660118579864502,-0.0055239335633814335,0.003803555853664875,-0.5877255797386169,-6.343483089699712e-05,-0.7002229231011554,-0.030988078952623545,0.007010842475203356,0.000408431927455638,0.0,0.0,-0.6,0.0,0.0002796649932861328,0
1.6703760623931885,-0.005564983002841473,0.003946326207369566,-0.5888139605522156,-5.343162947569061e-05,-0.7002804801129638,-0.03141961061131475,0.004737009988653276,0.0003447781077244267,0.0,0.0,-0.6,0.0,0.0007975101470947266,0
1.6801135540008545,-0.005579514428973198,0.004015970975160599,-0.5893281698226929,-5.218786125733266e-05,-0.7003515062150613,-0.03130803326915676,0.004451387061639638,0.0003370097860166192,0.0,0.0,-0.6,0.0,0.0007307529449462891,0
1.6908345222473145,-0.005600349977612495,0.004220303613692522,-0.5907280445098877,-4.5258040995093455e-05,-0.700563025198954,-0.03203733317193829,0.004172342661029723,0.0002935837762272618,0.0,0.0,-0.6,0.0,0.0011341571807861328,0
1.7003343105316162,-0.005600349977612495,0.004220303613692522,-0.5907280445098877,-4.5258040995093455e-05,-0.700563025198954,-0.03203733317193829,0.004172342661029723,0.0002935837762272618,0.0,0.0,-0.6,0.0,0.0003485679626464844,0
1.7104151248931885,-0.0055927676148712635,0.004355045035481453,-0.5915481448173523,-5.435582995570525e-05,-0.7007187699703042,-0.031001151249536982,0.004572895228078178,0.0003521041976976099,0.0,0.0,-0.6,0.0,0.0008630752563476562,0
1.7204670906066895,-0.0055927676148712635,0.004355045035481453,-0.5915481448173523,-5.435582995570525e-05,-0.7007187699703042,-0.031001151249536982,0.004572895228078178,0.0003521041976976099,0.0,0.0,-0.6,0.0,0.00035643577575683594,0
1.7306842803955078,-0.0055536674335598946,0.004545584786683321,-0.592653751373291,-6.723200913439441e-05,-0.7009124871341594,-0.026058905703530335,0.005400309913691793,0.000434458543967919,0.0,0.0,-0.6,0.0,0.0009636878967285156,0
1.7402207851409912,-0.0055536674335598946,0.004545584786683321,-0.592653751373291,-6.723200913439441e-05,-0.7009124871341594,-0.026058905703530335,0.005400309913691793,0.000434458543967919,0.0,0.0,-0.6,0.0,0.00030541419982910156,0
1.7504584789276123,-0.005534244701266289,0.0046059200540184975,-0.5930028557777405,-7.626732345847941e-05,-0.7009681569173365,-0.02485280636096577,0.005623367146842417,0.0004921909216964042,0.0,0.0,-0.6,0.0,0.0010123252868652344,0
1.7602767944335938,-0.005512954201549292,0.004665899556130171,-0.5933325886726379,-8.632980325996704e-05,-0.7010421846746173,-0.02430279374739855,0.0043437817467633635,0.0005566355578700661,0.0,0.0,-0.6,0.0,0.0010538101196289062,0
1.770543098449707,-0.005466839764267206,0.004781412426382303,-0.5939274430274963,-0.000106383215700638,-0.7013942367599477,-0.020962910062595385,0.003284190751552978,0.0006847628850201776,0.0,0.0,-0.6,0.0,0.0009241104125976562,0
1.7805345058441162,-0.005440174601972103,0.0048366691917181015,-0.5941922664642334,-0.00011316717840525328,-0.7015732208812423,-0.019357894103009157,0.003968268873304087,0.0007280057310943981,0.0,0.0,-0.6,0.0,0.0009975433349609375,0
1.7902247905731201,-0.005376451648771763,0.004941984079778194,-0.5946643948554993,-0.00011277669475983311,-0.7017530899858753,-0.01605942398879058,0.005659144819335302,0.0007251054709188315,0.0,0.0,-0.6,0.0,0.0008080005645751953,0
1.800382137298584,-0.005376451648771763,0.004941984079778194,-0.5946643948554993,-0.00011277669475983311,-0.7017530899858753,-0.01605942398879058,0.005659144819335302,0.0007251054709188315,0.0,0.0,-0.6,0.0,0.0003447532653808594,0
1.8101041316986084,-0.0052995625883340836,0.005040451418608427,-0.5950677990913391,-7.830264982017283e-05,-0.7020585618885032,-0.010299542779648837,0.004149857399487438,0.0005042817971357802,0.0,0.0,-0.6,0.0,0.0009496212005615234,0
1.8203401565551758,-0.005257893353700638,0.005084938835352659,-0.5952417254447937,-7.096535553499944e-05,-0.7022471137696871,-0.006561794893206253,0.004857557426578193,0.0004567899193699116,0.0,0.0,-0.6,0.0,0.0011386871337890625,0
1.8303585052490234,-0.005212877877056599,0.005125795025378466,-0.5953976511955261,-6.888160986766378e-05,-0.7023826487682118,-0.0039644129549950575,0.00555897039861874,0.0004430071619428387,0.0,0.0,-0.6,0.0,0.0009264945983886719,0
1.840299129486084,-0.005165556445717812,0.005164122208952904,-0.5955362915992737,-7.211064200559933e-05,-0.7025539607758041,-0.0012650080964346862,0.005767981235005404,0.00046323810544488436,0.0,0.0,-0.6,0.0,0.0010769367218017578,0
1.8503131866455078,-0.005066888406872749,0.0052316999062895775,-0.5957629680633545,-0.00010096148065464403,-0.7028360034272122,0.003886397905893441,0.005133880022965936,0.0006471043245730751,0.0,0.0,-0.6,0.0,0.0009238719940185547,0
1.860546350479126,-0.005015229340642691,0.005262379068881273,-0.5958526134490967,-0.0001139320723255179,-0.7030318198817123,0.005756037417003549,0.005385591357361802,0.0007297218753107153,0.0,0.0,-0.6,0.0,0.0011305809020996094,0
1.8704335689544678,-0.004905753303319216,0.005316593684256077,-0.5959826111793518,-0.00012139105117869119,-0.703332494821565,0.010560128869535586,0.006112100258046594,0.000776463307984342,0.0,0.0,-0.6,0.0,0.0007455348968505859,0
1.8803489208221436,-0.004905753303319216,0.005316593684256077,-0.5959826111793518,-0.00012139105117869119,-0.703332494821565,0.010560128869535586,0.006112100258046594,0.000776463307984342,0.0,0.0,-0.6,0.0,0.00032019615173339844,0
1.890592098236084,-0.004727652762085199,0.005371171981096268,-0.5961222052574158,-0.00014087568886476942,-0.7038304864599438,0.019671660905526713,0.008390853438879898,0.0008988094268090017,0.0,0.0,-0.6,0.0,0.0011415481567382812,0
1.900374174118042,-0.004727652762085199,0.005371171981096268,-0.5961222052574158,-0.00014087568886476942,-0.7038304864599438,0.019671660905526713,0.008390853438879898,0.0008988094268090017,0.0,0.0,-0.6,0.0,0.0003483295440673828,0
1.9103856086730957,-0.004663314204663038,0.0053802053444087505,-0.5961393713951111,-0.00013996617409308608,-0.7039661244244853,0.02218517019284009,0.009204645405685519,0.0008922727699615417,0.0,0.0,-0.6,0.0,0.0009949207305908203,0
1.9202759265899658,-0.004596671089529991,0.005385878495872021,-0.5961427092552185,-0.00013910850770412964,-0.7041390502965008,0.02417097803850877,0.009499449781306884,0.0008862824247535065,0.0,0.0,-0.6,0.0,0.0011746883392333984,0
1.930354118347168,-0.004457992035895586,0.005388878285884857,-0.596108615398407,-0.00010761271726413522,-0.7044613992174492,0.026922925803213028,0.01031020510754798,0.0006840071824169232,0.0,0.0,-0.6,0.0,0.0007355213165283203,0
1.9404070377349854,-0.004457992035895586,0.005388878285884857,-0.596108615398407,-0.00010761271726413522,-0.7044613992174492,0.026922925803213028,0.01031020510754798,0.0006840071824169232,0.0,0.0,-0.6,0.0,0.0003573894500732422,0
1.9503474235534668,-0.004238811321556568,0.005363438278436661,-0.5959533452987671,-6.369665903358734e-05,-0.7049427694363278,0.032812274312023916,0.01006803287563226,0.0004018775807984878,0.0,0.0,-0.6,0.0,0.0011434555053710938,0
1.960479736328125,-0.004238811321556568,0.005363438278436661,-0.5959533452987671,-6.369665903358734e-05,-0.7049427694363278,0.032812274312023916,0.01006803287563226,0.0004018775807984878,0.0,0.0,-0.6,0.0,0.0003781318664550781,0
1.9704763889312744,-0.004093061666935682,0.0053261094726622105,-0.5957772135734558,-6.898476443010884e-05,-0.7052878058626714,0.03405340404264528,0.008161915231700505,0.00043573862796757027,0.0,0.0,-0.6,0.0,0.000934600830078125,0
1.9802913665771484,-0.004020361695438623,0.005302818957716227,-0.5956718921661377,-4.75634606664876e-05,-0.7055167229095084,0.034619602102167746,0.007408885427762947,0.00029875067155910127,0.0,0.0,-0.6,0.0,0.0010249614715576172,0
1.9908504486083984,-0.003995985724031925,0.005648590158671141,-0.5960646867752075,-3.7899601459870994e-05,-0.705648526490482,0.03121208405959893,0.005180854450164199,0.0002382219359965145,0.0,0.0,-0.6,0.0,0.0011067390441894531,0
2.000288486480713,-0.003995985724031925,0.005648590158671141,-0.5960646867752075,-3.7899601459870994e-05,-0.705648526490482,0.03121208405959893,0.005180854450164199,0.0002382219359965145,0.0,0.0,-0.6,0.0,0.00039267539978027344,0
2.010624647140503,-0.003980191890150309,0.005810548551380634,-0.5962336659431458,-4.756670600493733e-05,-0.7056776714142956,0.028538813510760947,0.005034639762143242,0.00030060484225888465,0.0,0.0,-0.6,0.0,0.0013859272003173828,0
2.0202057361602783,-0.003943443764001131,0.00611570430919528,-0.596519947052002,-1.4845082980427433e-05,-0.7057267038104408,0.023275077053351,0.002317651432005329,9.30326400849585e-05,0.0,0.0,-0.6,0.0,0.0007693767547607422,0
2.029935836791992,-0.0039042234420776367,0.006398009601980448,-0.5967857837677002,-2.7055499070419022e-05,-0.7057066977456288,0.017201470349954222,0.00019762249568143456,0.00017276060324772485,0.0,0.0,-0.6,0.0,0.0006911754608154297,0
2.040342330932617,-0.0039042234420776367,0.006398009601980448,-0.5967857837677002,-2.7055499070419022e-05,-0.7057066977456288,0.017201470349954222,0.00019762249568143456,0.00017276060324772485,0.0,0.0,-0.6,0.0,0.000301361083984375,0
2.050461530685425,-0.003833378665149212,0.0067739663645625114,-0.5970727801322937,-1.9597711228340927e-05,-0.7057544727810346,0.009960964982629859,-0.002124957154916706,0.00012689768935932567,0.0,0.0,-0.6,0.0,0.0013222694396972656,0
2.0604753494262695,-0.003833378665149212,0.0067739663645625114,-0.5970727801322937,-1.9597711228340927e-05,-0.7057544727810346,0.009960964982629859,-0.002124957154916706,0.00012689768935932567,0.0,0.0,-0.6,0.0,0.00041556358337402344,0
2.070385456085205,-0.0038063935935497284,0.00688776234164834,-0.5971403121948242,3.483560737897405e-07,-0.7058217993006334,0.0072699876574311775,-0.002253655367520531,-6.39905515683124e-08,0.0,0.0,-0.6,0.0,0.0009768009185791016,0
2.080308198928833,-0.003778233891353011,0.00699728075414896,-0.5971940755844116,1.2859979091660022e-05,-0.7058258708889509,0.0035977884126027018,-0.0036792235376224337,-7.909271800141782e-05,0.0,0.0,-0.6,0.0,0.0011889934539794922,0
2.0907208919525146,-0.0036849877797067165,0.007304792758077383,-0.5972775220870972,1.1191370913707622e-05,-0.7059790128061466,-0.00723231635069603,-0.005435109751299046,-6.587998074710864e-05,0.0,0.0,-0.6,0.0,0.0009520053863525391,0
2.1004981994628906,-0.0036849877797067165,0.007304792758077383,-0.5972775220870972,1.1191370913707622e-05,-0.7059790128061466,-0.00723231635069603,-0.005435109751299046,-6.587998074710864e-05,0.0,0.0,-0.6,0.0,0.0003542900085449219,0
2.1107070446014404,-0.0036517560947686434,0.007398760877549648,-0.5972831845283508,1.021185563308764e-05,-0.7060018209873598,-0.009920459386700612,-0.005629497120751828,-5.8975542527264816e-05,0.0,0.0,-0.6,0.0,0.0020186901092529297,0
2.1210451126098633,-0.0036159162409603596,0.007489518728107214,-0.5972777605056763,1.3550586304569816e-05,-0.7060412730036065,-0.013665853619122665,-0.005250720565780464,-7.94540313866933e-05,0.0,0.0,-0.6,0.0,0.0013659000396728516,0
2.130746364593506,-0.00350170093588531,0.007751469500362873,-0.5971914529800415,-4.4776250150512905e-07,-0.7062496314522887,-0.024352365345489183,-0.006023204474330305,1.2475921393512848e-05,0.0,0.0,-0.6,0.0,0.001584768295288086,0
2.1403796672821045,-0.00350170093588531,0.007751469500362873,-0.5971914529800415,-4.4776250150512905e-07,-0.7062496314522887,-0.024352365345489183,-0.006023204474330305,1.2475921393512848e-05,0.0,0.0,-0.6,0.0,0.000362396240234375,0
2.1498398780822754,-0.0034208018332719803,0.007914942689239979,-0.5970785617828369,-1.7011264798487528e-06,-0.7064015262231629,-0.028052650920986934,-0.005971938288113269,2.112568368667329e-05,0.0,0.0,-0.6,0.0,0.00040078163146972656,0
2.159968137741089,-0.0034208018332719803,0.007914942689239979,-0.5970785617828369,-1.7011264798487528e-06,-0.7064015262231629,-0.028052650920986934,-0.005971938288113269,2.112568368667329e-05,0.0,0.0,-0.6,0.0,0.000141143798828125,0
2.1699328422546387,-0.00333678862079978,0.008067010901868343,-0.596934974193573,1.9437689700726988e-05,-0.7066455938988618,-0.031268806297812396,-0.00506238402047932,-0.00011342725002171023,0.0,0.0,-0.6,0.0,0.0004012584686279297,0
2.1802191734313965,-0.00333678862079978,0.008067010901868343,-0.596934974193573,1.9437689700726988e-05,-0.7066455938988618,-0.031268806297812396,-0.00506238402047932,-0.00011342725002171023,0.0,0.0,-0.6,0.0,0.00025653839111328125,0
2.1901352405548096,-0.003203707979992032,0.00828107912093401,-0.5966579914093018,1.1287038077547719e-05,-0.706862916054327,-0.035418556825454674,-0.005100152378615914,-6.06690686303164e-05,0.0,0.0,-0.6,0.0,0.0012252330780029297,0
2.2004761695861816,-0.003203707979992032,0.00828107912093401,-0.5966579914093018,1.1287038077547719e-05,-0.706862916054327,-0.035418556825454674,-0.005100152378615914,-6.06690686303164e-05,0.0,0.0,-0.6,0.0,0.0003952980041503906,0
2.2104551792144775,-0.0030622228514403105,0.008479854092001915,-0.5962992310523987,7.573414916114607e-06,-0.707106057031875,-0.036428276298819444,-0.0016141024048917081,-3.704861670313515e-05,0.0,0.0,-0.6,0.0,0.0011043548583984375,0
2.220339775085449,-0.0030622228514403105,0.008479854092001915,-0.5962992310523987,7.573414916114607e-06,-0.707106057031875,-0.036428276298819444,-0.0016141024048917081,-3.704861670313515e-05,0.0,0.0,-0.6,0.0,0.00032806396484375,0
2.2303154468536377,-0.0030121945310384035,0.0085415905341506,-0.5961619019508362,3.887531603153005e-06,-0.7072225399106266,-0.03590941938167161,-0.0012353761475591763,-1.3676361376905999e-05,0.0,0.0,-0.6,0.0,0.0009067058563232422,0
2.24027156829834,-0.002961965510621667,0.00860062800347805,-0.5960162281990051,-4.049439725883985e-06,-0.7072786552743016,-0.034992428555099986,-0.001481547410770836,3.6861895300586304e-05,0.0,0.0,-0.6,0.0,0.0009315013885498047,0
2.250347375869751,-0.002861598040908575,0.00871544610708952,-0.5957382321357727,-8.223849774158086e-07,-0.7074221677606921,-0.03318393117394875,-0.0011417512823548588,1.570852450701241e-05,0.0,0.0,-0.6,0.0,0.0012536048889160156,0
2.2608470916748047,-0.002810835372656584,0.008769501931965351,-0.5955875515937805,3.935189637988777e-06,-0.7074875939120464,-0.030923525646058048,-0.0007746575030339866,-1.5257706794903019e-05,0.0,0.0,-0.6,0.0,0.0015790462493896484,0
2.270230293273926,-0.002705295803025365,0.008864848874509335,-0.5952673554420471,3.2111571536452966e-06,-0.7075822774274262,-0.02497040948652231,0.002010630324048559,-1.2178143660674347e-05,0.0,0.0,-0.6,0.0,0.0006937980651855469,0
2.280391216278076,-0.002705295803025365,0.008864848874509335,-0.5952673554420471,3.2111571536452966e-06,-0.7075822774274262,-0.02497040948652231,0.002010630324048559,-1.2178143660674347e-05,0.0,0.0,-0.6,0.0,0.0003876686096191406,0
2.2900311946868896,-0.0025418156292289495,0.008983633480966091,-0.5947340130805969,1.59367100801975e-05,-0.707874474222922,-0.014536278840809084,0.0028158156484667895,-9.597801230307004e-05,0.0,0.0,-0.6,0.0,0.0006077289581298828,0
2.3001182079315186,-0.0025418156292289495,0.008983633480966091,-0.5947340130805969,1.59367100801975e-05,-0.707874474222922,-0.014536278840809084,0.0028158156484667895,-9.597801230307004e-05,0.0,0.0,-0.6,0.0,0.0002613067626953125,0
2.310098886489868,-0.0024862096179276705,0.009014560841023922,-0.5945424437522888,1.5091185357931986e-05,-0.7079420289711669,-0.011689606165922602,0.004041795416636731,-9.137397953305751e-05,0.0,0.0,-0.6,0.0,0.0008280277252197266,0
2.319960832595825,-0.00242568738758564,0.009044094942510128,-0.5943512320518494,1.4300702055112e-05,-0.7079724238369737,-0.009669000417782127,0.004675638429346081,-8.686563129943699e-05,0.0,0.0,-0.6,0.0,0.0004458427429199219,0
2.3301291465759277,-0.0022428191732615232,0.00911143608391285,-0.5937480926513672,-2.19566158811059e-06,-0.7081213800107788,0.0011211979260194523,0.0052460897721244015,1.6352347977057947e-05,0.0,0.0,-0.6,0.0,0.0006592273712158203,0
2.3402583599090576,-0.0022428191732615232,0.00911143608391285,-0.5937480926513672,-2.19566158811059e-06,-0.7081213800107788,0.0011211979260194523,0.0052460897721244015,1.6352347977057947e-05,0.0,0.0,-0.6,0.0,0.0002570152282714844,0
2.3502728939056396,-0.002118167234584689,0.00913782324641943,-0.5933259725570679,9.844989146305976e-06,-0.7081997571145987,0.007569489298126299,0.006719122463466131,-6.23156476535496e-05,0.0,0.0,-0.6,0.0,0.0011951923370361328,0
2.360645055770874,-0.002118167234584689,0.00913782324641943,-0.5933259725570679,9.844989146305976e-06,-0.7081997571145987,0.007569489298126299,0.006719122463466131,-6.23156476535496e-05,0.0,0.0,-0.6,0.0,0.00048089027404785156,0
2.3708465099334717,-0.001919678645208478,0.009152255021035671,-0.5926606059074402,-2.2399803803336536e-06,-0.7083891519182113,0.015510236231357454,0.009833342929541753,1.2351115358270798e-05,0.0,0.0,-0.6,0.0,0.0010483264923095703,0
2.3803489208221436,-0.001919678645208478,0.009152255021035671,-0.5926606059074402,-2.2399803803336536e-06,-0.7083891519182113,0.015510236231357454,0.009833342929541753,1.2351115358270798e-05,0.0,0.0,-0.6,0.0,0.0003948211669921875,0
2.390909194946289,-0.0020731177646666765,0.009250935167074203,-0.5928823351860046,3.6173927011657885e-06,-0.7081461260780045,0.022263271086576653,0.00764344925356707,-2.5653865298296414e-05,0.0,0.0,-0.6,0.0,0.0012476444244384766,0
2.400291681289673,-0.0020731177646666765,0.009250935167074203,-0.5928823351860046,3.6173927011657885e-06,-0.7081461260780045,0.022263271086576653,0.00764344925356707,-2.5653865298296414e-05,0.0,0.0,-0.6,0.0,0.0003864765167236328,0
2.4106929302215576,-0.002281095366925001,0.009350493550300598,-0.5931272506713867,4.482089916996804e-05,-0.707920562147005,0.029165985329356936,0.0026460041492126054,-0.0002887156780474074,0.0,0.0,-0.6,0.0,0.001251220703125,0
2.4205048084259033,-0.002281095366925001,0.009350493550300598,-0.5931272506713867,4.482089916996804e-05,-0.707920562147005,0.029165985329356936,0.0026460041492126054,-0.0002887156780474074,0.0,0.0,-0.6,0.0,0.0004277229309082031,0
2.4304890632629395,-0.0024070420768111944,0.009390424937009811,-0.5932375192642212,5.352768291570638e-05,-0.7077404951962397,0.03141504248955329,-0.0008591333880911952,-0.0003436058722443408,0.0,0.0,-0.6,0.0,0.0008730888366699219,0
2.440473794937134,-0.0024070420768111944,0.009390424937009811,-0.5932375192642212,5.352768291570638e-05,-0.7077404951962397,0.03141504248955329,-0.0008591333880911952,-0.0003436058722443408,0.0,0.0,-0.6,0.0,0.0003871917724609375,0
2.450502872467041,-0.0025200922973454,0.009411979466676712,-0.59330815076828,5.7821852831480404e-05,-0.7076318016467639,0.03343581836944616,-0.0015866835121633289,-0.0003712452827643542,0.0,0.0,-0.6,0.0,0.0008769035339355469,0
2.4603781700134277,-0.0025200922973454,0.009411979466676712,-0.59330815076828,5.7821852831480404e-05,-0.7076318016467639,0.03343581836944616,-0.0015866835121633289,-0.0003712452827643542,0.0,0.0,-0.6,0.0,0.0003542900085449219,0
2.4708738327026367,-0.0026596253737807274,0.009411200881004333,-0.5934234261512756,8.816769883835055e-05,-0.7073652259826737,0.03352085938012319,-0.0046596760489717665,-0.0005645230430547591,0.0,0.0,-0.6,0.0,0.0008146762847900391,0
2.480201482772827,-0.0026596253737807274,0.009411200881004333,-0.5934234261512756,8.816769883835055e-05,-0.7073652259826737,0.03352085938012319,-0.0046596760489717665,-0.0005645230430547591,0.0,0.0,-0.6,0.0,0.0003018379211425781,0
2.4904723167419434,-0.002770739607512951,0.009372534230351448,-0.5934625864028931,0.0001031674283337327,-0.7071429820550916,0.03385938403894136,-0.005989600861074567,-0.000660450958129548,0.0,0.0,-0.6,0.0,0.0010867118835449219,0
2.500277280807495,-0.002770739607512951,0.009372534230351448,-0.5934625864028931,0.0001031674283337327,-0.7071429820550916,0.03385938403894136,-0.005989600861074567,-0.000660450958129548,0.0,0.0,-0.6,0.0,0.00023984909057617188,0
2.5105648040771484,-0.002828613854944706,0.009325086139142513,-0.5934457182884216,0.0001371014888978934,-0.7071375987756889,0.03155364201155072,-0.006430092802627551,-0.0008771799250655174,0.0,0.0,-0.6,0.0,0.0009777545928955078,0
2.5203897953033447,-0.002828613854944706,0.009325086139142513,-0.5934457182884216,0.0001371014888978934,-0.7071375987756889,0.03155364201155072,-0.006430092802627551,-0.0008771799250655174,0.0,0.0,-0.6,0.0,0.00033164024353027344,0
2.5298514366149902,-0.0028901216574013233,0.009239273145794868,-0.5933722257614136,0.00017044032886563985,-0.7069659271296613,0.025389560156049776,-0.007287167827745621,-0.0010893392200992213,0.0,0.0,-0.6,0.0,0.0007150173187255859,0
2.5403289794921875,-0.0028901216574013233,0.009239273145794868,-0.5933722257614136,0.00017044032886563985,-0.7069659271296613,0.025389560156049776,-0.007287167827745621,-0.0010893392200992213,0.0,0.0,-0.6,0.0,0.0003097057342529297,0
2.5504064559936523,-0.0029070477467030287,0.009206311777234077,-0.5933353304862976,0.00017481245657026471,-0.7069414179450962,0.023367360271803927,-0.008403128293404482,-0.0011168314435124813,0.0,0.0,-0.6,0.0,0.0008864402770996094,0
2.560330390930176,-0.0029218001291155815,0.0091706532984972,-0.5932913422584534,0.00017588492790171888,-0.7068999885550725,0.022007734565869984,-0.008321986686619797,-0.0011236449572045847,0.0,0.0,-0.6,0.0,0.0013887882232666016,0
2.570491075515747,-0.0029350921977311373,0.009130005724728107,-0.59324049949646,0.00018310903540304997,-0.7068941326324798,0.021655065795485793,-0.009570617419372115,-0.0011697976132222375,0.0,0.0,-0.6,0.0,0.001039266586303711,0
