time,x,y,z,yaw,throttle,roll_rate,pitch_rate,yaw_rate,x_ref,y_ref,z_ref,yaw_ref,mpc_time,metadata
1.430511474609375e-06,-0.07164056599140167,-0.0007522786618210375,-0.052806317806243896,0.0095533587137562,-0.9750915851249042,-0.05136416621882112,-0.20806032980302516,-0.06432780295086944,4.839783134853996e-07,2.419891567427576e-07,-0.8,0.0,0.0036933422088623047,Sim
0.009406089782714844,-0.07181698828935623,-0.0007199341780506074,-0.05249866843223572,0.009574425580738644,-0.9750915851425416,-0.04137957603486934,-0.22955095315480273,-0.06438604063913994,0.003182274890069172,0.0015911538877186593,-0.8,0.0,0.0009183883666992188,Horizon:3.0
0.019697904586791992,-0.07188719511032104,-0.0006983869825489819,-0.05234852060675621,0.009574249227634968,-0.9750915851524308,-0.029733838182264903,-0.2519713772920864,-0.06428236325344658,0.006663898025776585,0.0033321000201541463,-0.8,0.0,0.0010895729064941406,Num Steps:20
0.029412508010864258,-0.07199375331401825,-0.0006440307479351759,-0.052068810909986496,0.00956771888478627,-0.975091585162168,-0.02047478866839047,-0.27471687393517263,-0.06417277261737289,0.009949656853685103,0.004975331141827494,-0.8,0.0,0.00070953369140625,No Pyjoules
0.03960418701171875,-0.07199375331401825,-0.0006440307479351759,-0.052068810909986496,0.00956771888478627,-0.9750915851645996,-0.009416836063907539,-0.2970050359685293,-0.06408170904402873,0.013395828222779859,0.0066991413559703145,-0.8,0.0,0.0009071826934814453,0
0.04947614669799805,-0.07205904275178909,-0.0005682703340426087,-0.0518130362033844,0.009580596666152874,-0.9750915851782288,-0.0013489508927103863,-0.3197760344005623,-0.06412567382366448,0.01673265478287815,0.008368720008064936,-0.8,0.0,0.0009925365447998047,0
0.059572696685791016,-0.07207746803760529,-0.0005234044510871172,-0.05168948695063591,0.009575381316638843,-0.9750915851848024,0.00932840179163859,-0.3419690873715335,-0.06400535488918703,0.02014381675436377,0.010076084750997128,-0.8,0.0,0.001172780990600586,0
0.06960558891296387,-0.07208581268787384,-0.0004751269589178264,-0.0515688918530941,0.009590497090617123,-0.9750915446420352,0.019677709589653015,-0.3639858643866129,-0.06402585609833612,0.02353157172202204,0.011772447131190857,-0.8,0.0,0.0012514591217041016,0
0.07996940612792969,-0.0720837339758873,-0.000423753255745396,-0.05145139992237091,0.009587552950190559,-0.9750915856958013,0.03137286208185058,-0.38595397141678867,-0.06389957387992114,0.02702874077716731,0.013524471217272608,-0.8,0.0,0.0014834403991699219,0
0.08948063850402832,-0.07205221801996231,-0.00031309796031564474,-0.05124485120177269,0.009582967137276266,-0.975091585768669,0.04040454998599301,-0.40734918849247703,-0.0638052150133267,0.030235834759510864,0.015132066574888912,-0.8,0.0,0.0014843940734863281,0
0.0995626449584961,-0.07202594727277756,-0.0002516396052669734,-0.05115383490920067,0.009577941158142056,-0.9750915856745703,0.05008104627581154,-0.4263233010202899,-0.063731446458353,0.033632591772748355,0.01683578470187649,-0.8,0.0,0.0008289813995361328,0
0.10961270332336426,-0.07199091464281082,-0.00018678023479878902,-0.05106363072991371,0.009577164728734178,-0.975091585772293,0.06088388583611937,-0.4390141172173332,-0.06373717200118682,0.03701540621208289,0.018533706228947296,-0.8,0.0,0.0007665157318115234,0
0.11958885192871094,-0.07194507867097855,-0.0001192122872453183,-0.050976045429706573,0.009577469041797815,-0.975091585776747,0.07121902701332786,-0.45061383531091515,-0.06382863372762827,0.04036988869299264,0.020218708582741773,-0.8,0.0,0.0008220672607421875,0
0.12953829765319824,-0.07182423025369644,2.4956738343462348e-05,-0.05081293359398842,0.009587649340456994,-0.975091585776863,0.08017770369989348,-0.4620768591152272,-0.0640626783987492,0.04371165349784193,0.021898732599807142,-0.8,0.0,0.0010616779327392578,0
0.1395554542541504,-0.07175031304359436,0.0001028561164275743,-0.05073736980557442,0.009587955134691373,-0.9750915857768659,0.08974698343377856,-0.47426053399361934,-0.06430457947776629,0.04707207538715824,0.023589678342818655,-0.8,0.0,0.0017757415771484375,0
0.15018749237060547,-0.0715801939368248,0.0002692507114261389,-0.05060349032282829,0.009586307235921044,-0.9750915779067191,0.09961387701823317,-0.48756377498310516,-0.06462536450878072,0.050633934297591214,0.025383813349568237,-0.8,0.0,0.0017955303192138672,0
0.15979218482971191,-0.0715801939368248,0.0002692507114261389,-0.05060349032282829,0.009586307235921044,-0.9750915790918621,0.11003696142361175,-0.49981461059273913,-0.06499421025617085,0.05384703267604412,0.02700401089278185,-0.8,0.0,0.0016918182373046875,0
0.16997766494750977,-0.07138439267873764,0.0004483521915972233,-0.05048837512731552,0.009608174430112438,-0.9750915801118916,0.1202085444056703,-0.5120841569564778,-0.06556020289525917,0.05724934732296257,0.028721543875033666,-0.8,0.0,0.0019087791442871094,0
0.17969393730163574,-0.07127518206834793,0.0005407317657954991,-0.050434429198503494,0.009616931784258287,-0.9750915809080462,0.1306033635586025,-0.5236621314170825,-0.0660904768886124,0.06048976247935845,0.03035930830333646,-0.8,0.0,0.0017788410186767578,0
0.18970823287963867,-0.0711594671010971,0.0006347909802570939,-0.050382692366838455,0.00961614218590714,-0.9750915815979031,0.14099606715356774,-0.5368272925977828,-0.06668839639351967,0.06382398254950615,0.03204660618105177,-0.8,0.0,0.0016260147094726562,0
0.20003247261047363,-0.07103793323040009,0.0007320915465243161,-0.050333891063928604,0.009623968309036246,-0.9750915821666608,0.15064452060624348,-0.5492634351575738,-0.06739612569684346,0.06725513267485748,0.033785339825728955,-0.8,0.0,0.0026624202728271484,0
0.20986390113830566,-0.07090896368026733,0.0008318836335092783,-0.05028887093067169,0.009608463534196221,-0.9750915826191981,0.16127775947007952,-0.5611395380479528,-0.06798459902556823,0.07051628091598262,0.035440296459164106,-0.8,0.0,0.0019576549530029297,0
0.21971964836120605,-0.0706290528178215,0.0010385821806266904,-0.05022069811820984,0.00961925287715395,-0.9750915829911103,0.16932721560127295,-0.5720153416190267,-0.06875971852120843,0.07377910320832533,0.03709854352808601,-0.8,0.0,0.0022537708282470703,0
0.22974395751953125,-0.07048051059246063,0.0011473948834463954,-0.05018794909119606,0.009628531550449427,-0.9750915831930527,0.1785270974882642,-0.5846569409881919,-0.06965309443573753,0.07709085833562433,0.03878428770617855,-0.8,0.0,0.0016505718231201172,0
0.23988127708435059,-0.07032717019319534,0.00125970842782408,-0.050156816840171814,0.009643228399696358,-0.9750915832699993,0.18840256130172617,-0.5969586396397946,-0.07065195086311421,0.08043258655150017,0.04048811033527244,-0.8,0.0,0.0016455650329589844,0
0.24963092803955078,-0.07000494003295898,0.0014909442979842424,-0.050101399421691895,0.00965293000188463,-0.9750915833395095,0.19735902127186927,-0.6076243072167559,-0.07157186763068323,0.08363923915867291,0.04212585942439085,-0.8,0.0,0.0013241767883300781,0
0.2596414089202881,-0.06983353197574615,0.0016103371744975448,-0.05007706210017204,0.009648249122310904,-0.975091583318557,0.20700015325183002,-0.6190430571717737,-0.0725190352807316,0.08692394632908788,0.04380644918444256,-0.8,0.0,0.0014088153839111328,0
0.26966285705566406,-0.06965693831443787,0.0017323411302641034,-0.05005386099219322,0.009641462181916327,-0.9750915832636629,0.21669601746302292,-0.6311513050220431,-0.07356470841658552,0.090204099508923,0.04548785299682124,-0.8,0.0,0.0014221668243408203,0
0.2797861099243164,-0.06947546452283859,0.0018566322978585958,-0.050040144473314285,0.00964755507114059,-0.9750915832445773,0.2265449923257118,-0.6428584122925871,-0.07473644985416521,0.09350897944798413,0.04718525405096393,-0.8,0.0,0.0012793540954589844,0
0.2900516986846924,-0.06909588724374771,0.0021116910502314568,-0.05001938343048096,0.009669328672300883,-0.9750915833006855,0.2357683874147996,-0.6536776593958585,-0.07599061615723468,0.09685118159835543,0.048905367345906295,-0.8,0.0,0.0012993812561035156,0
0.29961109161376953,-0.0688973143696785,0.002241625217720866,-0.050009824335575104,0.009664381828967695,-0.9750915834848631,0.24530609940320086,-0.6647798647701069,-0.07713136780390913,0.09995489671194902,0.05050606803204333,-0.8,0.0,0.0015118122100830078,0
0.30983757972717285,-0.06902292370796204,0.0023022571112960577,-0.04999706894159317,0.009704547211798944,-0.9750915839102904,0.2539595114605969,-0.6772150987295384,-0.07872404164018383,0.10326574648310849,0.05221727793079674,-0.8,0.0,0.0015897750854492188,0
0.3198277950286865,-0.06902292370796204,0.0023022571112960577,-0.04999706894159317,0.009704547211798944,-0.9750915846220546,0.2648250088836386,-0.6894665628263126,-0.08018921721154385,0.10649036068897685,0.053887720537771855,-0.8,0.0,0.0014226436614990234,0
0.3297696113586426,-0.06962884962558746,0.002180375624448061,-0.050006646662950516,0.009702277307371854,-0.9750915852283263,0.2760898554590817,-0.704919748453424,-0.0819439265885575,0.1096894944163875,0.05554882328034499,-0.8,0.0,0.0012187957763671875,0
0.33967113494873047,-0.06990669667720795,0.002130267210304737,-0.05001896247267723,0.009701700718404172,-0.9750915854659702,0.28680154134390984,-0.7182209732885045,-0.08360285167544577,0.11286559402631778,0.0572019190899031,-0.8,0.0,0.001512765884399414,0
0.34969186782836914,-0.07016776502132416,0.002086498774588108,-0.0500311441719532,0.009710779944682524,-0.9750915856444371,0.29861762699793154,-0.7310964371199068,-0.08545369960246021,0.11606940419742326,0.058873583374220655,-0.8,0.0,0.0021445751190185547,0
0.3597590923309326,-0.0704123005270958,0.002047791378572583,-0.0500434935092926,0.009730519511416591,-0.9750915856110743,0.31054738337391635,-0.7441888431526401,-0.08747799680993804,0.11927711174661128,0.06055161273704776,-0.8,0.0,0.0018494129180908203,0
0.36977219581604004,-0.07085171341896057,0.001984678441658616,-0.050070445984601974,0.009761572561441303,-0.9750915844294988,0.3233762630985988,-0.7569639417886782,-0.08968909125099743,0.12245637072361024,0.06221919912262285,-0.8,0.0,0.0014157295227050781,0
0.3797008991241455,-0.07104871422052383,0.001960180699825287,-0.05008603632450104,0.009764329234706071,-0.9750915853096692,0.334382164565452,-0.7695353687108637,-0.09166795341862864,0.1255975050332084,0.06387129069927291,-0.8,0.0,0.0015156269073486328,0
0.3896338939666748,-0.07123184204101562,0.001941146794706583,-0.050103139132261276,0.009765730561665431,-0.9750915857768403,0.3458851491442534,-0.7826145280374047,-0.0937607245253197,0.12872842050935107,0.06552262457709485,-0.8,0.0,0.0017380714416503906,0
0.39977192878723145,-0.07140123844146729,0.0019262098940089345,-0.050101663917303085,0.009788496398911906,-0.9750915856517413,0.35738360744138276,-0.7948056682849414,-0.09604377116883514,0.13191172564033768,0.06720648828917197,-0.8,0.0,0.0019297599792480469,0
0.40947580337524414,-0.07170063257217407,0.0019112961599603295,-0.05010195076465607,0.009811519379302493,-0.9750915749257402,0.3699327794782043,-0.7999064968597636,-0.10942205583107965,0.13494684395494042,0.06881672985309438,-0.8,0.0,0.0015799999237060547,0
0.419628381729126,-0.071832574903965,0.0019088295521214604,-0.050103526562452316,0.009812862382777144,-0.9750915793067372,0.3840277574409195,-0.7999982257918251,-0.12917039529482663,0.1381095908305586,0.07049980746921648,-0.8,0.0,0.0018627643585205078,0
0.4297158718109131,-0.07195404917001724,0.0019095048774033785,-0.05010833591222763,0.009814137882731689,-0.9750915857768352,0.3981058280117881,-0.7999999994702066,-0.15157312412928,0.1412388879250626,0.07217041372265443,-0.8,0.0,0.0019109249114990234,0
0.4394705295562744,-0.07206430286169052,0.0019138738280162215,-0.05011614412069321,0.009809006074493776,-0.975091581785309,0.41159223246239784,-0.7999960890203307,-0.17238285382866306,0.14425216645581002,0.07378426790992591,-0.8,0.0,0.001566171646118164,0
0.4497647285461426,-0.07224870473146439,0.001932455925270915,-0.05016288906335831,0.009810272105395226,-0.9750915857644142,0.4270385139826253,-0.7999999966816416,-0.19783175565611633,0.1474181982493929,0.07548560685559366,-0.8,0.0,0.0016160011291503906,0
0.4596073627471924,-0.07232450693845749,0.001947501441463828,-0.05020032450556755,0.009814517121974365,-0.9750915857767525,0.4402049851817804,-0.7999999999119642,-0.22086963877630783,0.1504317026903327,0.07711056806611907,-0.8,0.0,0.0021283626556396484,0
0.47005772590637207,-0.07244078069925308,0.001990415621548891,-0.050276175141334534,0.00982514133643011,-0.9750915848824793,0.45541032184239555,-0.7999999996485369,-0.2476463286207308,0.15361636398846182,0.07883395093602186,-0.8,0.0,0.0029001235961914062,0
0.479931116104126,-0.07244078069925308,0.001990415621548891,-0.050276175141334534,0.00982514133643011,-0.975091583765917,0.46806297144643555,-0.7999999985946581,-0.2635058323875307,0.1566108015708719,0.08046033751809241,-0.8,0.0,0.002033233642578125,0
0.4895002841949463,-0.07251778990030289,0.0020457771606743336,-0.05035243183374405,0.009798156304077455,-0.9750915857768584,0.48027121063409667,-0.7999999999999986,-0.27772737162802563,0.15949936338408646,0.08203486326731264,-0.8,0.0,0.0020360946655273438,0
0.4995441436767578,-0.07254140079021454,0.0020803180523216724,-0.050390712916851044,0.0098135996086415,-0.9750915857266248,0.4925971919995195,-0.7999999979223205,-0.29376631747821025,0.1625165325325297,0.08368560737944297,-0.8,0.0,0.001878499984741211,0
0.509636640548706,-0.07255646586418152,0.0021188848186284304,-0.050429265946149826,0.009827904417678357,-0.9750915857728398,0.5052381950349625,-0.7999999999784574,-0.3101756756293526,0.16553288148017167,0.0853423587304905,-0.8,0.0,0.0019752979278564453,0
0.5195348262786865,-0.07256202399730682,0.0021613240242004395,-0.05045223981142044,0.009831512625571715,-0.9750915857332809,0.5170981125072791,-0.7999999987477018,-0.32586457627499954,0.16847585568921636,0.08696524046658746,-0.8,0.0,0.0015091896057128906,0
0.5297443866729736,-0.0725456178188324,0.0022606116253882647,-0.050498683005571365,0.009832451877529704,-0.9750915857394725,0.5234123049988503,-0.7999999989710196,-0.33935018487951185,0.17149524754850218,0.08863708875390831,-0.8,0.0,0.0016469955444335938,0
0.5395112037658691,-0.07252443581819534,0.0023194942623376846,-0.05052260309457779,0.009839348554138172,-0.9750915857742353,0.5299864445755236,-0.7999999999302198,-0.3515573791470521,0.17436807350582723,0.0902344170659637,-0.8,0.0,0.0016543865203857422,0
0.5502643585205078,-0.07252443581819534,0.0023194942623376846,-0.05052260309457779,0.009839348554138172,-0.9750915857768369,0.5379354295298786,-0.7999999999991343,-0.3656565871790221,0.17751303691136813,0.09199073046395072,-0.8,0.0,0.002251863479614258,0
0.55983567237854,-0.07245031744241714,0.002450251951813698,-0.05057530105113983,0.009856303140585854,-0.9750915857667569,0.5434794362059492,-0.7999999997355194,-0.3762264035478537,0.18029622584293678,0.09355192503206693,-0.8,0.0,0.0029900074005126953,0
0.5695285797119141,-0.07239682227373123,0.0025225181598216295,-0.05060255527496338,0.009843946523050451,-0.9750915857425297,0.5500104433606755,-0.7999999991479854,-0.3885168053814021,0.18309904256563794,0.09513091246060791,-0.8,0.0,0.0013031959533691406,0
0.5797750949859619,-0.07225740700960159,0.0026812476571649313,-0.050667814910411835,0.009824090855574032,-0.975091585776424,0.5560413613121699,-0.7999999999882853,-0.4025454703034517,0.18604445906826733,0.09679781249830947,-0.8,0.0,0.001220703125,0
0.5895085334777832,-0.07217567414045334,0.0027660303749144077,-0.05070296302437782,0.009817909603841348,-0.9750915857158636,0.5635070137034628,-0.7999999771296175,-0.41928412644582186,0.18882548979430752,0.09837904727739613,-0.8,0.0,0.0011436939239501953,0
0.5993485450744629,-0.07199293375015259,0.0029457751661539078,-0.05078398063778877,0.009825530900620794,-0.9750915857387275,0.569711782456036,-0.7999999901360331,-0.4346787013511791,0.1916199784225738,0.09997538200575007,-0.8,0.0,0.0011162757873535156,0
0.6095070838928223,-0.07189010828733444,0.0030424294527620077,-0.05082635208964348,0.009834733132229512,-0.9750915857591937,0.5762276731742889,-0.7999999962919684,-0.4509662992431519,0.19448673612956682,0.10162101838675533,-0.8,0.0,0.0012898445129394531,0
0.6194479465484619,-0.07177957147359848,0.0031438590958714485,-0.05086807534098625,0.009847123178838648,-0.9750915857704449,0.5826812789562384,-0.7999999987303221,-0.466994410063828,0.1972739121190438,0.10322902095515184,-0.8,0.0,0.0015044212341308594,0
0.6295795440673828,-0.07166170328855515,0.003249302739277482,-0.05091116949915886,0.009855341959969866,-0.9750915857748066,0.5896302103101744,-0.7999999995904522,-0.48362390738423494,0.20009582045897534,0.10486542393730715,-0.8,0.0,0.0017094612121582031,0
0.6395277976989746,-0.07140698283910751,0.003471476724371314,-0.05099698156118393,0.00987616793288584,-0.9750915857758827,0.595477097325766,-0.7999999998327022,-0.499314153353381,0.20284799010526838,0.10646976769136905,-0.8,0.0,0.002192258834838867,0
0.6495754718780518,-0.07126996666193008,0.0035880613140761852,-0.051043178886175156,0.00989290948014634,-0.9750915857759112,0.6021750704487336,-0.7999999998889841,-0.5168131215591578,0.20560862298021965,0.10808764628236817,-0.8,0.0,0.0023336410522460938,0
0.6594994068145752,-0.0711275115609169,0.003708738600835204,-0.05109080672264099,0.0099150500026435,-0.9750915857763205,0.6089590550641129,-0.7999999999433974,-0.53423321940177,0.20831622039168834,0.10968309834754454,-0.8,0.0,0.0013086795806884766,0
0.6695995330810547,-0.07097893953323364,0.0038325467612594366,-0.05114045739173889,0.009930092567104221,-0.9750915857765835,0.6161043638176527,-0.7999999999724442,-0.5516925754539146,0.2110522039956992,0.11130428517250951,-0.8,0.0,0.0014307498931884766,0
0.679443359375,-0.07066003233194351,0.004089536610990763,-0.05124447122216225,0.009923771439485552,-0.9750915857767177,0.6215606057928428,-0.799999999986003,-0.5665386944785278,0.21369940343082286,0.11288178092277434,-0.8,0.0,0.0015594959259033203,0
0.6895084381103516,-0.07066003233194351,0.004089536610990763,-0.05124447122216225,0.009923771439485552,-0.9750915857767978,0.6295754477489393,-0.799999999993727,-0.585676331357017,0.2163860938350814,0.1144920906214943,-0.8,0.0,0.0012657642364501953,0
0.6994853019714355,-0.07031802833080292,0.004362393170595169,-0.05135619640350342,0.009912329972511702,-0.9750915857768293,0.6349427955924448,-0.7999999999966486,-0.6011969709988321,0.21902902311511593,0.11608561301273354,-0.8,0.0,0.001495361328125,0
0.7095370292663574,-0.07013827562332153,0.004503089934587479,-0.0514129139482975,0.009900775589496891,-0.9750915857768473,0.6425663795274638,-0.799999999998264,-0.619209883573961,0.22167118234047695,0.11768836295108337,-0.8,0.0,0.001379251480102539,0
0.7196407318115234,-0.07039545476436615,0.004412563052028418,-0.05124722793698311,0.009899574453476024,-0.9750915857768538,0.6522075221256977,-0.7999999999989839,-0.6418156114631514,0.2243059129166521,0.11929660099515556,-0.8,0.0,0.001367330551147461,0
0.7294487953186035,-0.07086223363876343,0.0042506917379796505,-0.0509335957467556,0.009922364874276357,-0.9750915857768538,0.6614839228577227,-0.7999999999991572,-0.6657334254503419,0.2268430863629145,0.12085506038528292,-0.8,0.0,0.0014557838439941406,0
0.73958420753479,-0.07107507437467575,0.004180269315838814,-0.05078547075390816,0.009923329566997619,-0.9750915857768514,0.6703047294758555,-0.799999999999146,-0.6889005672880724,0.22944351413724595,0.12246268036558533,-0.8,0.0,0.0020055770874023438,0
0.7496142387390137,-0.07127328217029572,0.004117085598409176,-0.0506417416036129,0.009934723031073813,-0.9750915857768644,0.6784462895732303,-0.7999999999997588,-0.7100034072698819,0.2319952240028604,0.12405069250542282,-0.8,0.0,0.0018537044525146484,0
0.7594192028045654,-0.07145711034536362,0.004061054904013872,-0.05049531161785126,0.009942655477751106,-0.9750915857746968,0.6871590522453731,-0.799999999883548,-0.7325336990316408,0.23446859761368535,0.1256002531323327,-0.8,0.0,0.0017290115356445312,0
0.7695493698120117,-0.0717824250459671,0.003966005519032478,-0.0502195805311203,0.009950243796353921,-0.9750915857618961,0.696210015824984,-0.7999999990091711,-0.7559107928064971,0.2370018816874427,0.1271982453327297,-0.8,0.0,0.0015935897827148438,0
0.779449462890625,-0.07192403078079224,0.003927875775843859,-0.05009057745337486,0.009975668538011706,-0.9750915857754526,0.7047150772066327,-0.799999999979746,-0.7782138156308107,0.23945567497136716,0.12875699848515268,-0.8,0.0,0.0017693042755126953,0
0.7895519733428955,-0.07205244898796082,0.003896329551935196,-0.04996665567159653,0.010001972854288855,-0.9750915857095518,0.7128098168219545,-0.7999999990543399,-0.7961047405466346,0.24193703007925535,0.1303445826779444,-0.8,0.0,0.0014820098876953125,0
0.7996721267700195,-0.07216900587081909,0.0038712555542588234,-0.04984620586037636,0.010011002682493131,-0.9750915857711518,0.7195257431573926,-0.799999999921031,-0.7998750572741679,0.24439958572016898,0.13193182366218156,-0.8,0.0,0.0011487007141113281,0
0.8096194267272949,-0.07236482948064804,0.0038421619683504105,-0.049607399851083755,0.010006772615831739,-0.9750915857768095,0.7253937549662763,-0.799999999999208,-0.7999976304815625,0.24679728911411267,0.13348887856443584,-0.8,0.0,0.0011479854583740234,0
0.8195011615753174,-0.07244525104761124,0.0038367286324501038,-0.04948873445391655,0.010030755031982497,-0.975091585730115,0.7312705282826749,-0.7999999978644339,-0.7995620355775815,0.24915659608331794,0.13503261553542428,-0.8,0.0,0.0017132759094238281,0
0.8296146392822266,-0.07251416891813278,0.003836794523522258,-0.04937472939491272,0.01003545776954009,-0.9750915857395007,0.7381072829856472,-0.7999999984343251,-0.7998743641025994,0.25154769135604665,0.1366093659923246,-0.8,0.0,0.0016827583312988281,0
0.8397507667541504,-0.07257228344678879,0.003842016216367483,-0.049265652894973755,0.01003485351559721,-0.9750915857579441,0.7443399509806918,-0.7999999992332004,-0.7999629627123302,0.2539200197318752,0.13818637265243405,-0.8,0.0,0.0017497539520263672,0
0.8497023582458496,-0.072657510638237,0.003869570093229413,-0.04906628653407097,0.010056991119603141,-0.9750915857610123,0.7501537363730937,-0.7999999994141468,-0.7999899761626089,0.25622544457253144,0.13973144242735552,-0.8,0.0,0.0010755062103271484,0
0.8593697547912598,-0.07268388569355011,0.003890874795615673,-0.048972904682159424,0.010067015415321979,-0.9750915857676332,0.7558593843559441,-0.799999999675269,-0.7999975077501731,0.25844232932600003,0.14122929338856333,-0.8,0.0,0.0011641979217529297,0
0.8695249557495117,-0.0726998820900917,0.003917641006410122,-0.048881880939006805,0.010059935661640007,-0.9750915857743865,0.7619989141488105,-0.7999999999153722,-0.7999997861383006,0.260746765807255,0.14279940279742395,-0.8,0.0,0.0011930465698242188,0
0.879873514175415,-0.0727054551243782,0.003948934376239777,-0.04878966882824898,0.010063493719233452,-0.9750915857259527,0.7682105836391351,-0.7999999984918751,-0.7999999977837605,0.2630692295848242,0.14439586820937414,-0.8,0.0,0.001344442367553711,0
0.8897230625152588,-0.07268890738487244,0.004026296082884073,-0.04861612990498543,0.010066553646998844,-0.9750915857135549,0.7735184541726313,-0.799999998239099,-0.7999999987997204,0.26525525602700845,0.14591199701130744,-0.8,0.0,0.0012972354888916016,0
0.8994612693786621,-0.07266726344823837,0.004072936251759529,-0.04853515699505806,0.010063180414994011,-0.9750915853395016,0.778471533227066,-0.7999999881566542,-0.7999999974635527,0.2673929329621464,0.14740773643483435,-0.8,0.0,0.0013892650604248047,0
0.9096958637237549,-0.07263628393411636,0.004125773441046476,-0.04845823347568512,0.010080104956154546,-0.9750915857768657,0.7841416230287457,-0.7999999999999763,-0.7999999999999867,0.26961403429168035,0.1489761984360867,-0.8,0.0,0.001514434814453125,0
0.919666051864624,-0.0725959986448288,0.004183710087090731,-0.04838450998067856,0.010090787736057896,-0.975091585775383,0.7899310493612858,-0.7999999999828684,-0.799999999262099,0.2717523816200048,0.15050063500423477,-0.8,0.0,0.0019214153289794922,0
0.929703950881958,-0.07254486531019211,0.004245692398399115,-0.04831337556242943,0.010085451566940651,-0.9750915856451641,0.7956793367994093,-0.7999999984880766,-0.7999999283771156,0.27387975183041907,0.15203189400857406,-0.8,0.0,0.002008676528930664,0
0.9395768642425537,-0.07241476327180862,0.004385022446513176,-0.04816313460469246,0.010083635614974074,-0.9750915857302617,0.7997524400938242,-0.7999999994703468,-0.7999999747888136,0.2759470038271195,0.15353449432361632,-0.8,0.0,0.0018491744995117188,0
0.9496173858642578,-0.07233690470457077,0.004461874719709158,-0.04809578135609627,0.010080759786413897,-0.9750915856707747,0.7999452325691089,-0.7999999987538969,-0.7999999411098463,0.2780235728682416,0.15505901794097107,-0.8,0.0,0.001528024673461914,0
0.9597268104553223,-0.07225190848112106,0.004542563576251268,-0.048033349215984344,0.01006134788351012,-0.9750915857694316,0.7999989192897787,-0.7999999999051698,-0.7999999954253336,0.28008793239784063,0.15659031423971861,-0.8,0.0,0.0016551017761230469,0
0.9694244861602783,-0.0720563605427742,0.004714471288025379,-0.04792062193155289,0.010037487615262708,-0.9750915857765277,0.7999999864238392,-0.7999999999951142,-0.7999999997469504,0.2820430794733411,0.1580557293727962,-0.8,0.0,0.0012021064758300781,0
1.0001940727233887,-0.07194618135690689,0.004805500619113445,-0.047868579626083374,0.01002359621498996,-0.9750915856346942,0.7999990331509095,-0.7999999966512772,-0.7999996738298794,0.28808164696870686,0.16268217889909925,-0.8,0.0,0.0009403228759765625,0
1.0094656944274902,-0.07157469540834427,0.005103278439491987,-0.04772742837667465,0.010012265628072359,-0.9750915857047814,0.7999995813314926,-0.799999998055114,-0.799999670104677,0.2898514885289703,0.16406923267212134,-0.8,0.0,0.0007565021514892578,0
1.0193841457366943,-0.07128965109586716,0.005322890821844339,-0.04764852300286293,0.01001314619917284,-0.975091585617357,0.7999997516979014,-0.7999999950090075,-0.799999422819768,0.2917190236422831,0.16554940532034337,-0.8,0.0,0.0006957054138183594,0
1.029592514038086,-0.07097325474023819,0.0055625466629862785,-0.0475834421813488,0.01000905921265296,-0.9750915855290028,0.7999998109325895,-0.7999999911570503,-0.7999987772270736,0.2936131427596534,0.16706887032601817,-0.8,0.0,0.0009157657623291016,0
1.0396432876586914,-0.07080531865358353,0.00568886986002326,-0.04755672812461853,0.010009812729569379,-0.9750915855843998,0.7999999413079422,-0.7999999932276751,-0.7999981789121154,0.29545009019227414,0.16856090496757173,-0.8,0.0,0.0009872913360595703,0
1.0494251251220703,-0.07063092291355133,0.0058204797096550465,-0.04752817377448082,0.010009706953491704,-0.9750915857713265,0.7999999999824884,-0.7999999996692901,-0.7999989984121008,0.2972111081341144,0.1700091969726366,-0.8,0.0,0.0010986328125,0
1.0595426559448242,-0.07045041769742966,0.005956134293228388,-0.04750147461891174,0.010008579108230964,-0.9750915855713163,0.7999999999857429,-0.7999999938680803,-0.7999933259142612,0.2990046026303042,0.17150319324442695,-0.8,0.0,0.0012276172637939453,0
1.0697846412658691,-0.07026361674070358,0.006099632475525141,-0.04748579114675522,0.009969450435787477,-0.9750915852771066,0.7999999999828019,-0.7999999864908406,-0.7999903185146108,0.30079102874072405,0.17301138981662662,-0.8,0.0,0.001519918441772461,0
1.0799050331115723,-0.07007311284542084,0.006266757380217314,-0.047531913965940475,0.009887683842532158,-0.9750915857559858,0.799999999999648,-0.7999999993139751,-0.7999989296671547,0.3025272875231293,0.17449751682420625,-0.8,0.0,0.0023059844970703125,0
1.0897996425628662,-0.06987200677394867,0.006469942629337311,-0.047709930688142776,0.009645548821289896,-0.9750915857374038,0.7999999876855669,-0.7999999988189648,-0.7999996765452392,0.3041968211616776,0.17594645279327237,-0.8,0.0,0.0020351409912109375,0
1.1010956764221191,-0.06941965222358704,0.006985572166740894,-0.048617541790008545,0.008680364005164054,-0.9750915857352195,0.7999989940975627,-0.7999999994472862,-0.7999999953720829,0.30606879150070976,0.17759568792315653,-0.8,0.0,0.00235748291015625,0
1.1106078624725342,-0.06917227804660797,0.007298222277313471,-0.04939448460936546,0.00793916293086141,-0.975091584428805,0.7999729396614378,-0.7999999827663125,-0.7999999284727798,0.30761684985611615,0.1789803753121592,-0.8,0.0,0.003674030303955078,0
1.1197359561920166,-0.06928680837154388,0.0072841038927435875,-0.05036449804902077,0.0069885069030964034,-0.9750915857764149,0.7999995358322209,-0.7999999999979326,-0.799999999948698,0.30907794724753807,0.18030559384214434,-0.8,0.0,0.0019121170043945312,0
1.129406452178955,-0.06944572925567627,0.007363339886069298,-0.05306727811694145,0.004306953440554895,-0.9750915857725378,0.7739101549683689,-0.7999999999903835,-0.7999999995792995,0.31059961158771954,0.18170572941637161,-0.8,0.0,0.0022192001342773438,0
1.1394572257995605,-0.06947555392980576,0.007453262805938721,-0.05481790006160736,0.0024347104616142764,-0.9750915847463685,0.7483231480703658,-0.7999999999696148,-0.7999999761405705,0.31215234819220944,0.18315671604546885,-0.8,0.0,0.0016434192657470703,0
1.149735450744629,-0.0694630965590477,0.007575296796858311,-0.05684599652886391,0.00017594038795312253,-0.9708541082712658,0.7153523954074906,-0.7999999999031937,-0.7999991661890374,0.3137097505018367,0.18463606865636412,-0.8,0.0,0.002230405807495117,0
1.1598503589630127,-0.0694049745798111,0.007731738965958357,-0.059160564094781876,-0.0024796257152543966,-0.9622510981146286,0.6752343413808559,-0.7999999965728035,-0.7998806610085112,0.31521217466644474,0.18608746674911406,-0.8,0.0,0.0024971961975097656,0
1.16959810256958,-0.0691337063908577,0.008160234428942204,-0.06467651575803757,-0.00893137195020266,-0.9433309700523537,0.5556066577532693,-0.7999999996666202,-0.6528687552768497,0.3166315503644392,0.18748197218695375,-0.8,0.0,0.0029449462890625,0
1.1794662475585938,-0.06891221553087234,0.008437657728791237,-0.06789246946573257,-0.012699704261881715,-0.9332150506600724,0.4667149893175439,-0.7999999999999948,-0.3659838180515018,0.3180398222492239,0.18888946321078628,-0.8,0.0,0.002464771270751953,0
1.1897554397583008,-0.06862767040729523,0.008763718418776989,-0.07142774015665054,-0.016777834702183636,-0.9224930872774223,0.3831716440625236,-0.7885297611400223,-0.13325033687612692,0.319477362020529,0.1903524318358806,-0.8,0.0,0.0034813880920410156,0
1.1998887062072754,-0.06827437877655029,0.009143474511802197,-0.07528985291719437,-0.021159796464829128,-0.9107895639261757,0.3195213298786371,-0.723960621227227,-0.10071483631433502,0.32086222902449785,0.1917886292771349,-0.8,0.0,0.001954317092895508,0
1.2094244956970215,-0.06733471155166626,0.010072668083012104,-0.08402927964925766,-0.030764510812561152,-0.8852529615131803,0.1816252357332183,-0.5851357879619771,-0.025546434642099314,0.3221373276316202,0.19313594485258403,-0.8,0.0,0.001634359359741211,0
1.21982741355896,-0.06673552840948105,0.010634400881826878,-0.08893639594316483,-0.03591535075915431,-0.8711526451577689,0.11225024930691947,-0.5153708592633435,0.014282047795826485,0.3234971553468745,0.19460109731287586,-0.8,0.0,0.0015425682067871094,0
1.2298648357391357,-0.06604041904211044,0.011268116533756256,-0.09422291815280914,-0.04118783646838731,-0.8562938230026718,0.042694302475572994,-0.443506978023129,0.05576946803881919,0.32477819997529683,0.1960101102311753,-0.8,0.0,0.0028450489044189453,0
1.239734411239624,-0.06524007022380829,0.011975529603660107,-0.09987141191959381,-0.04642929314871358,-0.8409772469358867,-0.0265977610528186,-0.36754094615040955,0.09870148420255279,0.3260080115298153,0.19739106363166287,-0.8,0.0,0.0022690296173095703,0
1.2497692108154297,-0.0632937029004097,0.013619690202176571,-0.11229555308818817,-0.056593402414516714,-0.810092284697665,-0.17325173665542207,-0.20627643963118936,0.18724819070785514,0.327227988596307,0.19879053007401867,-0.8,0.0,0.0022237300872802734,0
1.2595529556274414,-0.06214425712823868,0.014557963237166405,-0.1190321296453476,-0.06140636037352243,-0.7954396165884795,-0.25897495647326946,-0.1269535230648811,0.2380063867656836,0.328387801350253,0.20015048225413554,-0.8,0.0,0.0017256736755371094,0
1.2696409225463867,-0.060873162001371384,0.015574178658425808,-0.12608104944229126,-0.06600832671969936,-0.7812941971473315,-0.34213658744067543,-0.04663103067802606,0.2869485518037813,0.3295529212615454,0.20154803495700446,-0.8,0.0,0.0016398429870605469,0
1.2798407077789307,-0.059477049857378006,0.016668913885951042,-0.13341675698757172,-0.07034849442358482,-0.7676480876461861,-0.42357593724952247,0.034097282102254795,0.33321252575643856,0.3306990950450256,0.20295620715583487,-0.8,0.0,0.0015435218811035156,0
1.2893626689910889,-0.057127323001623154,0.018521595746278763,-0.14886559545993805,-0.07813128476944309,-0.7417689638699481,-0.5820791206509868,0.18780682657281883,0.41452526078216717,0.33174008855694553,0.2042663487259442,-0.8,0.0,0.0014698505401611328,0
1.299584150314331,-0.05616512522101402,0.019282855093479156,-0.1569300889968872,-0.08126790088823954,-0.729890787020442,-0.6422536603183449,0.25646576415104133,0.44595359336729223,0.33282627743863824,0.20566792283743404,-0.8,0.0,0.0015115737915039062,0
1.309626817703247,-0.05507003515958786,0.020123014226555824,-0.16518287360668182,-0.08404742369913443,-0.7185811432078395,-0.695023445358897,0.3224991387217493,0.4739923299924131,0.33386182096001404,0.20704008947703295,-0.8,0.0,0.0016677379608154297,0
1.3195343017578125,-0.05384363234043121,0.02104010246694088,-0.1736006736755371,-0.08646015509652871,-0.7079106359741735,-0.7439439902910766,0.3857201839922196,0.49856521866950004,0.3348525953812448,0.20838900590013756,-0.8,0.0,0.0015833377838134766,0
1.3296291828155518,-0.05101381614804268,0.02309868112206459,-0.19083280861377716,-0.09008928359092927,-0.6885869022871024,-0.7999995547544688,0.5212542946059789,0.5183549743746231,0.3358305204152391,0.2097585217321363,-0.8,0.0,0.0016322135925292969,0
1.3394029140472412,-0.049416929483413696,0.02423163130879402,-0.1995973289012909,-0.09126268674416993,-0.6800731153896298,-0.7999027153318009,0.5842325046771499,0.5215063643778508,0.33674686724367003,0.2110797116793342,-0.8,0.0,0.0015480518341064453,0
1.3496205806732178,-0.04770122095942497,0.02542685903608799,-0.20843125879764557,-0.09206108700691429,-0.6722449463132788,-0.7999696849208332,0.6425372679953978,0.5276826151753468,0.33767269795198673,0.21245587531510152,-0.8,0.0,0.0015211105346679688,0
1.3597221374511719,-0.0458696074783802,0.02668418176472187,-0.2173486351966858,-0.09246024779812245,-0.6650958178592499,-0.799986741435382,0.6960512560215771,0.5334368120585997,0.33855562713920884,0.21381130746959287,-0.8,0.0,0.0016214847564697266,0
1.369610071182251,-0.04186980426311493,0.029380351305007935,-0.23526053130626678,-0.09208763201883885,-0.6526661507192503,-0.7999999585204461,0.7918728709235524,0.5409337685552038,0.3393886216589319,0.21513313973583406,-0.8,0.0,0.0016808509826660156,0
1.379504680633545,-0.039709437638521194,0.030810609459877014,-0.24422146379947662,-0.09133254985878514,-0.6468693200996802,-0.799999999807331,0.799999449311123,0.5406949559506231,0.3401911416881659,0.21645094594139333,-0.8,0.0,0.0016474723815917969,0
1.3895227909088135,-0.037445440888404846,0.032290149480104446,-0.25316423177719116,-0.09029706918369486,-0.6417529129450145,-0.799999999816818,0.7999999998953067,0.5360104537509724,0.3409719723423832,0.2177801570468885,-0.8,0.0,0.0016918182373046875,0
1.3996164798736572,-0.035081516951322556,0.033816128969192505,-0.2620723843574524,-0.08897239716361181,-0.6373643475672557,-0.7999999359778154,0.7999999998965148,0.5274740646235165,0.34172635511664806,0.2191142322120279,-0.8,0.0,0.0016562938690185547,0
1.4097528457641602,-0.030070248991250992,0.03700152412056923,-0.27975982427597046,-0.08548659165135497,-0.6304051939996675,-0.7990034807023126,0.7999999980027428,0.493370598551707,0.3424511889872852,0.22044869992979382,-0.8,0.0,0.001544952392578125,0
1.419388771057129,-0.027431566268205643,0.03865597024559975,-0.2885129153728485,-0.0833856805171993,-0.6279469646102747,-0.7765056379957158,0.7999999980513764,0.47392031652391237,0.3431097558840622,0.22171237869194393,-0.8,0.0,0.0016188621520996094,0
1.4295423030853271,-0.0247093103826046,0.04034692421555519,-0.29718247056007385,-0.08109885980996845,-0.6259456295970557,-0.7373902782672079,0.7999972992900917,0.4542277419557426,0.34377148802199436,0.22303873378306155,-0.8,0.0,0.0014753341674804688,0
1.4396750926971436,-0.021906180307269096,0.042070839554071426,-0.3057599365711212,-0.07860806387599295,-0.6244980675759788,-0.6972399220984218,0.7999966292178261,0.4347635344077706,0.34439885409204796,0.2243570243733684,-0.8,0.0,0.002035856246948242,0
1.4496941566467285,-0.0160725899040699,0.045611422508955,-0.32260075211524963,-0.07322083404878965,-0.623324984862308,-0.6215021324385863,0.7999996030094928,0.39278741875642464,0.34498669257761533,0.22565522837422605,-0.8,0.0,0.0024275779724121094,0
1.4595050811767578,-0.0130459601059556,0.04742048680782318,-0.33084696531295776,-0.0703559218414087,-0.6234269138001982,-0.572262233930997,0.7999998457813589,0.3764743937407034,0.3455309624723062,0.22692133558118946,-0.8,0.0,0.0017185211181640625,0
1.4696557521820068,-0.009950467385351658,0.049251265823841095,-0.33896949887275696,-0.06739836669116395,-0.623962600727428,-0.5187440339888718,0.7999999306671376,0.3620989738306924,0.3460613698264619,0.2282259165706717,-0.8,0.0,0.0016727447509765625,0
1.4797265529632568,-0.006789830978959799,0.05109964311122894,-0.3469242751598358,-0.06440421060066948,-0.6248001872342839,-0.46296166771900127,0.7999999425239123,0.34903945644258016,0.34655467853713684,0.22951480403766433,-0.8,0.0,0.0015561580657958984,0
1.4894888401031494,-0.0013885325752198696,0.0546211302280426,-0.3624509871006012,-0.05830826542280931,-0.6276628171281003,-0.3580640511776382,0.7999986914413588,0.3294608745091862,0.34700152718185673,0.2307590170893934,-0.8,0.0,0.0011548995971679688,0
1.499481439590454,0.0008583413437008858,0.05629405751824379,-0.3700196146965027,-0.05489660016893571,-0.6295923844803747,-0.2952857136869074,0.7999999998675978,0.3251890714713091,0.34742691507148904,0.23202726293213985,-0.8,0.0,0.0013022422790527344,0
1.5094995498657227,0.003170542884618044,0.05798029899597168,-0.3774541914463043,-0.0514952477572681,-0.6316868868849871,-0.2320331185693135,0.7999957540435892,0.3212028180006154,0.34782084939066454,0.23329331366844222,-0.8,0.0,0.00130462646484375,0
1.519597053527832,0.0052526528015732765,0.059898894280195236,-0.38461947441101074,-0.048121156533675435,-0.633594838881171,-0.17016900844422744,0.7999559792484128,0.3068999532919915,0.3481848988070806,0.23456386308965882,-0.8,0.0,0.001338958740234375,0
1.5293376445770264,0.009597106836736202,0.06374339759349823,-0.398581326007843,-0.041492027404777865,-0.6374609361161259,-0.06458367279398709,0.799957743276826,0.27217127642838196,0.3485046470209837,0.23578420916533963,-0.8,0.0,0.0011646747589111328,0
1.5395441055297852,0.011850303038954735,0.0656663030385971,-0.4053789973258972,-0.038251857278559516,-0.6394709821386937,-0.006186558908270576,0.7999996788862151,0.25618348218283293,0.3488065392233775,0.23705731435990757,-0.8,0.0,0.0013265609741210938,0
1.5495665073394775,0.014153710566461086,0.06758570671081543,-0.41204825043678284,-0.03508777354459358,-0.6413907060163021,0.050410583330613344,0.7928169244883189,0.23953267839096906,0.34906994834412597,0.23830184751112898,-0.8,0.0,0.0013086795806884766,0
1.5595202445983887,0.016504257917404175,0.0694987028837204,-0.4185923635959625,-0.03197582739471016,-0.642881812369089,0.10703715346475672,0.7491376541067293,0.21958723529821714,0.34929912564390625,0.23953231993897073,-0.8,0.0,0.0010128021240234375,0
1.5696494579315186,0.021329358220100403,0.07329867780208588,-0.43131309747695923,-0.02601717155646721,-0.6458631587944625,0.19836981023627634,0.6524429734677072,0.18053800989678337,0.34949914591329406,0.24077879312194891,-0.8,0.0,0.0008590221405029297,0
1.5794708728790283,0.023794883862137794,0.07518339902162552,-0.4374960958957672,-0.02314384520532231,-0.6471648641842686,0.243408421801358,0.5997995345527931,0.1616981776730656,0.3496610937173997,0.24198187926820075,-0.8,0.0,0.0009081363677978516,0
1.589524507522583,0.02629258669912815,0.0770573690533638,-0.44356581568717957,-0.020364705629740246,-0.6484348073480211,0.283691682934155,0.5452438075625405,0.14333851535349126,0.3497942284263865,0.2432077637255734,-0.8,0.0,0.0008475780487060547,0
1.5998051166534424,0.0288185216486454,0.07891934365034103,-0.4495071470737457,-0.017667484468540717,-0.6496822512456428,0.32205506031910874,0.4887117480161965,0.12545158032865292,0.3498962055076079,0.24445538560925983,-0.8,0.0,0.0009832382202148438,0
1.609565258026123,0.03394261747598648,0.08260110765695572,-0.46106985211372375,-0.012612758336949526,-0.65191313965645,0.37605412137474287,0.37262634044163195,0.0913737453047641,0.34996104512965814,0.2456342608134573,-0.8,0.0,0.0011124610900878906,0
1.6194896697998047,0.036535002291202545,0.08441688865423203,-0.4666982591152191,-0.010232476199293128,-0.6529089234852805,0.40467525412966676,0.3122699403709676,0.07531373044175838,0.3499950349309376,0.24682737239130847,-0.8,0.0,0.0011744499206542969,0
1.6297168731689453,0.03914305195212364,0.08621586114168167,-0.4722290635108948,-0.007943931384100988,-0.6537985174825008,0.42751428706456845,0.25185133864455844,0.05973111764265408,0.34999636186578026,0.24805094366247746,-0.8,0.0,0.0015614032745361328,0
1.6399085521697998,0.04176480695605278,0.08799711614847183,-0.4776648283004761,-0.005745414108819347,-0.6547118734638807,0.4480096090928532,0.19209487712787057,0.04468342112214824,0.34996365585181527,0.2492642356573572,-0.8,0.0,0.0017404556274414062,0
1.6500709056854248,0.04703036695718765,0.0915013775229454,-0.4882606267929077,-0.0015987733182134534,-0.6564964551080645,0.46737184968068357,0.07091478828898966,0.016047029382242773,0.3498972244374743,0.2504680144749006,-0.8,0.0,0.0013158321380615234,0
1.6596243381500244,0.04966665804386139,0.09322359412908554,-0.49342653155326843,0.0003239534121955108,-0.657274266652372,0.47786761268553474,0.012013870879172044,0.00268403057392221,0.34980398311136096,0.2515941540345025,-0.8,0.0,0.0010974407196044922,0
1.6697139739990234,0.05230238288640976,0.09492625296115875,-0.4985044598579407,0.0021757695576296817,-0.6580987289994227,0.4836211742976259,-0.044698188322326055,-0.010271442130518277,0.3496731187582198,0.25277767560938014,-0.8,0.0,0.0011529922485351562,0
1.6799218654632568,0.054935283958911896,0.09660889208316803,-0.5034945607185364,0.003936019215160758,-0.6589804689881686,0.4877429186181785,-0.0981387554575862,-0.02267059027057217,0.34950687204453146,0.25396895123779983,-0.8,0.0,0.001207113265991211,0
1.6897640228271484,0.060183074325323105,0.09991573542356491,-0.5132161974906921,0.007170824000839705,-0.660598260426083,0.4709299905007126,-0.19926763266193684,-0.0455465622603091,0.34931435887280515,0.25511169182304777,-0.8,0.0,0.0011284351348876953,0
1.6996846199035645,0.06279261410236359,0.10154163092374802,-0.5179547071456909,0.00867017098379932,-0.661317226614375,0.4643094548593145,-0.2436378190012583,-0.056250054422688024,0.34908831504197324,0.2562576977661808,-0.8,0.0,0.0011293888092041016,0
1.7096881866455078,0.06539103388786316,0.10314895957708359,-0.5226132273674011,0.010070250527300286,-0.6620766379849603,0.4556194141294991,-0.28354152786303677,-0.06630519456551237,0.34882787430354556,0.25740732251213216,-0.8,0.0,0.0011777877807617188,0
1.7196245193481445,0.07054763287305832,0.10631468147039413,-0.5316786170005798,0.01258394954990141,-0.6636937351401743,0.4146161942417563,-0.3545175695311132,-0.08430664029227493,0.3485368945345594,0.25854326389336585,-0.8,0.0,0.0011026859283447266,0
1.7298810482025146,0.07310169190168381,0.1078764945268631,-0.5360946655273438,0.013722202377978188,-0.6645112115985655,0.39571860147244786,-0.3829943768710548,-0.09255140711382158,0.34820281374058953,0.259709556215682,-0.8,0.0,0.0009374618530273438,0
1.7394917011260986,0.07563737779855728,0.10942420363426208,-0.5404338836669922,0.014770871441538236,-0.6653524233151666,0.375198099964424,-0.4057618121165379,-0.10016830833533301,0.3478587086768861,0.260796613241707,-0.8,0.0,0.0009429454803466797,0
1.7496542930603027,0.08065398782491684,0.1124810129404068,-0.5488866567611694,0.0165680380016753,-0.6670138667716169,0.3184020242968098,-0.43953786388117394,-0.11314055641018016,0.34746218467570317,0.26193997831728233,-0.8,0.0,0.0012154579162597656,0
1.7597947120666504,0.08313392102718353,0.11399390548467636,-0.5530043840408325,0.017336755435539496,-0.667734057296517,0.29099397494729484,-0.448603360771747,-0.11876280156175655,0.34703310448124886,0.26307454996207774,-0.8,0.0,0.0009920597076416016,0
1.769667387008667,0.08559300750494003,0.11549992114305496,-0.5570523142814636,0.01797948130016838,-0.668518955390046,0.26094556655143647,-0.4527530269983488,-0.12347366903699088,0.346583318584496,0.26417309386727933,-0.8,0.0,0.0011417865753173828,0
1.7797396183013916,0.0880303680896759,0.11700060963630676,-0.5610305666923523,0.018535598915063532,-0.6692721324580956,0.23101814801999107,-0.45356395534053645,-0.12755921208050244,0.3460919128883246,0.26528764393757037,-0.8,0.0,0.0008606910705566406,0
1.7897229194641113,0.09044521301984787,0.11849646270275116,-0.5649416446685791,0.01901665791366305,-0.6699823582416733,0.19990225649614507,-0.44888057672145315,-0.13108118488110865,0.3455724715603574,0.26638614951637557,-0.8,0.0,0.0015189647674560547,0
1.7996938228607178,0.09521106630563736,0.12148226052522659,-0.5725651979446411,0.01968343866388558,-0.6714556055210109,0.12394660304710134,-0.43096798433540656,-0.13585938944411186,0.34502155289915437,0.26747710046842255,-0.8,0.0,0.0013933181762695312,0
1.8096404075622559,0.09756211191415787,0.12297475337982178,-0.5762801170349121,0.019875490099566375,-0.6721690138797758,0.09124030829932625,-0.4141023725628179,-0.13729068466031166,0.3444400437841159,0.2685592014081139,-0.8,0.0,0.001238107681274414,0
1.8196289539337158,0.0998922809958458,0.12446802109479904,-0.5799319744110107,0.01996030131735995,-0.6728478782653031,0.05828987568081869,-0.39327251582863737,-0.13794184651495386,0.3438240384218556,0.2696396213495965,-0.8,0.0,0.0010988712310791016,0
1.8296911716461182,0.10220176726579666,0.12596501410007477,-0.5835238099098206,0.019946293144719428,-0.6734614052004434,0.024254803327238533,-0.36839506735196736,-0.13786553593607648,0.3431710811907994,0.2707216559057377,-0.8,0.0,0.0011343955993652344,0
1.8398709297180176,0.10676423460245132,0.1289718896150589,-0.5904603600502014,0.019710625540666517,-0.6749535112127306,-0.04923069361208968,-0.31491414203129126,-0.13619622547944127,0.3424774597838659,0.2718098143762756,-0.8,0.0,0.0011413097381591797,0
1.849644422531128,0.10901840031147003,0.13048221170902252,-0.5938399434089661,0.019463786576603213,-0.6756445395970998,-0.07967176868292003,-0.28212483570107266,-0.1344572580115755,0.3417803164300173,0.2728483545784876,-0.8,0.0,0.0010895729064941406,0
1.8596978187561035,0.11125525832176208,0.1319982409477234,-0.5971636176109314,0.019150830866639514,-0.6762423240370248,-0.10876538858541226,-0.2466183281074075,-0.13222167841401933,0.34103137984592974,0.27391028504190745,-0.8,0.0,0.0012140274047851562,0
1.8697290420532227,0.11347626894712448,0.13352277874946594,-0.6004335284233093,0.018750867329458985,-0.6768374290080204,-0.1390421068122681,-0.207794070802705,-0.12935524126034215,0.3402519945250676,0.2749634277493835,-0.8,0.0,0.0012264251708984375,0
1.8798210620880127,0.1178746446967125,0.13659824430942535,-0.606814444065094,0.017720961359924094,-0.6780440148288157,-0.2004382135359512,-0.13521440043950222,-0.12211176850718185,0.3394356025126154,0.2760164310550747,-0.8,0.0,0.0013725757598876953,0
1.8903968334197998,0.12005435675382614,0.13814955949783325,-0.6099348068237305,0.017118673700971664,-0.6786057797773323,-0.22303270754774077,-0.09244787547838129,-0.11780661467848255,0.33854541614809824,0.27711286197774265,-0.8,0.0,0.00154876708984375,0
1.8997931480407715,0.12222336232662201,0.13971109688282013,-0.6130045056343079,0.016452991044241718,-0.6791453565407595,-0.24472509431274267,-0.04991252793815504,-0.11306301090556264,0.33772482203905824,0.27808094090292595,-0.8,0.0,0.002115488052368164,0
1.9097673892974854,0.12438254058361053,0.1412849873304367,-0.6160243153572083,0.01576438330020682,-0.6796966971371698,-0.2658045852123173,-0.007261136951562396,-0.10816342346025681,0.3368232733826683,0.2791022864120563,-0.8,0.0,0.0014786720275878906,0
1.9198341369628906,0.12696199119091034,0.14293122291564941,-0.6191306114196777,0.015046262884794959,-0.680118289280313,-0.2833986720507298,0.03790349937377275,-0.10300005021021705,0.3358816160144555,0.28012652755844436,-0.8,0.0,0.0012621879577636719,0
1.9296331405639648,0.13206525146961212,0.14625592529773712,-0.6251914501190186,0.013471909194563448,-0.680981030022379,-0.32346213582646116,0.12213727742560224,-0.09189685917782786,0.33493445572044755,0.28111715811585025,-0.8,0.0,0.0014247894287109375,0
1.93961763381958,0.13459497690200806,0.14793436229228973,-0.6281481981277466,0.012666356252943234,-0.6813795102797507,-0.33364939957119766,0.16835192997506707,-0.08610307162098264,0.33393845751072376,0.28212005488481395,-0.8,0.0,0.0013461112976074219,0
1.949598789215088,0.13711199164390564,0.14962275326251984,-0.6310569047927856,0.011842829580299497,-0.68179544481049,-0.34244638843582204,0.21237629894209142,-0.08021486249565932,0.3329117015688621,0.28311604978609034,-0.8,0.0,0.0010554790496826172,0
1.9597840309143066,0.13961608707904816,0.15132100880146027,-0.6339396238327026,0.011013704921813772,-0.6821973764829162,-0.3489654350236722,0.25395883920938417,-0.0743097787195378,0.33183200519421563,0.28412561765920386,-0.8,0.0,0.001306295394897461,0
1.9697892665863037,0.14210790395736694,0.15302923321723938,-0.6367751359939575,0.010156527873766552,-0.6825495501575601,-0.3529772422792534,0.29403484070895236,-0.06823115413720715,0.3307400720857421,0.2851106394722644,-0.8,0.0,0.0015017986297607422,0
1.979886531829834,0.1470613330602646,0.15647082030773163,-0.6423108577728271,0.008457488739239485,-0.6831940308292557,-0.35921910899900417,0.35808387185874413,-0.056474890697350726,0.3296067309059555,0.2860979621633356,-0.8,0.0,0.0015115737915039062,0
1.9899487495422363,0.149522066116333,0.15820299088954926,-0.6450117826461792,0.007628806297274049,-0.6835492242644038,-0.3563932621028407,0.3904645720698012,-0.05067518172891483,0.32844608645872736,0.2870750794473579,-0.8,0.0,0.0014960765838623047,0
1.9999268054962158,0.15197312831878662,0.15994279086589813,-0.6476696133613586,0.006818896930578934,-0.6837946137725283,-0.35088338414675857,0.41979421341819706,-0.045022485263413355,0.32726446539911547,0.28803731923065873,-0.8,0.0,0.0011990070343017578,0
2.009521007537842,0.1568509191274643,0.16344480216503143,-0.652881920337677,0.005191902729788001,-0.6842553360753441,-0.3459543202696104,0.4590006034540926,-0.03405729463175448,0.3260995887229214,0.2889562246674922,-0.8,0.0,0.0010135173797607422,0
2.019672393798828,0.1592765599489212,0.16520757973194122,-0.6554364562034607,0.004381529011731078,-0.6844938984524693,-0.3355286273152764,0.47786098125190585,-0.028526305265675993,0.32483652551879144,0.2899217301826276,-0.8,0.0,0.0008957386016845703,0
2.0296244621276855,0.16169258952140808,0.1669750064611435,-0.6579501032829285,0.003589719407991932,-0.6847889751410149,-0.32237750638578777,0.49416391482738625,-0.02313158493118861,0.323567897946155,0.29086150361162877,-0.8,0.0,0.0010385513305664062,0
2.03965163230896,0.1640995591878891,0.16874642670154572,-0.660422682762146,0.002805201615597742,-0.6850922468171516,-0.30884971488585605,0.5065543677716907,-0.0178365379078716,0.32225941252142787,0.291801562947547,-0.8,0.0,0.0009810924530029297,0
2.0496938228607178,0.16888439655303955,0.17229542136192322,-0.6652427911758423,0.0012861432571116501,-0.6857007712522367,-0.28307308164861367,0.509863711018786,-0.007833922110738788,0.3209186234820867,0.29273616147757225,-0.8,0.0,0.0006589889526367188,0
2.0594804286956787,0.17126090824604034,0.1740691363811493,-0.6676164269447327,0.0005530013834198717,-0.6858899227264711,-0.2643524943074457,0.5118916444721876,-0.0029618175040286546,0.3195828626295371,0.2936403385401448,-0.8,0.0,0.0007071495056152344,0
2.0696725845336914,0.17362599074840546,0.17584198713302612,-0.6699523329734802,-0.00015668100507948424,-0.6860854478269831,-0.24520216611682186,0.511068284190624,0.0017173489265345722,0.31816134747702113,0.2945749999509567,-0.8,0.0,0.0008580684661865234,0
2.079702615737915,0.17831575870513916,0.17938125133514404,-0.6745116114616394,-0.0015222922792075266,-0.6865043964203099,-0.21143074132984757,0.4832134819589936,0.010526459309360164,0.3167322940554209,0.2954878153995151,-0.8,0.0,0.0008826255798339844,0
2.0897183418273926,0.17831575870513916,0.17938125133514404,-0.6745116114616394,-0.0015222922792075266,-0.6865373255726717,-0.20322548174847307,0.4964365193752522,0.010621693329755209,0.3152755691205163,0.2963923997179208,-0.8,0.0,0.0010013580322265625,0
2.0994760990142822,0.18294507265090942,0.18290238082408905,-0.6789222955703735,-0.0028084476885195113,-0.6869864938670842,-0.16838734102870218,0.4568129165535719,0.018851368113087203,0.3138279430712367,0.2972670059111946,-0.8,0.0,0.0007255077362060547,0
2.109673500061035,0.18750636279582977,0.18639715015888214,-0.6831822991371155,-0.004028880785684752,-0.6875180804588628,-0.1320582863849,0.40586413766914303,0.026640041042945543,0.31228525943396235,0.29817395255405355,-0.8,0.0,0.0005314350128173828,0
2.1195907592773438,0.18975584208965302,0.18813341856002808,-0.6852574944496155,-0.004608273180542355,-0.6876967548490632,-0.11165590209582234,0.38073958808125574,0.030327632722316925,0.3107558507088773,0.29904903655248577,-0.8,0.0,0.0008368492126464844,0
2.1295361518859863,0.19198113679885864,0.1898617297410965,-0.6872987747192383,-0.005154949838603429,-0.6878731907035465,-0.09023502753582832,0.3543405156652038,0.03378888836560715,0.3091934235392886,0.2999197030645153,-0.8,0.0,0.0007998943328857422,0
2.1395139694213867,0.19418248534202576,0.1915787160396576,-0.6893070340156555,-0.005698653231494878,-0.6880452354364885,-0.06874064338314735,0.3279649132640153,0.03721367968632427,0.30759718649719364,0.3007862444531598,-0.8,0.0,0.0008172988891601562,0
2.149623155593872,0.19635869562625885,0.19328466057777405,-0.6912822127342224,-0.0061825010324123575,-0.6882370302483666,-0.048670002926282256,0.2997452355157182,0.04023159213538824,0.3059507520739917,0.3016570607221542,-0.8,0.0,0.0008006095886230469,0
2.1597988605499268,0.19850705564022064,0.1949787586927414,-0.6932248473167419,-0.006635628652327696,-0.6884035836921378,-0.027583931040955318,0.2686792150514128,0.04302614801235928,0.30426397990834886,0.30252633429279724,-0.8,0.0,0.001129150390625,0
2.169459819793701,0.20271244645118713,0.19832931458950043,-0.6970115900039673,-0.007499413612789496,-0.6888232719150399,0.00012038542707127795,0.1893809415096567,0.04854970850979065,0.30263528980776666,0.30334486368423863,-0.8,0.0,0.0007510185241699219,0
2.179698944091797,0.20476770401000977,0.19998419284820557,-0.6988361477851868,-0.007873235420951197,-0.6890474204233632,0.01786258415879354,0.15738678494925046,0.05083502489336638,0.30088032345003374,0.3042051586749219,-0.8,0.0,0.000705718994140625,0
2.189711570739746,0.2067892700433731,0.20162369310855865,-0.7006292939186096,-0.008236103105079717,-0.6892823993895434,0.03398012253810284,0.12561039173152058,0.05305422232784163,0.29913567324317236,0.3050392186421891,-0.8,0.0,0.0010519027709960938,0
2.1997482776641846,0.20877529680728912,0.2032475471496582,-0.7023910284042358,-0.008568061165343366,-0.689538901587079,0.04970163689878641,0.09266694720242404,0.05506602821652442,0.2973587044709183,0.30586811499748023,-0.8,0.0,0.0010480880737304688,0
2.209933280944824,0.21263618767261505,0.20644716918468475,-0.7058206796646118,-0.00911428053582819,-0.689936512644478,0.06789809206361187,0.013986287290054966,0.05862019566614174,0.29552686839461645,0.3067019006036155,-0.8,0.0,0.0007624626159667969,0
2.2195866107940674,0.21450814604759216,0.2080240547657013,-0.7074915766716003,-0.00934134706622558,-0.6901912560839735,0.078426788159755,-0.017446520114907323,0.05999612944510422,0.29376421314396,0.307485301326439,-0.8,0.0,0.0008406639099121094,0
2.229656219482422,0.2163393646478653,0.20958468317985535,-0.7091317772865295,-0.00953230172557884,-0.6904678002173854,0.08768275100804446,-0.046880765182364496,0.0611347843386244,0.2918982922898229,0.3082953515923057,-0.8,0.0,0.0009315013885498047,0
2.2399046421051025,0.21812820434570312,0.21112895011901855,-0.7107419967651367,-0.00965811710417741,-0.6907173082607583,0.0971617688744835,-0.07512021844667709,0.061820762985194726,0.28997084107673976,0.3091122883989179,-0.8,0.0,0.0011107921600341797,0
2.249941349029541,0.22157412767410278,0.21416835486888885,-0.7137910723686218,-0.009873002376513451,-0.6913988627840496,0.10077998790405132,-0.14503804036186457,0.0634205481197657,0.2880556247715874,0.30990499807739774,-0.8,0.0,0.0009980201721191406,0
2.2597620487213135,0.22322878241539001,0.2156655192375183,-0.7152713537216187,-0.00991178681959326,-0.6917141666696831,0.10389775907490889,-0.16983861364422803,0.06363373064371496,0.28615538129803786,0.310673588527099,-0.8,0.0,0.001016855239868164,0
2.2699739933013916,0.22639276087284088,0.2186090052127838,-0.7181460857391357,-0.009920675871939899,-0.6923006808607166,0.1031790912936173,-0.2312487677053103,0.06391454651777691,0.28415208740364456,0.3114653752193534,-0.8,0.0,0.0009150505065917969,0
2.2799489498138428,0.22639276087284088,0.2186090052127838,-0.7181460857391357,-0.009920675871939899,-0.6923598285598557,0.11002242954646863,-0.21343844935422077,0.06356378718206965,0.2821685504004791,0.312231461680878,-0.8,0.0,0.0010530948638916016,0
2.290135383605957,0.2293628603219986,0.22148911654949188,-0.7209128737449646,-0.009745356881344591,-0.6928674326827386,0.10137672367674315,-0.26313962299182064,0.06273588832022928,0.2801158882345414,0.31300630002671487,-0.8,0.0,0.000982522964477539,0
2.299415349960327,0.23077507317066193,0.2229066789150238,-0.7222529649734497,-0.009599845913887517,-0.6931984025785242,0.09847517355741532,-0.2773680255957055,0.06180632443788868,0.27822224140146856,0.31370558345489086,-0.8,0.0,0.0005402565002441406,0
2.3097338676452637,0.23273161053657532,0.2245490550994873,-0.7234213948249817,-0.00943462363447889,-0.6936370010720572,0.09331777021281701,-0.2812993030955613,0.06073909230785652,0.27609039066609364,0.3144757155990465,-0.8,0.0,0.0007953643798828125,0
2.3196234703063965,0.23645368218421936,0.22777023911476135,-0.7256932854652405,-0.009024866923351027,-0.6943495948721367,0.0745697200108559,-0.29933310586854966,0.058436085127482024,0.2740213744884125,0.31520649487806,-0.8,0.0,0.0011630058288574219,0
2.329707145690918,0.2382216453552246,0.22935044765472412,-0.7267975211143494,-0.008757476975997047,-0.6947356470968773,0.06734549297706063,-0.2953148103825288,0.05671919783442776,0.27188597327494607,0.31594419989135564,-0.8,0.0,0.0011854171752929688,0
2.3397762775421143,0.23992802202701569,0.2309117615222931,-0.727881669998169,-0.008489706500371952,-0.6950779039514828,0.058529275381134484,-0.2884161432738444,0.055036031661634364,0.26972787591246006,0.3166733526854726,-0.8,0.0,0.0011646747589111328,0
2.3496642112731934,0.2415737807750702,0.232455313205719,-0.7289460301399231,-0.008209915319942418,-0.6954386428847162,0.04889358581051532,-0.27935218990828503,0.05329545610725733,0.2675837459406902,0.3173820853036602,-0.8,0.0,0.0011234283447265625,0
