time,x,y,z,yaw,throttle,roll_rate,pitch_rate,yaw_rate,x_ref,y_ref,z_ref,yaw_ref,mpc_time,metadata
7.152557373046875e-07,-0.3768641948699951,0.08479056507349014,0.5563974380493164,-0.03321301281557891,-0.9750915857768584,-0.5515673496434127,-0.7999999999999589,0.7999999999952455,0.5999999999999641,2.0741927720809036e-07,-0.8,0.0,0.003647327423095703,Sim
0.00984334945678711,-0.3767935335636139,0.08480080962181091,0.5556489825248718,-0.03321986985350611,-0.9750915857768614,-0.5433957327758268,-0.799999999999974,0.7999999999961422,0.5999932098514601,0.00285449332487034,-0.8,0.0,0.0018360614776611328,Horizon:3.0
0.020002126693725586,-0.3766668438911438,0.08482089638710022,0.5543098449707031,-0.03320439410060383,-0.975091585776863,-0.5344121225722399,-0.7999999999999806,0.7999999999960712,0.5999719622440006,0.005800389735484353,-0.8,0.0,0.0019085407257080078,Num Steps:20
0.02994394302368164,-0.3766111731529236,0.08482895791530609,0.5537190437316895,-0.033186776763722683,-0.9750915857768646,-0.5253597690385075,-0.7999999999999882,0.7999999999962256,0.599937164556914,0.008683235768433403,-0.8,0.0,0.001943826675415039,No Pyjoules
0.04000973701477051,-0.37652039527893066,0.08484381437301636,0.5526828169822693,-0.03319495424380153,-0.9750915857768659,-0.5169423920487634,-0.7999999999999935,0.7999999999961785,0.599887820849506,0.011601827288446186,-0.8,0.0,0.0019176006317138672,0
0.04998517036437988,-0.3764839172363281,0.08484958112239838,0.5522375106811523,-0.03318994087099834,-0.9750915857768666,-0.5075416859433203,-0.7999999999999967,0.7999999999954445,0.599824912348726,0.014493947903976293,-0.8,0.0,0.001968860626220703,0
0.05994415283203125,-0.37645265460014343,0.08485352993011475,0.551860511302948,-0.03318921312811218,-0.9750915857768666,-0.4989929117301085,-0.7999999999999967,0.7999999999933872,0.5997481989356102,0.01738096296215305,-0.8,0.0,0.001992940902709961,0
0.06997418403625488,-0.3764268159866333,0.08485759794712067,0.5515283942222595,-0.03320233189156348,-0.9750915857768664,-0.4905986975353081,-0.7999999999999957,0.7999999999883884,0.599656893791371,0.02028816720367828,-0.8,0.0,0.0020596981048583984,0
0.08012652397155762,-0.3763878047466278,0.08486907184123993,0.5509951114654541,-0.03324330229755626,-0.9750915857768659,-0.4822523182243058,-0.7999999999999944,0.7999999999764765,0.5995501242197064,0.02323033680630953,-0.8,0.0,0.002115011215209961,0
0.09003949165344238,-0.37637442350387573,0.08487503230571747,0.5507896542549133,-0.03325025627660156,-0.9750915857768657,-0.47363662206439977,-0.7999999999999927,0.7999999999499267,0.5994319431322016,0.026102596666865204,-0.8,0.0,0.0019195079803466797,0
0.10007190704345703,-0.3763679265975952,0.08488128334283829,0.5506220459938049,-0.033259356667189655,-0.9750915857768653,-0.4651638811727894,-0.7999999999999906,0.7999999998812293,0.5992983282802351,0.02900885589807873,-0.8,0.0,0.0019218921661376953,0
0.10977911949157715,-0.37636634707450867,0.08488757908344269,0.550491988658905,-0.03324695701082166,-0.9750915857768646,-0.4566850242150772,-0.7999999999999867,0.7999999996434727,0.5991556317697999,0.03182025956103936,-0.8,0.0,0.0018579959869384766,0
0.11993765830993652,-0.37637242674827576,0.08490263670682907,0.5503354072570801,-0.03322519392791772,-0.9750915857768636,-0.4489198982201427,-0.799999999999982,0.7999999989464313,0.5989921780821788,0.03476162534127996,-0.8,0.0,0.0018398761749267578,0
0.1299896240234375,-0.37638354301452637,0.08491230756044388,0.5503498315811157,-0.03321173471406524,-0.9750915857768625,-0.4405054781783448,-0.7999999999999748,0.7999999964588845,0.59881622598374,0.037671308692299385,-0.8,0.0,0.0019025802612304688,0
0.1398334503173828,-0.3763997554779053,0.08492224663496017,0.5503969788551331,-0.03322583787173136,-0.9750915857768568,-0.4320700221640087,-0.7999999999999444,0.7999999869991955,0.5986302190614332,0.04051988186631905,-0.8,0.0,0.0018262863159179688,0
0.15002870559692383,-0.37642019987106323,0.08493250608444214,0.5504765510559082,-0.033239995658903246,-0.9750915857768445,-0.4234442582550592,-0.7999999999998754,0.7999999495182466,0.598423286779094,0.04346918265284261,-0.8,0.0,0.0018422603607177734,0
0.16008877754211426,-0.3764670193195343,0.0849551111459732,0.5507303476333618,-0.03321650906488268,-0.9750915857768216,-0.4153329014377361,-0.7999999999997415,0.7999997996309929,0.5982048556229255,0.046378343104889815,-0.8,0.0,0.001953125,0
0.16989755630493164,-0.3764948546886444,0.08496703952550888,0.5509018898010254,-0.033207746156372425,-0.9750915857767835,-0.4070470989234463,-0.7999999999995066,0.7999991899729851,0.5979782637239782,0.04921377971316839,-0.8,0.0,0.0018253326416015625,0
0.18013715744018555,-0.37652647495269775,0.08497975021600723,0.5511023998260498,-0.03320104548649036,-0.9750915857765422,-0.39884905788271463,-0.7999999999980685,0.7999964990027622,0.5977273814660942,0.05217257369237605,-0.8,0.0,0.0018744468688964844,0
0.1897728443145752,-0.3765617311000824,0.08499358594417572,0.5513313412666321,-0.03320811131679172,-0.9750915857759855,-0.39104922085358995,-0.7999999999951496,0.7999854857232007,0.5974779253941037,0.05495569730935854,-0.8,0.0,0.001804351806640625,0
0.1999037265777588,-0.37663960456848145,0.08501875400543213,0.5518863797187805,-0.033209443003273144,-0.9750915857729986,-0.3817531204172282,-0.7999999999824565,0.7999185557515653,0.5972016747209813,0.057880564185702074,-0.8,0.0,0.0018625259399414062,0
0.20997214317321777,-0.37668395042419434,0.08502976596355438,0.5522092580795288,-0.03320679755884277,-0.9750915857768664,-0.3732788970232937,-0.7999999999999972,0.7999999398890374,0.5969129413356996,0.060786021961990136,-0.8,0.0,0.002122640609741211,0
0.21983742713928223,-0.37673383951187134,0.08504001796245575,0.5525577068328857,-0.03318717988523927,-0.9750915857765095,-0.36527529236789946,-0.7999999999986642,0.7999913813562193,0.5966163227489263,0.06363146571900562,-0.8,0.0,0.002120494842529297,0
0.22994017601013184,-0.376787394285202,0.08505038917064667,0.5529314875602722,-0.03319317849640429,-0.9750915857761322,-0.3561490329829863,-0.7999999999972508,0.7999591875450377,0.5962985067522282,0.06654390163691093,-0.8,0.0,0.002330303192138672,0
0.24000310897827148,-0.37690800428390503,0.08507181704044342,0.5537511110305786,-0.03320278356259651,-0.9750915857768601,-0.3408781010242504,-0.7999999999999727,0.7753004422588087,0.5959678099948774,0.0694432822518471,-0.8,0.0,0.008198022842407227,0
0.24973583221435547,-0.37697461247444153,0.08508230000734329,0.5541972517967224,-0.033198084733493526,-0.9750915857768627,-0.32146348381418677,-0.7999999999999713,0.7372680316465628,0.5956345535397076,0.07224595926107649,-0.8,0.0,0.007441520690917969,0
0.25981593132019043,-0.3770458698272705,0.08509235829114914,0.5546674132347107,-0.03319663870305766,-0.9750915857768653,-0.3019562295684702,-0.7999999999999906,0.6991491209292139,0.5952755085530096,0.07514698208814342,-0.8,0.0,0.007417917251586914,0
0.2698686122894287,-0.37712159752845764,0.08510203659534454,0.555160403251648,-0.03319618503959853,-0.9750915857768632,-0.28254158669184787,-0.7999999999999801,0.6609470899429299,0.5949033684937884,0.07803833772411975,-0.8,0.0,0.007429599761962891,0
0.2798423767089844,-0.37728244066238403,0.0851222574710846,0.556240439414978,-0.03322212842597269,-0.975091585776838,-0.2629170055040392,-0.7999999999998592,0.6226139105944867,0.5945202710324484,0.08090517493649006,-0.8,0.0,0.007396697998046875,0
0.2898750305175781,-0.37736257910728455,0.0851292833685875,0.556812047958374,-0.033232326992865775,-0.9750915857765453,-0.2429857377089604,-0.7999999999984635,0.5834665919594894,0.5941209738235916,0.08378704233297087,-0.8,0.0,0.00736689567565918,0
0.29977917671203613,-0.37744584679603577,0.08513592928647995,0.5574033856391907,-0.03323324303325655,-0.9750915857733162,-0.22443529682234545,-0.799999999983056,0.5467073378427022,0.5937130889698111,0.08663006398430727,-0.8,0.0,0.007398843765258789,0
0.3098740577697754,-0.3775319755077362,0.08514419943094254,0.5580140352249146,-0.03319369043314863,-0.9750915857491214,-0.20623329022724382,-0.7999999998661522,0.5105034364268921,0.5932833490710581,0.08952579357385783,-0.8,0.0,0.007307767868041992,0
0.3199784755706787,-0.37771549820899963,0.08516509085893631,0.5592897534370422,-0.03316460657337916,-0.9750915857760372,-0.189611132711524,-0.7999999999968181,0.4775566824867514,0.5928390598575445,0.09242212455479899,-0.8,0.0,0.008331775665283203,0
0.3297407627105713,-0.37781402468681335,0.08517923951148987,0.5599532723426819,-0.03316335610117603,-0.9750915857768477,0.49808261821883176,-0.7999999999999016,-0.4016693554513914,0.5923963845503551,0.09521829431190078,-0.8,0.0,0.013673067092895508,0
0.34430480003356934,-0.37781402468681335,0.08517923951148987,0.5599532723426819,-0.03316335610117603,-0.9750915857768343,0.5232279087091113,-0.79999999999983,-0.44861668011492395,0.591711460871849,0.09938584946008272,-0.8,0.0,0.0072727203369140625,0
0.3527109622955322,-0.37802621722221375,0.08520960062742233,0.5613586902618408,-0.03316596484130063,-0.9750915857768282,0.5379766878906537,-0.7999999999997905,-0.47632266175868904,0.5913027852449524,0.10178907682832018,-0.8,0.0,0.0067768096923828125,0
0.3602743148803711,-0.37802621722221375,0.08520960062742233,0.5613586902618408,-0.03316596484130063,-0.9750915857766383,0.5507144100290192,-0.7999999999987433,-0.4997863531648312,0.590926741847712,0.10394991952496922,-0.8,0.0,0.006621122360229492,0
0.36998724937438965,-0.37798747420310974,0.08525970578193665,0.5602167248725891,-0.033156754822363924,-0.9750915857751524,0.5641856904539003,-0.7999999999904356,-0.5247801173496436,0.5904322419668027,0.10672285437550379,-0.8,0.0,0.006499052047729492,0
0.3799161911010742,-0.37792345881462097,0.08527939766645432,0.5593608617782593,-0.033134496973944674,-0.9750915857637785,0.579805731011904,-0.7999999999262483,-0.5536200921885173,0.5899132956676718,0.10955502541876413,-0.8,0.0,0.00657200813293457,0
0.38983845710754395,-0.3778669238090515,0.08529967069625854,0.5585616230964661,-0.03312712567559935,-0.975091585776391,0.5956324794376529,-0.7999999999981221,-0.5829035548762251,0.5893811267686466,0.11238277185102943,-0.8,0.0,0.007431507110595703,0
0.39980387687683105,-0.37777823209762573,0.08534519374370575,0.5571259260177612,-0.03311426370070795,-0.9750915857440284,0.609177956260016,-0.7999999998709143,-0.6080504950098065,0.5888330001234768,0.11522021509086657,-0.8,0.0,0.006566762924194336,0
0.40987181663513184,-0.3777447044849396,0.08536987751722336,0.5564886927604675,-0.03310555357245596,-0.9750915857501561,0.6225138812809293,-0.7999999998948214,-0.6293362187614958,0.5882653629607758,0.11808413416131185,-0.8,0.0,0.005467653274536133,0
0.42000508308410645,-0.3777174949645996,0.085393525660038,0.5559191703796387,-0.03312132793711419,-0.9750915857737827,0.6356386653724195,-0.7999999999878373,-0.6474724009988512,0.5876799775850724,0.12096381254577232,-0.8,0.0,0.005256175994873047,0
0.42986273765563965,-0.3776973485946655,0.08541680127382278,0.5553979277610779,-0.03312743780985597,-0.9750915857766931,0.6482002853211997,-0.79999999999931,-0.664074921259978,0.5870969871926247,0.12376238374135723,-0.8,0.0,0.0053098201751708984,0
0.4397847652435303,-0.37767329812049866,0.08546315878629684,0.5544964671134949,-0.03315809159284924,-0.9750915857768117,0.6594062333745161,-0.7999999999997793,-0.6784990402046779,0.5864967320229257,0.12657639324308612,-0.8,0.0,0.004836320877075195,0
0.4501614570617676,-0.37767118215560913,0.0854891762137413,0.5541160702705383,-0.03315185654317166,-0.9750915857367501,0.6707021212417704,-0.799999999839865,-0.693331832778269,0.5858545421858729,0.12951623604854057,-0.8,0.0,0.004702091217041016,0
0.4597921371459961,-0.3776749074459076,0.08551761507987976,0.553780198097229,-0.03316140911944711,-0.9750915857364435,0.6777240472095957,-0.7999999998388821,-0.702149537538005,0.5852453360013692,0.13224181142378685,-0.8,0.0,0.0030879974365234375,0
0.4699056148529053,-0.37768396735191345,0.08554663509130478,0.5534866452217102,-0.03316780599614087,-0.9750915857745956,0.68375967919974,-0.7999999999909975,-0.70967128120247,0.5845919402344663,0.13510093786832908,-0.8,0.0,0.0031211376190185547,0
0.48009324073791504,-0.3777173161506653,0.08560618758201599,0.5530274510383606,-0.03314964395118788,-0.9750915857726957,0.6900866988610733,-0.7999999999875246,-0.7182502293299653,0.5839196323359911,0.13797776260180855,-0.8,0.0,0.003662109375,0
0.4897942543029785,-0.37774112820625305,0.08563628792762756,0.5528842806816101,-0.03315136618624594,-0.9750915842861015,0.6976893403498432,-0.7999999957993653,-0.7279408660847803,0.5832662781692599,0.14071406735141825,-0.8,0.0,0.003140687942504883,0
0.49997925758361816,-0.3777652084827423,0.08566299080848694,0.5527769327163696,-0.03315428108398773,-0.9750915855519116,0.7055782286383285,-0.7999999993160616,-0.7382495456174986,0.5825665299481367,0.1435835581958695,-0.8,0.0,0.003131866455078125,0
0.5099163055419922,-0.3777949810028076,0.08569001406431198,0.5527048707008362,-0.0331555292587809,-0.9750915852857815,0.7128679449088363,-0.7999999983720565,-0.7476434770347247,0.5818702114719223,0.14637983809808106,-0.8,0.0,0.0031387805938720703,0
0.5198431015014648,-0.3778701722621918,0.08574609458446503,0.5526655316352844,-0.03316300370957708,-0.9750915857387468,0.719811590253122,-0.7999999998517955,-0.7562229879626369,0.5811612102698901,0.14916986182750372,-0.8,0.0,0.003053903579711914,0
0.5299701690673828,-0.3779153525829315,0.08577679097652435,0.5526965856552124,-0.033167193503919695,-0.9750915847532517,0.7266905758470508,-0.7999999955676277,-0.7645812444139176,0.580424119752087,0.15201263503411477,-0.8,0.0,0.0032761096954345703,0
0.5397818088531494,-0.37796497344970703,0.08580972254276276,0.5527609586715698,-0.03317460584669859,-0.9750915857768634,0.7332141661072105,-0.799999999999979,-0.7725712777336066,0.5796967246908179,0.15476339161034838,-0.8,0.0,0.003446817398071289,0
0.5500099658966064,-0.3780178725719452,0.0858449712395668,0.5528576970100403,-0.033170148256000176,-0.9750915857768512,0.7399824183571123,-0.799999999999932,-0.780602984185,0.5789245727640769,0.15762721544812913,-0.8,0.0,0.0035932064056396484,0
0.5599639415740967,-0.3781355023384094,0.08591761440038681,0.5531720519065857,-0.03312918361402454,-0.9750915857751911,0.7468789939901684,-0.7999999999931211,-0.7892260292847018,0.578159535381559,0.16041057211848536,-0.8,0.0,0.0037567615509033203,0
0.5698575973510742,-0.37819746136665344,0.08595552295446396,0.5533872246742249,-0.03312149918799427,-0.9750915857469101,0.7533620737863947,-0.7999999998769962,-0.796263711543584,0.5773858736362186,0.1631733830173921,-0.8,0.0,0.0031054019927978516,0
0.5800526142120361,-0.3782634735107422,0.08599404245615005,0.5536320209503174,-0.03310739308820936,-0.9750915857541843,0.759509491048102,-0.7999999999064002,-0.7996156925450675,0.5765748346054776,0.16601644526873258,-0.8,0.0,0.0018796920776367188,0
0.589796781539917,-0.37833303213119507,0.08603283017873764,0.5539056062698364,-0.033089853716018545,-0.9750915857752288,0.764610151642948,-0.799999999993144,-0.7999778936877271,0.5757865772214139,0.16873001360649736,-0.8,0.0,0.0013649463653564453,0
0.5999190807342529,-0.37848222255706787,0.08611639589071274,0.5545334815979004,-0.03308865774380653,-0.9750915857768018,0.769031583799764,-0.7999999999997092,-0.7999987710174185,0.5749542070368558,0.17154492067857996,-0.8,0.0,0.0014100074768066406,0
0.6099894046783447,-0.3785616159439087,0.08615953475236893,0.5548848509788513,-0.03309375485840588,-0.9750915843056546,0.7745191097174055,-0.7999999901917313,-0.7999194057615413,0.5741124551864975,0.1743412997534776,-0.8,0.0,0.0012679100036621094,0
0.6198697090148926,-0.37864550948143005,0.08620324730873108,0.5552593469619751,-0.03309652471790827,-0.9750915809563446,0.7795947886405281,-0.799999968831379,-0.799999697717625,0.5732733684420909,0.17708089969010973,-0.8,0.0,0.001230478286743164,0
0.6300466060638428,-0.378733366727829,0.08624730259180069,0.5556582808494568,-0.033113042128949076,-0.9750915857753535,0.7848998996260106,-0.799999999990603,-0.7999999999994865,0.5723954261878715,0.17989851605615004,-0.8,0.0,0.0013628005981445312,0
0.6400158405303955,-0.3789178133010864,0.08633149415254593,0.5565800070762634,-0.03312273459769882,-0.9750915857530854,0.7903522883477628,-0.7999999998571291,-0.7999999991167738,0.5715219710664674,0.18265441847461558,-0.8,0.0,0.0013833045959472656,0
0.6499121189117432,-0.3790168762207031,0.08637156337499619,0.5570764541625977,-0.0331235362216727,-0.9750915857507921,0.7953542090354664,-0.7999999998939008,-0.7999999740319467,0.5706417845342404,0.18538595886306372,-0.8,0.0,0.0013918876647949219,0
0.6600165367126465,-0.37912094593048096,0.08641260117292404,0.5575947761535645,-0.03313712900287933,-0.9750915857563626,0.799864465762422,-0.7999999999121563,-0.7999999796126791,0.5697296161545609,0.18817057282257713,-0.8,0.0,0.0015568733215332031,0
0.6697902679443359,-0.3792283236980438,0.0864538848400116,0.5581355690956116,-0.03314103091049909,-0.9750915857634889,0.7999922749679419,-0.7999999999462073,-0.7999999848075817,0.5688343715417408,0.19085978558280106,-0.8,0.0,0.0011456012725830078,0
0.6800220012664795,-0.37933987379074097,0.08649460226297379,0.5586979389190674,-0.0331629143919201,-0.9750915857768612,0.7999999989885013,-0.7999999999999691,-0.7999999999910593,0.5678835760491643,0.19367045219550924,-0.8,0.0,0.0011548995971679688,0
0.6899755001068115,-0.37956807017326355,0.08657452464103699,0.5598825216293335,-0.0331830853138245,-0.9750915857607333,0.7999999998584592,-0.7999999999127804,-0.7998564679662876,0.5669453092660655,0.19640014333295522,-0.8,0.0,0.0013909339904785156,0
0.699777364730835,-0.3796848654747009,0.08661375939846039,0.5605047345161438,-0.03318146791008135,-0.9750915857549832,0.7999999969250218,-0.7999999999017153,-0.7959391826600473,0.5660085135473772,0.19908380796008615,-0.8,0.0,0.00156402587890625,0
0.70998215675354,-0.3798048198223114,0.08665245026350021,0.5611613392829895,-0.03318497783645905,-0.9750915857760671,0.7999999999227199,-0.7999999999957563,-0.7875043113201127,0.5650197118652548,0.2018730422907042,-0.8,0.0,0.0018913745880126953,0
0.7199077606201172,-0.3800472319126129,0.08672501891851425,0.5625277161598206,-0.03316640551477314,-0.9750915857539312,0.7999999999210226,-0.7999999998382521,-0.779538247310649,0.5640447760767463,0.20458125666964974,-0.8,0.0,0.0018951892852783203,0
0.7298681735992432,-0.3801712989807129,0.08676403760910034,0.5632362961769104,-0.03315285151020836,-0.9750915857013208,0.7999999987783111,-0.7999999994946096,-0.7719692539682023,0.5630533721018738,0.20729423572475142,-0.8,0.0,0.0018277168273925781,0
0.7399482727050781,-0.38029900193214417,0.08680451661348343,0.5639623999595642,-0.03316591353305278,-0.9750915857408213,0.7999999966676714,-0.7999999998355262,-0.7660673846404467,0.5620367702150312,0.21003492311102964,-0.8,0.0,0.002111673355102539,0
0.7498269081115723,-0.38042953610420227,0.086846724152565,0.5647046566009521,-0.033171292716553655,-0.9750915857487302,0.7999999974199203,-0.7999999998715593,-0.767155884789985,0.561027543205244,0.2127159979058655,-0.8,0.0,0.0026111602783203125,0
0.759831428527832,-0.38047006726264954,0.08701632916927338,0.5645634531974792,-0.033141549295082645,-0.975091585773559,0.7999999999296876,-0.7999999999788927,-0.7693675131095752,0.5599924206485204,0.21542629555421158,-0.8,0.0,0.002552032470703125,0
0.7699580192565918,-0.3803849518299103,0.0871419608592987,0.5637236833572388,-0.03316082129683336,-0.9750915857768588,0.7999999999992232,-0.79999999999996,-0.7711310196543562,0.5589313342857058,0.2181645332165622,-0.8,0.0,0.002601146697998047,0
0.7798759937286377,-0.3803079426288605,0.08726418763399124,0.5629611015319824,-0.03318717742154032,-0.97509158577682,0.7999999999921097,-0.799999999999736,-0.7730640936434086,0.5578791286475032,0.22084129554841536,-0.8,0.0,0.002525806427001953,0
0.7899272441864014,-0.3802449405193329,0.08738406002521515,0.5622525811195374,-0.033196618604013683,-0.9750915857766456,0.7999999999539309,-0.7999999999985278,-0.7750382151325852,0.5567997050964321,0.2235488501525476,-0.8,0.0,0.002574920654296875,0
0.7999444007873535,-0.38019073009490967,0.0875030905008316,0.5615970492362976,-0.03321628745086365,-0.9750915857760918,0.7999999998421226,-0.7999999999950986,-0.77658597195983,0.5557108692219059,0.2262419718545473,-0.8,0.0,0.002592802047729492,0
0.8099489212036133,-0.38014471530914307,0.08762133866548538,0.5609945058822632,-0.03322609764278741,-0.9750915857766577,0.7999999999770734,-0.7999999999989038,-0.7782630738655267,0.554610405522495,0.22892640320892138,-0.8,0.0,0.00274658203125,0
0.8199632167816162,-0.380071222782135,0.08785642683506012,0.5599353909492493,-0.03320965968000112,-0.9750915857761749,0.7999999999463521,-0.7999999999967323,-0.7792109090545063,0.5534958801899122,0.23160809703633925,-0.8,0.0,0.002381563186645508,0
0.829777717590332,-0.3800433576107025,0.08797469735145569,0.5594767332077026,-0.03321922371460666,-0.9750915857721195,0.7999999996382412,-0.7999999999779537,-0.7802001893820507,0.5523910093596892,0.23423102437248525,-0.8,0.0,0.0024156570434570312,0
0.8398880958557129,-0.3800075352191925,0.08820877969264984,0.5587010979652405,-0.033216744805533695,-0.9750915857635257,0.7999999989874259,-0.7999999999383027,-0.7809190226742146,0.5512398330222421,0.23692751315457342,-0.8,0.0,0.002621173858642578,0
0.850083589553833,-0.37999865412712097,0.08832449465990067,0.5583887696266174,-0.03320560324563973,-0.9750915857614872,0.7999999988441224,-0.7999999999288707,-0.7808646667671372,0.5500656359839682,0.23964097335295695,-0.8,0.0,0.002685070037841797,0
0.8597874641418457,-0.37999576330184937,0.08844027668237686,0.5581198334693909,-0.033208163389608615,-0.9750915857685304,0.7999999993784446,-0.7999999999613954,-0.7799243544198716,0.5489356511554422,0.24221818860389208,-0.8,0.0,0.002599000930786133,0
0.8699355125427246,-0.3799991309642792,0.0885562151670456,0.5578933954238892,-0.03322847303035125,-0.9750915857749398,0.7999999998578717,-0.7999999999910448,-0.7780734995119719,0.547741027513946,0.2449076699043266,-0.8,0.0,0.0025937557220458984,0
0.8801002502441406,-0.38002651929855347,0.08878136426210403,0.5575633645057678,-0.03325907975733165,-0.9750915857764244,0.7999999999677543,-0.7999999999979367,-0.7768675002965058,0.5465312298309563,0.2475956680143302,-0.8,0.0,0.002718210220336914,0
0.8899562358856201,-0.3800505995750427,0.08889009803533554,0.5574572086334229,-0.033258672208549125,-0.9750915857766351,0.7999999999832761,-0.7999999999989151,-0.7752352203685517,0.5453455831227538,0.25019631285952965,-0.8,0.0,0.0026061534881591797,0
0.9000024795532227,-0.3800804615020752,0.08899640291929245,0.5573887228965759,-0.033267709302734705,-0.975091585776468,0.7999999999714577,-0.799999999998124,-0.7733138928231272,0.5441243134999975,0.25284131675451393,-0.8,0.0,0.0026917457580566406,0
0.9099321365356445,-0.38011565804481506,0.08910150080919266,0.5573582649230957,-0.033269138398581914,-0.9750915857759758,0.7999999999368591,-0.7999999999957955,-0.7716001850444687,0.5429046104989234,0.25544976785859924,-0.8,0.0,0.002710103988647461,0
0.9199502468109131,-0.3801567554473877,0.08920541405677795,0.5573623776435852,-0.03325753807035028,-0.9750915857749025,0.7999999998595118,-0.799999999990695,-0.7700939698449248,0.541661370460435,0.2580754923485052,-0.8,0.0,0.003486156463623047,0
0.9299874305725098,-0.3802044689655304,0.0893077477812767,0.5574143528938293,-0.03324782144843343,-0.9750915857730932,0.7999999997314391,-0.7999999999820521,-0.7685615669842749,0.5404030280829301,0.2607001481372803,-0.8,0.0,0.002859354019165039,0
0.9400525093078613,-0.38030949234962463,0.08950616419315338,0.5576208233833313,-0.03327345748917668,-0.9750915857700324,0.7999999995217489,-0.79999999996734,-0.7660430097549336,0.5391284176773214,0.2633259372958684,-0.8,0.0,0.004431724548339844,0
0.9499650001525879,-0.3803703784942627,0.08960311114788055,0.5577725768089294,-0.03327707520889334,-0.9750915857676078,0.7999999993651596,-0.7999999999556189,-0.7640499617952589,0.5378606605690675,0.2659058288421041,-0.8,0.0,0.0036323070526123047,0
0.9600205421447754,-0.38050732016563416,0.08979319781064987,0.5581675171852112,-0.0332622592803442,-0.9750915857668915,0.7999999993268282,-0.7999999999519812,-0.7618740925116401,0.5365619940936358,0.26851671548389894,-0.8,0.0,0.003078460693359375,0
0.9699075222015381,-0.3805837631225586,0.08988702297210693,0.5584092736244202,-0.03325460316095346,-0.9750915857692394,0.799999999489254,-0.7999999999630859,-0.7596511353107095,0.5352727403156902,0.2710776521126957,-0.8,0.0,0.003558635711669922,0
1.0064690113067627,-0.38066425919532776,0.0899796187877655,0.5586797595024109,-0.033260644888463,-0.9750915857767904,0.7999999999947329,-0.7999999999996159,-0.7505969956232865,0.5303992137199912,0.2804936257479215,-0.8,0.0,0.00333404541015625,0
1.0109312534332275,-0.38066425919532776,0.0899796187877655,0.5586797595024109,-0.033260644888463,-0.9750915857768369,0.7999999999978507,-0.7999999999998464,-0.7494341369348125,0.5297930401756843,0.28163688427016403,-0.8,0.0,0.0025529861450195312,0
1.0199573040008545,-0.38113218545913696,0.09043267369270325,0.560459554195404,-0.03326599774713481,-0.9750915853722172,0.7999999553537966,-0.7999999977696196,-0.7483013930691379,0.5285593651331283,0.28394541294069936,-0.8,0.0,0.0023283958435058594,0
1.0301356315612793,-0.3812388479709625,0.0905202180147171,0.5608950257301331,-0.03325026007572063,-0.9750915854733425,0.7999999675637093,-0.7999999983221564,-0.7459141238307984,0.5271561314112708,0.28654216638307006,-0.8,0.0,0.002462148666381836,0
1.0399143695831299,-0.3813503384590149,0.09060705453157425,0.5613532066345215,-0.033266229011225064,-0.975091585562811,0.7999999777586247,-0.7999999988128919,-0.7433725574886982,0.5257959705968752,0.28903044355930724,-0.8,0.0,0.0024347305297851562,0
1.049919605255127,-0.38146719336509705,0.09069449454545975,0.5618346333503723,-0.033263973948186934,-0.9750915856422864,0.7999999863233268,-0.7999999992496911,-0.7405883009600558,0.5243921493617467,0.29156967209874124,-0.8,0.0,0.0021660327911376953,0
1.0599160194396973,-0.3817141354084015,0.09087137877941132,0.5628692507743835,-0.033273823188084875,-0.9750915857026163,0.7999999925716167,-0.7999999995822131,-0.7377410507322069,0.5229773194482107,0.2940998526738225,-0.8,0.0,0.0021905899047851562,0
1.0698761940002441,-0.38184478878974915,0.09095979481935501,0.5634254813194275,-0.03328296052007724,-0.9750915857383118,0.7999999961948846,-0.7999999997811124,-0.7353997800066229,0.5215554769577317,0.29661403280255116,-0.8,0.0,0.002201557159423828,0
1.0801398754119873,-0.38198262453079224,0.09104783833026886,0.5640023946762085,-0.03328322637121568,-0.9750915857607847,0.799999998420454,-0.7999999999076638,-0.7326887358247007,0.5200776636384785,0.29919763332008764,-0.8,0.0,0.002163410186767578,0
1.0899672508239746,-0.38212648034095764,0.09114598482847214,0.5645706653594971,-0.0333687948630497,-0.9750915857712023,0.7999999994381629,-0.7999999999675319,-0.7303280738009089,0.5186506776006705,0.30166450673615103,-0.8,0.0,0.0019328594207763672,0
1.0998475551605225,-0.3824124038219452,0.09142870455980301,0.5653887987136841,-0.03384739162609214,-0.9750915857763989,0.7999999999368551,-0.799999999997362,-0.7203436132621904,0.5172042103861153,0.30413780554030917,-0.8,0.0,0.0023102760314941406,0
1.1099798679351807,-0.38254523277282715,0.09161798655986786,0.5655398368835449,-0.03431588929571935,-0.9750915857722545,0.7999999995270216,-0.7999999999775319,-0.7092558825608398,0.5157086002133596,0.3066669849624788,-0.8,0.0,0.0020813941955566406,0
1.1199169158935547,-0.3827933371067047,0.09208137542009354,0.5651980638504028,-0.03582028446722457,-0.9750915857386125,0.7999999969617099,-0.7999999998372292,-0.6801012089144243,0.5142297998471036,0.30914028037317914,-0.8,0.0,0.0023565292358398438,0
1.1299128532409668,-0.3829116225242615,0.09235028177499771,0.5646747350692749,-0.03686083345960209,-0.9750915857766868,0.7999999999960646,-0.799999999999669,-0.6594256165522485,0.5127302685385433,0.3116210386421194,-0.8,0.0,0.0026247501373291016,0
1.1399736404418945,-0.3830214738845825,0.09264124929904938,0.5639011859893799,-0.03818197125451447,-0.975091585776293,0.7999999999674018,-0.7999999999986228,-0.5935481092209961,0.5112089245708327,0.3141105465264303,-0.8,0.0,0.0026509761810302734,0
1.149888277053833,-0.3831125497817993,0.09295368939638138,0.562865138053894,-0.03985413267578173,-0.9750915855506778,0.7999999987608846,-0.7999999972914927,-0.4657700024292948,0.5096978552886493,0.316556624183022,-0.8,0.0,0.0017712116241455078,0
1.1598947048187256,-0.383040189743042,0.09332803636789322,0.558159589767456,-0.04426584220682557,-0.9750915854612574,0.7782287650541853,-0.7999999964917163,-0.44933465632177366,0.5081609292606856,0.31901797750740707,-0.8,0.0,0.002348184585571289,0
1.170046329498291,-0.38287025690078735,0.09339787065982819,0.554512619972229,-0.04698701804898808,-0.9750915856798815,0.7387926488774866,-0.7999999987143376,-0.4075101011253188,0.5065895562136968,0.3215074206534115,-0.8,0.0,0.001964569091796875,0
1.1799135208129883,-0.3826659917831421,0.09350033849477768,0.5505959391593933,-0.050020287341561186,-0.9750915857630268,0.6941379525446143,-0.7999999998867919,-0.3613273020729088,0.5050505226181249,0.32391969622602285,-0.8,0.0,0.002451658248901367,0
1.1899611949920654,-0.3824222981929779,0.09364069998264313,0.546393096446991,-0.05335898887835616,-0.9750915857753097,0.6459525332705172,-0.7999999999775994,-0.31237626588915257,0.5034715347082194,0.3263685244298999,-0.8,0.0,0.0019383430480957031,0
1.2000353336334229,-0.38213205337524414,0.09382475167512894,0.5418762564659119,-0.05694264188598786,-0.9750915832643384,0.5939487520177295,-0.7999999732834124,-0.2601151562336713,0.5018764675160575,0.32881607526640727,-0.8,0.0,0.0020020008087158203,0
1.2100834846496582,-0.38178715109825134,0.09405871480703354,0.5370112657546997,-0.060684904241226474,-0.9750915857401915,0.5390016531065657,-0.7999999993786359,-0.2063433096156668,0.5002736626883977,0.331249547049253,-0.8,0.0,0.0019540786743164062,0
1.2200210094451904,-0.3808967173099518,0.09469109028577805,0.5262032747268677,-0.06858733882934487,-0.9750915857768369,0.41159713848690554,-0.7999999999997521,-0.08525890169005301,0.4986768989325498,0.33364854333717014,-0.8,0.0,0.0024411678314208984,0
1.2298357486724854,-0.38033273816108704,0.09510131180286407,0.5202091336250305,-0.07265993911570172,-0.9750915857520392,0.34669795299895173,-0.7999999998117779,-0.03145354809303946,0.4970885725982046,0.3360103435793003,-0.8,0.0,0.002195119857788086,0
1.2399260997772217,-0.37893810868263245,0.09613572061061859,0.5070149898529053,-0.08090809572690068,-0.9750915857768586,0.1896038457567311,-0.7999999999998627,0.08990289588902849,0.4954439828597944,0.3384305834998127,-0.8,0.0,0.0023593902587890625,0
1.249974012374878,-0.37809035181999207,0.0967685729265213,0.4998168349266052,-0.08504390754629045,-0.9750915857763464,0.10950698049289675,-0.7999999999929541,0.15150358176434453,0.4937946005659527,0.34083264581303124,-0.8,0.0,0.0021200180053710938,0
1.2599148750305176,-0.37713363766670227,0.09748394042253494,0.4922250807285309,-0.08912279533628265,-0.9750915857586379,0.025850538976723913,-0.7999999998852605,0.21326843330869508,0.49215133019557483,0.34320120656362246,-0.8,0.0,0.002371072769165039,0
1.2699763774871826,-0.3760623335838318,0.09828662872314453,0.4842512607574463,-0.09311708050352321,-0.9750915109448992,-0.06014142750042837,-0.799999292211104,0.2741912352345975,0.49047654895452863,0.34559044391541827,-0.8,0.0,0.0018963813781738281,0
1.2799475193023682,-0.3748692274093628,0.09918077290058136,0.4759145975112915,-0.09702696361988483,-0.9750915857760346,-0.14806657480374982,-0.7999999999906398,0.33474446316870765,0.488805365423698,0.3479501612774522,-0.8,0.0,0.0021512508392333984,0
1.2899329662322998,-0.3720903992652893,0.10124585032463074,0.4582762122154236,-0.10446059956601782,-0.975091581377741,-0.35938408524251625,-0.7999999972988558,0.5355608352736602,0.4871204072349166,0.35030516532773104,-0.8,0.0,0.0017631053924560547,0
1.299978256225586,-0.37050068378448486,0.10241846740245819,0.4490016996860504,-0.10788610106904041,-0.9750915830759118,-0.4458376965033518,-0.7339778245463828,0.5791720638093957,0.4854139029051254,0.35266605006211393,-0.8,0.0,0.001500844955444336,0
1.3098502159118652,-0.368772029876709,0.10368375480175018,0.4394528269767761,-0.11108572631605233,-0.9750915857768369,-0.5278595563986489,-0.6541462980187367,0.6085511191222146,0.48372569613413097,0.35497809918296414,-0.8,0.0,0.001840829849243164,0
1.3199388980865479,-0.36488187313079834,0.10649190098047256,0.4196126163005829,-0.11683737620798826,-0.9750915857699126,-0.7017582498724526,-0.48750058416562464,0.6648521140032752,0.4819890502868487,0.3573325557566532,-0.8,0.0,0.002351522445678711,0
1.3300738334655762,-0.3627181947231293,0.1080351322889328,0.4093521237373352,-0.11929150429061688,-0.971420189113152,-0.798467106369522,-0.39926490965713135,0.69472076243739,0.4802329038071237,0.3596892521343637,-0.8,0.0,0.002544879913330078,0
1.3398213386535645,-0.36040470004081726,0.1096680611371994,0.3988935649394989,-0.12140162495422202,-0.9596561938975156,-0.7999976651604684,-0.3081943247008718,0.696306833430501,0.47853301868579967,0.36194771725686575,-0.8,0.0,0.0019383430480957031,0
1.3499760627746582,-0.3579416275024414,0.11138466000556946,0.38826340436935425,-0.12317966626054729,-0.9481351126927595,-0.7999999951211155,-0.22366370409874958,0.692886039763834,0.47675082249492445,0.3642919890011486,-0.8,0.0,0.0016944408416748047,0
1.359966516494751,-0.35532858967781067,0.11318441480398178,0.3774927854537964,-0.12460047767351558,-0.9370604788752548,-0.7999965433395028,-0.12457191987701402,0.6887612885467941,0.4749862491991044,0.36658977491436706,-0.8,0.0,0.0015223026275634766,0
1.369894027709961,-0.34964126348495483,0.11702550947666168,0.35554519295692444,-0.12625156884321795,-0.9156972162452275,-0.7999998523369203,0.07444625880519351,0.6826619569860733,0.4732218230471859,0.36886461770126155,-0.8,0.0,0.0014772415161132812,0
1.3801047801971436,-0.3465675711631775,0.11905727535486221,0.3443990647792816,-0.12645322632838787,-0.9058504360767515,-0.799999841739826,0.17355435510362405,0.6879543991997049,0.47139569110274454,0.3711955042962749,-0.8,0.0,0.0012731552124023438,0
1.3898248672485352,-0.34334203600883484,0.1211579293012619,0.3331611156463623,-0.12624906322725313,-0.8963591624997971,-0.7999995892611865,0.2709249114142741,0.6954736320377216,0.4696466445300072,0.37340598452850887,-0.8,0.0,0.0013232231140136719,0
1.3999218940734863,-0.33757951855659485,0.12463001906871796,0.3104304373264313,-0.12453747149758199,-0.8774201384262227,-0.7999999999274435,0.44750027991749114,0.709075894158194,0.4678187953152122,0.37569345848686736,-0.8,0.0,0.001455545425415039,0
1.4101877212524414,-0.3350236117839813,0.12600938975811005,0.29892629384994507,-0.12291317139641367,-0.867706815703009,-0.7999972635826289,0.529691750038066,0.719287339434177,0.46594896641175765,0.37801000079338476,-0.8,0.0,0.0027632713317871094,0
1.4200215339660645,-0.33228960633277893,0.12746059894561768,0.28732141852378845,-0.12088829934618422,-0.8577682699071653,-0.7999999999572686,0.6078923914249218,0.7276618449791011,0.46414706749500306,0.38022033051349197,-0.8,0.0,0.0029828548431396484,0
1.4300391674041748,-0.3293707072734833,0.12898117303848267,0.2756047546863556,-0.11846964977333924,-0.8473007372481818,-0.7999999947850931,0.6809501001865584,0.7310963930672065,0.46230070554272507,0.38246314548554694,-0.8,0.0,0.0019104480743408203,0
1.4398953914642334,-0.3229861259460449,0.1322277933359146,0.2518117129802704,-0.11253397525936226,-0.8245283383231448,-0.7999999900723849,0.7999208185646091,0.7140415926259308,0.4604735159908912,0.3846610729863193,-0.8,0.0,0.0019218921661376953,0
1.4500677585601807,-0.3195174038410187,0.13394761085510254,0.23971745371818542,-0.10907662381700439,-0.8080953771221981,-0.7999999995911904,0.7999999999883733,0.6999949568713174,0.458576761241939,0.38692034587089574,-0.8,0.0,0.0017583370208740234,0
1.4599788188934326,-0.31586018204689026,0.13572674989700317,0.22747714817523956,-0.10533867390420024,-0.7912370116970409,-0.7999967289177743,0.7999999994263112,0.6795665926015034,0.4567180684137923,0.38911258779995084,-0.8,0.0,0.0017321109771728516,0
1.4699010848999023,-0.3120124638080597,0.13756117224693298,0.21508155763149261,-0.10130987904735698,-0.7738254517958244,-0.7817358035592327,0.7999999996566657,0.6523315169037368,0.4548467763564386,0.39129836447160865,-0.8,0.0,0.001922607421875,0
1.4800355434417725,-0.30797669291496277,0.13944600522518158,0.2025270015001297,-0.09705726018515637,-0.7563516976292068,-0.7184755756693049,0.7999999999999179,0.6215111643977529,0.45292466750599764,0.3935215947881151,-0.8,0.0,0.0021753311157226562,0
1.4900877475738525,-0.3037564754486084,0.14137418568134308,0.18982188403606415,-0.09258017256539369,-0.7394315117539012,-0.6482740454526111,0.7999998155947533,0.5903201290603373,0.4510074241633129,0.39571745393597885,-0.8,0.0,0.0019392967224121094,0
1.4999299049377441,-0.2947794198989868,0.1453312784433365,0.16401420533657074,-0.0831262737765909,-0.7083267377295703,-0.5136518612854765,0.799999886203935,0.525393003925213,0.44911992799832906,0.39785837967142995,-0.8,0.0,0.002326488494873047,0
1.5101134777069092,-0.29003629088401794,0.14735013246536255,0.15093892812728882,-0.07821430763652515,-0.6935325714679308,-0.4296794709403487,0.7999998947339237,0.4948845622781759,0.44715625908032275,0.4000640948214314,-0.8,0.0,0.002257108688354492,0
1.520104169845581,-0.2800806164741516,0.15144672989845276,0.12452786415815353,-0.06807623698358271,-0.6676439537192869,-0.27411659387506054,0.7999999123220328,0.43152401088267717,0.44521925572286364,0.4022186151007675,-0.8,0.0,0.002493143081665039,0
1.5298545360565186,-0.2748834192752838,0.1535133272409439,0.11123033612966537,-0.06292445909701402,-0.6556833237407892,-0.18108321907674133,0.7999999497420777,0.40218864764437684,0.44331883721007026,0.4043122661689987,-0.8,0.0,0.0021309852600097656,0
1.5401034355163574,-0.269550621509552,0.15558509528636932,0.09789586812257767,-0.057783775248289884,-0.6447863468877147,-0.08389812121059603,0.799999999999591,0.37392086277356673,0.44131063837521983,0.406503284681509,-0.8,0.0,0.002477884292602539,0
1.5499260425567627,-0.2640921473503113,0.15765930712223053,0.08454366028308868,-0.0526596348501344,-0.6350873088738526,0.009574965293331907,0.7999999967084402,0.34534268399397183,0.43937580552946814,0.4085938099327142,-0.8,0.0,0.0024437904357910156,0
1.5599370002746582,-0.2559549808502197,0.16067281365394592,0.05607139691710472,-0.042529525569573894,-0.621967996852469,0.18172579321112958,0.7999998005026944,0.28718313238484133,0.4373936825765487,0.41071494548180904,-0.8,0.0,0.0020301342010498047,0
1.570129156112671,-0.2516833245754242,0.16218969225883484,0.041929300874471664,-0.03758100293394765,-0.615197934999559,0.28042674778920984,0.7999999281623746,0.26009399879900263,0.43536516393354413,0.4128645952768513,-0.8,0.0,0.002003908157348633,0
1.5799434185028076,-0.24728913605213165,0.16371020674705505,0.027884792536497116,-0.03274991307203009,-0.6095694921037453,0.37424582150086605,0.7999999999662222,0.23309904938285478,0.4334018714573388,0.4149250749439908,-0.8,0.0,0.0019488334655761719,0
1.5899932384490967,-0.24278205633163452,0.16523434221744537,0.013954156078398228,-0.028040668475588924,-0.6049298395379026,0.46115337580923915,0.7999999994978794,0.2061038363232391,0.4313813517306803,0.4170253342172524,-0.8,0.0,0.0016529560089111328,0
1.600017786026001,-0.2346796989440918,0.16818387806415558,-0.013507156632840633,-0.019066088576736168,-0.5993576761622397,0.5801144641811969,0.7999999999998364,0.1492262309693282,0.42935577363050886,0.4191105100688209,-0.8,0.0,0.0019829273223876953,0
1.6100380420684814,-0.23108603060245514,0.1696048527956009,-0.027014344930648804,-0.014796373180699492,-0.5977397514990602,0.6383611810594766,0.7999998606319402,0.12234400808529691,0.4273209901127552,0.42118496104331,-0.8,0.0,0.0015461444854736328,0
1.6200764179229736,-0.22739535570144653,0.17102362215518951,-0.040357932448387146,-0.01066258106257635,-0.5969806384763475,0.6909815111199628,0.7999998765004002,0.09546269493167972,0.42527247720085,0.423253257678488,-0.8,0.0,0.0014829635620117188,0
1.6299149990081787,-0.22361432015895844,0.17244099080562592,-0.05352877825498581,-0.006696777017815661,-0.5968492875214338,0.7370115368743896,0.7999999999989936,0.06871058103036644,0.4232550218690429,0.425270721379495,-0.8,0.0,0.0018138885498046875,0
1.6399083137512207,-0.21580494940280914,0.17526447772979736,-0.07931501418352127,0.0007325991089523588,-0.5987023754094305,0.7992423351142217,0.799999999563311,0.015053549642788034,0.4211960402281052,0.42731006973410346,-0.8,0.0,0.001920461654663086,0
1.6502139568328857,-0.21178504824638367,0.1766691505908966,-0.09191622585058212,0.004164869233351144,-0.5999637712829226,0.7999999999848506,0.7999999999985111,-0.010944388198558083,0.4190624168412745,0.42940271400068014,-0.8,0.0,0.0017499923706054688,0
1.659912347793579,-0.2076965719461441,0.1780717819929123,-0.10431871563196182,0.007466307399577615,-0.6014073856117844,0.7999999999097914,0.7999999968304382,-0.035722218954237356,0.4170450186808583,0.4313623214810057,-0.8,0.0,0.0014493465423583984,0
1.670027256011963,-0.20354607701301575,0.17947237193584442,-0.11652001738548279,0.01057798407232475,-0.6022672648637322,0.7999918736103022,0.7999941543179371,-0.058108814990109024,0.4149312177890124,0.4333959904107641,-0.8,0.0,0.0013885498046875,0
1.6800577640533447,-0.19507893919944763,0.18226777017116547,-0.14031003415584564,0.01625057183757254,-0.6050970360168784,0.7999999999007043,0.799999999517713,-0.10036973374459073,0.4128252615631271,0.4354024614254445,-0.8,0.0,0.0019507408142089844,0
1.690016269683838,-0.19076886773109436,0.1836620718240738,-0.15189942717552185,0.018859219972242377,-0.606533333618301,0.7999999999814726,0.7999999982845882,-0.11985574570877813,0.4107248241997047,0.43738440619907976,-0.8,0.0,0.0017001628875732422,0
1.7000479698181152,-0.18641279637813568,0.18505653738975525,-0.163286492228508,0.021297681699859735,-0.6081558939039147,0.7999999999604348,0.7999996466481561,-0.1383973384175158,0.40859932863176607,0.4393706733973832,-0.8,0.0,0.0017886161804199219,0
1.7099435329437256,-0.1820153146982193,0.18644948303699493,-0.1744726598262787,0.023577338427693283,-0.6099274994279179,0.7999999959831218,0.7976255988319197,-0.15602071215829533,0.4064932664335869,0.44131986624686736,-0.8,0.0,0.0018949508666992188,0
1.7199325561523438,-0.17311982810497284,0.1892305314540863,-0.19618695974349976,0.027619328261239345,-0.6122608127432251,0.7901748187021196,0.703984436240575,-0.18107360488550975,0.40435788287016916,0.44327722991459256,-0.8,0.0,0.0013599395751953125,0
1.7299859523773193,-0.16862845420837402,0.19061893224716187,-0.20675227046012878,0.029390474654112615,-0.6134202610992883,0.7661015302794484,0.6619980582828225,-0.19318375782576416,0.4021992218374018,0.445236775158329,-0.8,0.0,0.0012938976287841797,0
1.7398951053619385,-0.1641106754541397,0.1920095831155777,-0.21712753176689148,0.031029904160285338,-0.6145940184369674,0.7377532293529911,0.6199893545020115,-0.20441729338412873,0.40006223984142797,0.44715791869658283,-0.8,0.0,0.0012826919555664062,0
1.7499468326568604,-0.15957039594650269,0.19340337812900543,-0.22731365263462067,0.03252969077836112,-0.6159379507550844,0.705785074332719,0.5760136690839431,-0.21471834020120303,0.39788513547628335,0.4490962246189781,-0.8,0.0,0.0012593269348144531,0
1.760082721710205,-0.1504448652267456,0.19620439410209656,-0.24712538719177246,0.03505192275063168,-0.6185955483224632,0.6240135311715843,0.47158764954906585,-0.23223747795206973,0.3956802933938478,0.45104002640537183,-0.8,0.0,0.0013613700866699219,0
1.7699499130249023,-0.14586500823497772,0.1976134330034256,-0.25675928592681885,0.036096967842210656,-0.6199967044739554,0.5852947525846287,0.43071326329034004,-0.23958155364709263,0.39352477848046935,0.45292190134933585,-0.8,0.0,0.0012826919555664062,0
1.7801179885864258,-0.14127551019191742,0.1990322470664978,-0.2662160098552704,0.03701193726918891,-0.6214281424257565,0.543943866365584,0.39476573913629187,-0.24608409275618384,0.3912941713887778,0.4548503835737305,-0.8,0.0,0.0012676715850830078,0
1.7898361682891846,-0.1366862952709198,0.2004624307155609,-0.2754848301410675,0.03781948207607308,-0.6228404417519856,0.49901386214958166,0.35517073607934674,-0.2518457719175939,0.3891534263187389,0.45668327184645796,-0.8,0.0,0.0011816024780273438,0
1.7998871803283691,-0.12750962376594543,0.20336845517158508,-0.293506383895874,0.039027078878350184,-0.6256783572053815,0.39553811025573143,0.2496184631795229,-0.26050799679416453,0.3869303331334698,0.45856833438564204,-0.8,0.0,0.001302957534790039,0
1.810018539428711,-0.12292700260877609,0.20484456419944763,-0.30226466059684753,0.039406780382504704,-0.6271421074827858,0.3490544471271071,0.210754897879506,-0.26334505851877826,0.38468022793197415,0.4604575140425058,-0.8,0.0,0.0010373592376708984,0
1.8198473453521729,-0.1183505728840828,0.20633941888809204,-0.3108592629432678,0.03966463349620756,-0.6285823289504253,0.29959963777489323,0.17250222500619725,-0.2653300404765998,0.3824885025086478,0.462279726408905,-0.8,0.0,0.0008997917175292969,0
1.8299381732940674,-0.1137835830450058,0.20785798132419586,-0.3192920982837677,0.039808015205909326,-0.6300684801091385,0.24813049419867028,0.1353344235926978,-0.26651506786814666,0.38022936941101676,0.4641396628573134,-0.8,0.0,0.0009636878967285156,0
1.8400256633758545,-0.10469259321689606,0.21097318828105927,-0.33568161725997925,0.039826329073059115,-0.6327778023193392,0.13903732888597084,0.03995357861180449,-0.2669595167245101,0.3779619438475286,0.46598794941822,-0.8,0.0,0.0013511180877685547,0
1.8499362468719482,-0.10017037391662598,0.2125682234764099,-0.3436424434185028,0.03967944236035286,-0.6342929145974372,0.09186591482264242,0.008226140977758327,-0.2661251601500353,0.3757255329419207,0.4677930353217218,-0.8,0.0,0.0009224414825439453,0
1.8599560260772705,-0.09566698223352432,0.21418991684913635,-0.3514481782913208,0.039422697912683505,-0.6357968855471119,0.04563512056880677,-0.02377254661950037,-0.264527299219084,0.37345571757482543,0.46960709855226024,-0.8,0.0,0.0007612705230712891,0
1.869934320449829,-0.09118614345788956,0.21584057807922363,-0.35910356044769287,0.039012777580946165,-0.6372421695646155,-0.0003668411330361729,-0.05300720708646465,-0.2618734249351376,0.3711865956995582,0.4714027059457473,-0.8,0.0,0.0010302066802978516,0
1.8799543380737305,-0.08230016380548477,0.2192399799823761,-0.37397509813308716,0.037862198953542425,-0.6398446848087179,-0.09759320847244922,-0.1281620792370505,-0.254246347624181,0.3688992982600183,0.473194788372892,-0.8,0.0,0.001294851303100586,0
1.890082597732544,-0.07789928466081619,0.22098857164382935,-0.3811955451965332,0.03713776154677655,-0.6413125677322324,-0.1374205100219078,-0.1504602016066651,-0.24942007387829326,0.3665784995951243,0.47499495116747026,-0.8,0.0,0.0008969306945800781,0
1.8999266624450684,-0.0735282376408577,0.22277192771434784,-0.3882749676704407,0.03632912267918116,-0.642718261140929,-0.17722455514865726,-0.17008464089370298,-0.24400361837799273,0.36431440305568474,0.4767336947669842,-0.8,0.0,0.0008170604705810547,0
1.9099981784820557,-0.06918822228908539,0.22459223866462708,-0.3952166736125946,0.035400399646420035,-0.6441506657168583,-0.22098539959980065,-0.18603999168175625,-0.23781946066438517,0.36198945895108997,0.47850144368465297,-0.8,0.0,0.0010433197021484375,0
1.920034646987915,-0.060606811195611954,0.2283470779657364,-0.4086906313896179,0.033233877295931025,-0.6470260971992093,-0.33094962885246304,-0.23318196046798195,-0.2234721901192408,0.35966407255630395,0.48025176200844244,-0.8,0.0,0.0009226799011230469,0
1.9299108982086182,-0.056367889046669006,0.23028218746185303,-0.41523200273513794,0.03201059740448934,-0.6485092832267372,-0.375101706074679,-0.24234231003852166,-0.21531143557359095,0.35736754565215123,0.48196310783560764,-0.8,0.0,0.0008454322814941406,0
1.9400501251220703,-0.05216626077890396,0.23225942254066467,-0.4216425120830536,0.030676921524449615,-0.6499848533087446,-0.415029999360946,-0.24751618355403116,-0.2063953107156617,0.3550013985635639,0.48370859721315024,-0.8,0.0,0.0007870197296142578,0
1.9500746726989746,-0.048001304268836975,0.2342786341905594,-0.42792513966560364,0.029282915163079713,-0.651425073861757,-0.4523228615369479,-0.2491264150337493,-0.1970590059684711,0.35265363222860935,0.4854229245472125,-0.8,0.0,0.0008187294006347656,0
1.95988130569458,-0.037769682705402374,0.2394416779279709,-0.44214820861816406,0.02627352634319515,-0.6530582241363176,-0.5457775370971731,-0.2436840332216566,-0.17681748472643066,0.35034889098784955,0.48708895961988696,-0.8,0.0,0.0008025169372558594,0
1.9699997901916504,-0.031748052686452866,0.2425631731748581,-0.4500422179698944,0.024706623543229812,-0.6533960509697369,-0.5833000686832349,-0.21320771751401157,-0.16617292207713338,0.3479626093156685,0.4887965042000929,-0.8,0.0,0.0009191036224365234,0
1.980036735534668,-0.02580747753381729,0.2457045316696167,-0.4577684998512268,0.0231001051183207,-0.6537599342014329,-0.6178414988173523,-0.17898686409602757,-0.15525102664608328,0.34558733536068864,0.49047873923168056,-0.8,0.0,0.0008106231689453125,0
1.9899547100067139,-0.019947674125432968,0.24886658787727356,-0.46532946825027466,0.021423948167205716,-0.6541953000634875,-0.6487800812460959,-0.14493850695563795,-0.1438685125696508,0.3432322273680587,0.4921296964174802,-0.8,0.0,0.0008761882781982422,0
1.999948263168335,-0.0141686936840415,0.2520490288734436,-0.4727294147014618,0.01971436255065009,-0.6545206871402293,-0.6751652025295923,-0.1098614715050253,-0.13226477935396824,0.3408511954287795,0.49378179652025644,-0.8,0.0,0.0008664131164550781,0
2.0099596977233887,-0.0028510005213320255,0.25847285985946655,-0.4870413839817047,0.016229959706057163,-0.6551650614459614,-0.7298247852440233,-0.05614082917662716,-0.10869120531479359,0.3384579297948802,0.49542530189622314,-0.8,0.0,0.0010993480682373047,0
2.0199413299560547,0.0026920470409095287,0.2617139518260956,-0.4939709007740021,0.014481688261132449,-0.6555850691505717,-0.7432310228527056,-0.015295018459955206,-0.096835305078929,0.33606389933920067,0.4970523670207512,-0.8,0.0,0.001081705093383789,0
2.0299124717712402,0.008159708231687546,0.2649739980697632,-0.500751793384552,0.012755805210061217,-0.6561289120782671,-0.7523168373507362,0.02552803015034941,-0.08515160551156807,0.33366457562103446,0.4986661718781764,-0.8,0.0,0.00125885009765625,0
2.03983211517334,0.018873067572712898,0.2715438902378082,-0.5138774514198303,0.009320789239382746,-0.6570184346637129,-0.7700158262890021,0.08572465043091347,-0.06198086699421722,0.3312699541659428,0.5002601497889814,-0.8,0.0,0.0012514591217041016,0
2.05005145072937,0.02412109449505806,0.27485111355781555,-0.5202282667160034,0.007654502042399133,-0.6576314195820454,-0.7641170457619869,0.12505322873516778,-0.05073846826543246,0.32879502387554477,0.5018902591948562,-0.8,0.0,0.0010864734649658203,0
2.0597798824310303,0.02929525449872017,0.27817079424858093,-0.5264398455619812,0.005999718908775222,-0.6582257291328376,-0.7539635719661916,0.1611278473342911,-0.03959563125840919,0.3264315277942463,0.5034306880414763,-0.8,0.0,0.0010223388671875,0
2.0699548721313477,0.03439585864543915,0.2815013825893402,-0.5325136184692383,0.0043895618318584165,-0.6589416015779138,-0.7392439604409068,0.19701877573080875,-0.028763062780329033,0.32395182111643894,0.505029917525034,-0.8,0.0,0.0009281635284423828,0
2.0800681114196777,0.04438957944512367,0.2881856858730316,-0.5442124605178833,0.0013472025686192563,-0.6602380617522144,-0.7128072052442576,0.2403253629017216,-0.008384879142702969,0.3214793997777256,0.5066073385952411,-0.8,0.0,0.0008509159088134766,0
2.0898633003234863,0.04927992448210716,0.2915366590023041,-0.54986572265625,-9.585957728554098e-05,-0.6609248505562987,-0.6846736546923878,0.26889824422965164,0.0012713893377460862,0.319077410551994,0.5081236129874641,-0.8,0.0,0.0007343292236328125,0
2.0999224185943604,0.054101862013339996,0.29489004611968994,-0.5553920865058899,-0.0014950596483555825,-0.6616375314716544,-0.6536188369029959,0.29800079150070563,0.010627745748353188,0.31660325763663905,0.5096688898234499,-0.8,0.0,0.0007364749908447266,0
2.1098358631134033,0.05885661765933037,0.2982446849346161,-0.5607927441596985,-0.002851252302954104,-0.6624177609642339,-0.6197524559952499,0.3228947305263365,0.019676369764472734,0.31415761276939436,0.5111800018966266,-0.8,0.0,0.0007271766662597656,0
2.1198959350585938,0.06816703081130981,0.3049516975879669,-0.5712218880653381,-0.005345273795824339,-0.6639481154073466,-0.5585513742437591,0.3447767277611943,0.03625301745368938,0.31166842220776486,0.5127014673262819,-0.8,0.0,0.0007171630859375,0
2.129974603652954,0.0727243646979332,0.3082978427410126,-0.5762555599212646,-0.006495335887924729,-0.6646680543129343,-0.5143885695937102,0.36122387534459793,0.043882246882990646,0.30916724152264025,0.5142135906112181,-0.8,0.0,0.0007543563842773438,0
2.1398205757141113,0.07721613347530365,0.31163495779037476,-0.581173300743103,-0.007592942906039633,-0.6654000144100698,-0.4702359080870685,0.37565659961918957,0.05115063487789444,0.3067167236118768,0.5156790197950617,-0.8,0.0,0.0006804466247558594,0
2.1499745845794678,0.08164624124765396,0.31496191024780273,-0.5859845280647278,-0.008626850062396654,-0.6661849313209353,-0.42553137145053566,0.385758164556,0.05798191337663836,0.30418226523879016,0.5171780636436529,-0.8,0.0,0.0006048679351806641,0
2.1599180698394775,0.09030706435441971,0.3215799033641815,-0.5952680706977844,-0.010566193738018086,-0.6675972186853708,-0.3446889861488881,0.37351366088327925,0.0707599110463621,0.3016932535447065,0.518633956433253,-0.8,0.0,0.0006031990051269531,0
2.169891119003296,0.09453746676445007,0.3248651623725891,-0.5997442603111267,-0.011430919931401483,-0.6683980659319476,-0.29682898560631266,0.37281553822137453,0.07643859711910587,0.2991898423769051,0.5200821456447843,-0.8,0.0,0.0005793571472167969,0
2.180145502090454,0.09869952499866486,0.328132301568985,-0.6041110157966614,-0.012271129573041948,-0.6692431373525761,-0.24820717570011663,0.3699814542203062,0.08194636718489641,0.296608563652874,0.5215585872821757,-0.8,0.0,0.0006296634674072266,0
2.189837694168091,0.10279318690299988,0.33137765526771545,-0.6083707213401794,-0.013068315679238593,-0.670023777781927,-0.1988370303988114,0.36262082986173383,0.08716020965914804,0.2941621035187531,0.5229423073852625,-0.8,0.0,0.0005464553833007812,0
2.199895143508911,0.11077550798654556,0.3377951383590698,-0.6165746450424194,-0.014469638001248968,-0.6716039765951997,-0.1158315143004184,0.3195895595471571,0.09632649268924237,0.29161662289915613,0.5243660412811754,-0.8,0.0,0.0006890296936035156,0
2.2100675106048584,0.11465951800346375,0.34096673130989075,-0.6205229163169861,-0.015089921276104399,-0.6723877796106817,-0.06981887169676257,0.30572796230129534,0.10035853363478364,0.28903504831307536,0.5257934393339824,-0.8,0.0,0.0006771087646484375,0
2.219836711883545,0.11847519874572754,0.34410884976387024,-0.6243723630905151,-0.015665247583033438,-0.6731788820273789,-0.023237991743388562,0.2899695214562705,0.10408619551113277,0.2865492128640681,0.5271523011492817,-0.8,0.0,0.0005426406860351562,0
2.230024576187134,0.12222324311733246,0.3472197949886322,-0.6281238794326782,-0.016184393363666148,-0.6740168710996005,0.020757480993556024,0.27253765764390475,0.10744057055310983,0.2839500418956506,0.5285568784033164,-0.8,0.0,0.0006067752838134766,0
2.239975929260254,0.12950435280799866,0.3533402979373932,-0.6353403925895691,-0.017093406605558872,-0.6754105331360285,0.09330249884592651,0.20240882698783189,0.11335400604949662,0.28140456345749515,0.5299164761217532,-0.8,0.0,0.0007371902465820312,0
2.249838352203369,0.13303536176681519,0.35634809732437134,-0.6388117074966431,-0.017472778208896513,-0.6760897511416845,0.13029826551173965,0.1777284891559892,0.11579157190982066,0.2788754096818596,0.5312518290554631,-0.8,0.0,0.000579833984375,0
2.260019540786743,0.13649341464042664,0.3593195378780365,-0.6421944499015808,-0.017826108964306656,-0.6767997637256773,0.1668549733600207,0.1520653219703631,0.11805448443665925,0.2762578641774504,0.5326176794663442,-0.8,0.0,0.0005767345428466797,0
2.269820213317871,0.1398754119873047,0.36225277185440063,-0.6454954743385315,-0.018102749561967932,-0.6774836350709267,0.19898426239106393,0.12201476414206468,0.1198199483885312,0.2737318281756111,0.53392029952385,-0.8,0.0,0.0005869865417480469,0
2.279909372329712,0.14641173183918,0.3680044412612915,-0.6518374681472778,-0.018483871674936956,-0.6789050726448727,0.2432073202506356,0.03937143886089088,0.12229499760308875,0.27112502209531286,0.5352487481478271,-0.8,0.0,0.0006923675537109375,0
2.2901153564453125,0.14956770837306976,0.37082210183143616,-0.6548812985420227,-0.018605768068022086,-0.6796881276748793,0.2673609517626431,0.0108852007961558,0.12304270285197957,0.2684814720260559,0.536579629858162,-0.8,0.0,0.0006449222564697266,0
2.299838066101074,0.1526469737291336,0.3735995590686798,-0.6578417420387268,-0.018690416860655465,-0.6805015586599509,0.2880597611462801,-0.018307452298266476,0.12355174358025954,0.265957022506942,0.5378353485772779,-0.8,0.0,0.0005483627319335938,0
2.3099634647369385,0.1556490659713745,0.3763374090194702,-0.6607205867767334,-0.018696923117650692,-0.6812761590847057,0.3049374683943486,-0.046758580774603174,0.12354729878764717,0.26332177488969255,0.5391304506971778,-0.8,0.0,0.000598907470703125,0
2.3201327323913574,0.1585729718208313,0.37903648614883423,-0.6635198593139648,-0.018673088488528878,-0.6820532534785094,0.31806935336202413,-0.07479790487464118,0.12334948546158596,0.2606687624960933,0.5404181679576986,-0.8,0.0,0.0005943775177001953,0
2.329828977584839,0.16141843795776367,0.3816976249217987,-0.6662424206733704,-0.018596955461069334,-0.682699207704607,0.32748757885274704,-0.10283596558281688,0.12281467481660963,0.2581332892320559,0.5416338292520508,-0.8,0.0,0.0006113052368164062,0
2.340057849884033,0.16687215864658356,0.38690444827079773,-0.6714653372764587,-0.018249990023969206,-0.683916284294139,0.32760759506747483,-0.17757578636838128,0.120548132607913,0.2554523953961853,0.5429033741710867,-0.8,0.0,0.0005793571472167969,0
2.3499717712402344,0.16947945952415466,0.3894486129283905,-0.6739665269851685,-0.018009692764090802,-0.6846406987536359,0.33011959281646924,-0.20200187219625418,0.11893369943501401,0.2528480884472426,0.5441211668080699,-0.8,0.0,0.0005335807800292969,0
2.359957218170166,0.1770472675561905,0.3950188159942627,-0.6807084083557129,-0.017358550909715588,-0.6849205216104525,0.30301015259114994,-0.2358395795742648,0.11466697304241394,0.2502191242032845,0.5453351170454194,-0.8,0.0,0.0005872249603271484,0
2.3700318336486816,0.18195532262325287,0.39803868532180786,-0.6849028468132019,-0.016943020045177185,-0.6847077186991959,0.2877225359568735,-0.2223683498829453,0.11189105039120027,0.24756077747848354,0.5465470349880683,-0.8,0.0,0.0006122589111328125,0
2.3798866271972656,0.18672965466976166,0.40101030468940735,-0.688983678817749,-0.016489387571654097,-0.6844885808459933,0.2708950262229153,-0.2094599480159916,0.10887291265285219,0.24495475488148863,0.547719972304233,-0.8,0.0,0.0005712509155273438,0
2.389909029006958,0.19137093424797058,0.4039350152015686,-0.6929541826248169,-0.015971019364681073,-0.6842693111021091,0.2512198031321638,-0.19498957182640317,0.10543744587760857,0.2422987102037643,0.5489001138946795,-0.8,0.0,0.0005888938903808594,0
