time,x,y,z,yaw,throttle,roll_rate,pitch_rate,yaw_rate,x_ref,y_ref,z_ref,yaw_ref,mpc_time,metadata
7.152557373046875e-07,-0.0065471213310956955,-0.022413497790694237,0.47216105461120605,-0.005710319424216013,-0.9750915857768673,0.1905688640826967,-0.8,-0.055618268550779726,0.5999999999999641,2.0741927720809036e-07,-0.8,0.0,0.008626461029052734,Sim
0.010129451751708984,-0.006798104848712683,-0.022486088797450066,0.47273650765419006,-0.005713787634230644,-0.9750915857767175,0.20806634671833155,-0.7999999999976337,-0.06439480343987515,0.5999928093971972,0.0029374600692600008,-0.8,0.0,0.005840778350830078,Horizon:3.0
0.020041465759277344,-0.007055224850773811,-0.02256130985915661,0.4733375608921051,-0.005722750120267583,-0.9750915857767545,0.22458578824156625,-0.7999999999982512,-0.07236868264233876,0.5999718518502265,0.005811797261587643,-0.8,0.0,0.005697488784790039,Num Steps:20
0.030002832412719727,-0.00758580956608057,-0.022715674713253975,0.4746147394180298,-0.005708198336253559,-0.9750915857767452,0.2406048712307082,-0.7999999999980527,-0.08011888584491757,0.5999369171670101,0.008700311496948072,-0.8,0.0,0.0058748722076416016,No Pyjoules
0.039931535720825195,-0.007858038879930973,-0.022796092554926872,0.47529035806655884,-0.00573156176899109,-0.9750915857767672,0.2575005806912288,-0.7999999999984133,-0.0881518081360828,0.5998882589283394,0.01157915367915806,-0.8,0.0,0.007950782775878906,0
0.04993438720703125,-0.008136681281030178,-0.02287839725613594,0.475990891456604,-0.005739129616246721,-0.9750915857768039,0.27424371119221863,-0.7999999999990663,-0.0967018125931371,0.5998252679164107,0.014479225428389041,-0.8,0.0,0.005721330642700195,0
0.060164451599121094,-0.008421622216701508,-0.022961745038628578,0.47665145993232727,-0.005759664228138359,-0.9750915857768132,0.29075309353648465,-0.7999999999991911,-0.10431144333465601,0.5997463448939376,0.017444821190312737,-0.8,0.0,0.006086826324462891,0
0.0699923038482666,-0.008960038423538208,-0.02312026545405388,0.4778572916984558,-0.005794158517978616,-0.9750915857768395,0.30037036122124977,-0.7999999999995749,-0.10376991374914839,0.5996567160906359,0.02029341881976725,-0.8,0.0,0.005429506301879883,0
0.08006501197814941,-0.008699106983840466,-0.02296363189816475,0.4765254557132721,-0.005872238987181588,-0.9750915857767362,0.31196539996187017,-0.7999999999980226,-0.10726539398237596,0.5995508145948941,0.023212512113056177,-0.8,0.0,0.005150794982910156,0
0.0900583267211914,-0.00842944998294115,-0.022804168984293938,0.4749893546104431,-0.0059916713620991385,-0.9750915857768493,0.321946596456897,-0.7999999999997326,-0.10979283934374628,0.599431705484943,0.02610805353550022,-0.8,0.0,0.0057904720306396484,0
0.10007715225219727,-0.008152334950864315,-0.022642934694886208,0.4732145369052887,-0.0061511100724982596,-0.975091585776245,0.3293080194967865,-0.7999999999908953,-0.11111428641186366,0.5992982547372481,0.029010375193859864,-0.8,0.0,0.004531383514404297,0
0.11065506935119629,-0.007575478870421648,-0.022318216040730476,0.46881797909736633,-0.0066050840858855155,-0.9750915857767966,0.31779499163634534,-0.7999999999989977,-0.10321092601077092,0.5991421064649263,0.032073918699949314,-0.8,0.0,0.0042035579681396484,0
0.12007451057434082,-0.007270739879459143,-0.02215094491839409,0.4661216139793396,-0.006919797998822567,-0.9750915857768204,0.3137980313078622,-0.799999999999348,-0.10016098194732782,0.5989898775092712,0.03480124482584256,-0.8,0.0,0.0037631988525390625,0
0.130157470703125,-0.00695302989333868,-0.021979039534926414,0.4630148112773895,-0.007307764451958577,-0.975091585776867,0.30857542517884456,-0.7999999999999973,-0.09653933349865809,0.5988131679666656,0.03771988692620727,-0.8,0.0,0.0039212703704833984,0
0.1402451992034912,-0.006619757041335106,-0.02180178463459015,0.4595143496990204,-0.0077583375904022225,-0.9750915857768673,0.30123196188022594,-0.7999999999999996,-0.09162159641510598,0.5986221434562423,0.04063901283070349,-0.8,0.0,0.00429534912109375,0
0.14996004104614258,-0.0062651317566633224,-0.021617891266942024,0.4556097984313965,-0.008283795272544177,-0.9750915857768673,0.292073560612607,-0.7999999999999994,-0.08717127212352468,0.5984247290649787,0.04344932270481084,-0.8,0.0,0.003365039825439453,0
0.1602776050567627,-0.005879055242985487,-0.021424056962132454,0.4512966573238373,-0.00883639410717391,-0.9750915857768673,0.2825741700280105,-0.7999999999999999,-0.08216222701024642,0.5982006204361875,0.04643293776792794,-0.8,0.0,0.003274679183959961,0
0.17017912864685059,-0.004984669387340546,-0.0209992416203022,0.4414445757865906,-0.010062108671406392,-0.9750915857768662,0.23982847512883082,-0.7999999999999897,-0.06348675573478221,0.5979715606787365,0.0492951581743692,-0.8,0.0,0.003298044204711914,0
0.18009662628173828,-0.004461279138922691,-0.020763248205184937,0.435907244682312,-0.010749679932820973,-0.9750915857751324,0.22564878966113083,-0.7999999999831671,-0.05546581631592901,0.5977284033911707,0.052160864443008735,-0.8,0.0,0.002774953842163086,0
0.18994975090026855,-0.003227122128009796,-0.02022525481879711,0.42361554503440857,-0.012268410272047683,-0.9750915857752136,0.1705905438514826,-0.7999999999870668,-0.030895620565427145,0.5974732243421678,0.05500678316511264,-0.8,0.0,0.0021162033081054688,0
0.20008468627929688,-0.002502834890037775,-0.019917715340852737,0.4168294668197632,-0.01306507971534852,-0.9750915857757252,0.15155557348441848,-0.7999999999923322,-0.02043062691530793,0.5971966100987689,0.05793279629483602,-0.8,0.0,0.0020363330841064453,0
0.21009421348571777,-0.0016965072136372328,-0.019583646208047867,0.4096432030200958,-0.01390321291148805,-0.9750915857760053,0.13085289321202737,-0.799999999995302,-0.008957438499041773,0.5969093539664215,0.06082123927863773,-0.8,0.0,0.00226593017578125,0
0.22024202346801758,-0.0008010625606402755,-0.019219115376472473,0.40205833315849304,-0.014753654153245139,-0.9750915857768673,0.10720995718055305,-0.7999999999999999,0.003426230443999562,0.596603868190456,0.06374813299372029,-0.8,0.0,0.005224466323852539,0
0.23005151748657227,0.0012809146428480744,-0.018388960510492325,0.3856983780860901,-0.016587855194966555,-0.9750439162445984,0.027391522289570914,-0.7999999999741667,0.05838793149517344,0.5962949249099867,0.0665759906166877,-0.8,0.0,0.005244731903076172,0
0.24017906188964844,0.0024825972504913807,-0.017921917140483856,0.3769274652004242,-0.017503879578599463,-0.9626736425465895,0.006807456759667642,-0.7396940616310528,0.07235238762977535,0.5959619022509087,0.069493964237754,-0.8,0.0,0.00604701042175293,0
0.2500948905944824,0.0038017011247575283,-0.01741822622716427,0.3677666187286377,-0.01840301631413647,-0.950127048549481,-0.011817595934512745,-0.6664750988828974,0.07970033450218746,0.5956220069493593,0.07234932506677133,-0.8,0.0,0.0016527175903320312,0
0.26007914543151855,0.005245193839073181,-0.016877146437764168,0.35821717977523804,-0.019280184420742686,-0.9372693676620276,-0.027838887461067316,-0.5924803577299196,0.08694334021452642,0.59526594375061,0.07522271073748599,-0.8,0.0,0.001657247543334961,0
0.27005720138549805,0.008532796055078506,-0.015676429495215416,0.3379148840904236,-0.02091561311356537,-0.9108177991180056,-0.07989320530089584,-0.44304872502370674,0.10298430984339411,0.5948962528866346,0.07809256239515563,-0.8,0.0,0.0021598339080810547,0
0.279987096786499,0.010386780835688114,-0.01501177903264761,0.32717210054397583,-0.02170044548075963,-0.8973429975209082,-0.09546900707736333,-0.358862112949404,0.10947317218587926,0.5945146105532224,0.08094675928503986,-0.8,0.0,0.002242565155029297,0
0.290055513381958,0.012387992814183235,-0.014304880984127522,0.31606173515319824,-0.022410942090471463,-0.8838079190457014,-0.10748616264746359,-0.2727760301415464,0.11544717257983761,0.5941136627080914,0.08383886797647137,-0.8,0.0,0.0018954277038574219,0
0.30014610290527344,0.014541047625243664,-0.013555372133851051,0.3045969605445862,-0.023058392226537945,-0.8702570554906404,-0.11809345068522885,-0.1836889484654965,0.12115649608409422,0.5936977163563484,0.08673535376798136,-0.8,0.0,0.002427339553833008,0
0.3107450008392334,0.019318509846925735,-0.011927648447453976,0.28066486120224,-0.024134452575140793,-0.8434534181097323,-0.15848141173706037,-0.005616753379314127,0.13219202028261576,0.5932456109928853,0.08977552582791225,-0.8,0.0,0.0021278858184814453,0
0.32017087936401367,0.02194257080554962,-0.011051845736801624,0.2682390809059143,-0.024547877434724558,-0.8304163145011725,-0.16415544071892996,0.08220595398638246,0.13639483635699687,0.5928304626858057,0.09247725402353497,-0.8,0.0,0.0021054744720458984,0
0.3300504684448242,0.024724658578634262,-0.010138723999261856,0.25553613901138306,-0.024868741579844367,-0.8176265191423456,-0.16728279518972497,0.17021190478270348,0.1400171269296423,0.5923821249177882,0.09530696762506889,-0.8,0.0,0.0016279220581054688,0
0.34009599685668945,0.02766556106507778,-0.009186861105263233,0.24257926642894745,-0.02510267635274827,-0.8051351719361524,-0.1699058546137283,0.25648019133721306,0.14313625026175703,0.5919124078676328,0.09818198109806663,-0.8,0.0,0.001684427261352539,0
0.34999823570251465,0.03402084484696388,-0.0071710869669914246,0.21588678658008575,-0.025272294501021097,-0.7810268974631753,-0.19275406401736955,0.4169504574008003,0.14787076273858316,0.5914357346959985,0.10101372047699468,-0.8,0.0,0.0016825199127197266,0
0.36012959480285645,0.03743589669466019,-0.006113447714596987,0.20225518941879272,-0.025180238535804495,-0.7695907135179756,-0.18762547653699543,0.4934651738348673,0.14871028814204987,0.5909340113237214,0.10390858607861005,-0.8,0.0,0.0018818378448486328,0
0.3701000213623047,0.04100688546895981,-0.0050246319733560085,0.18846388161182404,-0.024999869298494043,-0.7584361379278768,-0.18099103957795046,0.5652106593414389,0.14896822558173306,0.5904264241417341,0.10675503583065822,-0.8,0.0,0.0016150474548339844,0
0.380098819732666,0.0447290875017643,-0.0039045209996402264,0.17453116178512573,-0.024723217115356418,-0.7475969000903998,-0.17347558120325496,0.6312458663474527,0.14858057092638072,0.5899036231199579,0.10960709570984241,-0.8,0.0,0.0016171932220458984,0
0.38994860649108887,0.048598356544971466,-0.002755366265773773,0.16047824919223785,-0.024333011635197486,-0.7372335882690828,-0.16320396666968356,0.6956972774502533,0.1473123721065224,0.5893751429427422,0.11241414893696525,-0.8,0.0,0.0019097328186035156,0
0.4001345634460449,0.052610818296670914,-0.0015789386816322803,0.1463283747434616,-0.023848460978822542,-0.727410620752811,-0.15118316188377437,0.7663911051969675,0.14513919039175796,0.5888145771773433,0.11531432566453485,-0.8,0.0,0.0018002986907958984,0
0.4101226329803467,0.06104777753353119,0.0008482594275847077,0.1178227886557579,-0.022642851733000544,-0.706144179001893,-0.1479156461201083,0.799999999801174,0.14477769627740258,0.5882510438839935,0.11815544578813063,-0.8,0.0,0.0020513534545898438,0
0.42010068893432617,0.06546273827552795,0.002095262287184596,0.10345878452062607,-0.02189161141456353,-0.6948966893543594,-0.13079988388984728,0.7999999999999985,0.14522688790579713,0.5876743874127439,0.12099096817141418,-0.8,0.0,0.0018475055694580078,0
0.4301624298095703,0.07000275701284409,0.003363522468134761,0.08907424658536911,-0.021088519080710036,-0.6842891178209065,-0.11272008487113451,0.7999999999862868,0.14471405028663312,0.5870790543253608,0.12384742214693072,-0.8,0.0,0.0019376277923583984,0
0.4400951862335205,0.07945208251476288,0.005955566186457872,0.06029922142624855,-0.01931333680002481,-0.6650293329322778,-0.09898690068049397,0.7999999998536512,0.13863300021900415,0.5864777347508889,0.12666438584490075,-0.8,0.0,0.0062062740325927734,0
0.4499330520629883,0.08434680849313736,0.007277095224708319,0.04593605920672417,-0.01831496348414701,-0.6565563939008392,-0.07935257314546534,0.7999999999718411,0.13494389336485232,0.5858688363211408,0.1294515609319263,-0.8,0.0,0.0016047954559326172,0
0.4602341651916504,0.08934751152992249,0.00861698854714632,0.0316106379032135,-0.017302237329518494,-0.6488608155426672,-0.06020064571536701,0.7999999999757051,0.13067049322918245,0.5852170702594834,0.13236684130440993,-0.8,0.0,0.0017807483673095703,0
0.46999526023864746,0.09964847564697266,0.011345972307026386,0.0030775940977036953,-0.015186505810254316,-0.6367638489047941,-0.05094521173338662,0.7999999999991887,0.11601114621221008,0.5845860860887359,0.1351262666969418,-0.8,0.0,0.0020751953125,0
0.48018765449523926,0.10296133160591125,0.012193617410957813,-0.01096424087882042,-0.01406196295650251,-0.6322180554140782,-0.024247741097503054,0.8,0.10992618564117884,0.5839133354935311,0.13800440801952274,-0.8,0.0,0.001516103744506836,0
0.49007630348205566,0.10639874637126923,0.01306236907839775,-0.02491013891994953,-0.012907120460092568,-0.6279615959206414,0.002955147193893426,0.7999999993813675,0.1039506535659165,0.583247090529593,0.14079357722838318,-0.8,0.0,0.002454519271850586,0
0.5002048015594482,0.10995566099882126,0.013951677829027176,-0.03874734416604042,-0.011746479748127878,-0.6241937021119774,0.02910622877297562,0.8,0.09769368241326173,0.582550874392343,0.14364706312597067,-0.8,0.0,0.0022716522216796875,0
0.5114967823028564,0.11740720272064209,0.01579119637608528,-0.06604891270399094,-0.009407357315249257,-0.6186955879675923,0.05292466492845945,0.799999999999916,0.08148179475952934,0.5817582252192022,0.146824273843953,-0.8,0.0,0.003483295440673828,0
0.5201561450958252,0.12128926813602448,0.016739768907427788,-0.07949153333902359,-0.008243608103054403,-0.6167073706771556,0.07156921415367133,0.7999999999999791,0.07396710369276283,0.5811386340927092,0.1492577902987322,-0.8,0.0,0.0024437904357910156,0
0.5300099849700928,0.12526732683181763,0.01770584098994732,-0.09278430044651031,-0.007096340805712433,-0.6150644867034503,0.09340014442311272,0.7999999999996017,0.06680733139744661,0.580421194328726,0.15202380462945722,-0.8,0.0,0.0018014907836914062,0
0.540189266204834,0.12933596968650818,0.01868804544210434,-0.10595148801803589,-0.005973734246147704,-0.6137237158036583,0.11592938528140659,0.8,0.059819757137373475,0.5796662354184854,0.15487755007024454,-0.8,0.0,0.0044248104095458984,0
0.5500681400299072,0.13772203028202057,0.02069823071360588,-0.13179455697536469,-0.0037358529823683356,-0.6122875487944133,0.1278295168516101,0.7999999999998466,0.0424399866484991,0.5789201405567771,0.15764349291271568,-0.8,0.0,0.002201080322265625,0
0.5601892471313477,0.1420295536518097,0.021725129336118698,-0.14445845782756805,-0.002644319572551399,-0.6121111192900848,0.14645102483929978,0.7999999999974875,0.03482006984533616,0.5781420640250573,0.16047352991956826,-0.8,0.0,0.0019652843475341797,0
0.5701239109039307,0.14640815556049347,0.022765733301639557,-0.15694423019886017,-0.0015656171929398154,-0.612247832090923,0.16304308373081877,0.799999999999426,0.026891339018531968,0.5773648659611782,0.16324769999491778,-0.8,0.0,0.002000570297241211,0
0.5807652473449707,0.15085287392139435,0.02382059022784233,-0.1692502200603485,-0.0005158200074262596,-0.6125337739186401,0.18076652198937623,0.7999999999481886,0.019101800511160467,0.5765176191572853,0.1662150257985581,-0.8,0.0,0.004152536392211914,0
0.5900003910064697,0.15992432832717896,0.025972595438361168,-0.19331756234169006,0.0014968404792066457,-0.6136747004745823,0.1772361141583839,0.7999999992305544,0.0017722480471462805,0.575769969894349,0.16878667532675795,-0.8,0.0,0.0017786026000976562,0
0.6000545024871826,0.16454273462295532,0.027069466188549995,-0.20507587492465973,0.0024619547705249712,-0.6137547998260913,0.18987840225866728,0.7999999999999907,-0.004646848723452077,0.574942977794798,0.17158255238936856,-0.8,0.0,0.001986980438232422,0
0.6099815368652344,0.16921184957027435,0.028178777545690536,-0.21669389307498932,0.0034001649199850957,-0.6139353222390173,0.20035702335061198,0.7999999997171098,-0.011021858547316967,0.5741131181476968,0.1743391165823914,-0.8,0.0,0.0017826557159423828,0
0.6202447414398193,0.17392809689044952,0.029301630333065987,-0.22812655568122864,0.004320380104503077,-0.6142430624471169,0.20950768739025455,0.799999999999999,-0.017353416241610898,0.573241261092528,0.17718480911479997,-0.8,0.0,0.0018377304077148438,0
0.6299962997436523,0.1786862164735794,0.03043600358068943,-0.2393750548362732,0.005210111694619581,-0.6146649679035276,0.21836505979297055,0.7999999999999274,-0.023607015500095568,0.5723998000979308,0.17988459869552162,-0.8,0.0,0.0015292167663574219,0
0.6400351524353027,0.18348054587841034,0.03158026188611984,-0.2504403293132782,0.006035655261072335,-0.615211073168393,0.22645548426601222,0.7999998647859545,-0.02963867425402875,0.571520266169436,0.18265975297699558,-0.8,0.0,0.0014491081237792969,0
0.6499724388122559,0.1931624859571457,0.03390383720397949,-0.27202337980270386,0.007566034291118714,-0.6167120915516836,0.20806684990766336,0.7999992166361142,-0.04209126145303749,0.5706363795621417,0.1854025952359116,-0.8,0.0,0.00160980224609375,0
0.6600987911224365,0.198045551776886,0.035086896270513535,-0.2825413644313812,0.008322359320462904,-0.6176026139566538,0.20830818526159367,0.7999999999986025,-0.04804755926567412,0.5697221349151975,0.1881932224806979,-0.8,0.0,0.0017833709716796875,0
0.6702849864959717,0.20788446068763733,0.03749408572912216,-0.3030391335487366,0.009664308005770228,-0.6195057056448486,0.18380610404748954,0.7999998738305193,-0.059255523622770326,0.5687887191159973,0.19099579316409873,-0.8,0.0,0.0017364025115966797,0
0.6799924373626709,0.21283134818077087,0.03871624544262886,-0.3130853772163391,0.010265827356954943,-0.6202447533153698,0.18243210150191955,0.7999999982619846,-0.06344733058427726,0.567886343325728,0.19366233775345545,-0.8,0.0,0.0016582012176513672,0
0.6900231838226318,0.2177891880273819,0.03995262086391449,-0.32295456528663635,0.010850068927801814,-0.6210357790381561,0.17957227449540594,0.7999999999999166,-0.06759299160247113,0.566940782762637,0.19641320943482496,-0.8,0.0,0.0017719268798828125,0
0.7003355026245117,0.22275440394878387,0.041205424815416336,-0.33264780044555664,0.011405789681341792,-0.6218925852709682,0.17475393238192505,0.7999999998598786,-0.07159344402047557,0.5659547880472076,0.19923648733713487,-0.8,0.0,0.0017747879028320312,0
0.7099277973175049,0.23269164562225342,0.04375750944018364,-0.3515169024467468,0.012416950791140474,-0.6236353437510219,0.13686290686725738,0.7999999996656484,-0.0792700533252564,0.5650250155025768,0.20185819739686764,-0.8,0.0,0.0019683837890625,0
0.7199747562408447,0.2376578450202942,0.04505619779229164,-0.3606950342655182,0.012849712493683147,-0.624605975902559,0.1304644558567958,0.7999999999275185,-0.08258997403195527,0.5640381513471124,0.20459952058822575,-0.8,0.0,0.0016942024230957031,0
0.7299895286560059,0.24261680245399475,0.04637036845088005,-0.3697042465209961,0.013250222102097009,-0.6256646206249555,0.12467044902750882,0.7999999999995542,-0.08576369190312728,0.5630412125879966,0.20732726045418745,-0.8,0.0,0.0018398761749267578,0
0.740107536315918,0.24756427109241486,0.047699905931949615,-0.3785451352596283,0.013616921563911118,-0.6267189364769405,0.11754869154224737,0.7971684547572687,-0.08872760172469961,0.5620206009860473,0.21007818560546027,-0.8,0.0,0.001943826675415039,0
0.750049352645874,0.252497136592865,0.049046941101551056,-0.38721907138824463,0.013925249614247475,-0.6277533950568219,0.10873042575438824,0.7600579207971719,-0.09083763579006765,0.5610046703712827,0.21277631405212483,-0.8,0.0,0.0016472339630126953,0
0.7600910663604736,0.2574113607406616,0.050411295145750046,-0.3957805335521698,0.014208847083972633,-0.6287230434828741,0.10020459201320712,0.7213957728377146,-0.0927909274005096,0.559965382681636,0.21549656655782007,-0.8,0.0,0.0017538070678710938,0
0.7701194286346436,0.26717087626457214,0.053191475570201874,-0.41241568326950073,0.01468707755732678,-0.6305204948424183,0.058001063129822554,0.6271708673682296,-0.09598719366509069,0.5589143129817509,0.21820813629225047,-0.8,0.0,0.0016674995422363281,0
0.780296802520752,0.2720072865486145,0.05460791289806366,-0.4204920828342438,0.014882278518287443,-0.6315277882705431,0.049263891710032356,0.5800394418400081,-0.09737319882286924,0.5578342010539701,0.22095475585395036,-0.8,0.0,0.0016903877258300781,0
0.7899632453918457,0.276809424161911,0.056044649332761765,-0.42840978503227234,0.01506246016683647,-0.6325439542495368,0.037879405843435,0.5304096128847875,-0.09864970680443128,0.5567958152235429,0.22355853852973312,-0.8,0.0,0.0016567707061767578,0
0.8001236915588379,0.2862958312034607,0.05897495150566101,-0.4437755048274994,0.015350321942211035,-0.6345445492553482,-0.00631194742680152,0.41746778310989385,-0.1005795234830289,0.5556912621001481,0.2262901262219464,-0.8,0.0,0.0022220611572265625,0
0.8100759983062744,0.2909753918647766,0.060469139367341995,-0.4513062834739685,0.01543994808996929,-0.6355462313933379,-0.0150105011559307,0.3625127155704695,-0.10128725488931642,0.55459634401072,0.22896046647826154,-0.8,0.0,0.0016770362854003906,0
0.8201580047607422,0.2956083416938782,0.06198124215006828,-0.4586842656135559,0.015499210825302687,-0.6365564438605217,-0.02216000086591146,0.30653981179209916,-0.1018118590499173,0.5534740729220361,0.2316602050484558,-0.8,0.0,0.0023162364959716797,0
0.8300206661224365,0.3047208786010742,0.06506256759166718,-0.4729912281036377,0.01549723063700239,-0.6384207723188942,-0.06375743725480662,0.1807935878374575,-0.10185190714506155,0.5523635015924878,0.2342958858121195,-0.8,0.0,0.0017843246459960938,0
0.8399920463562012,0.3091960549354553,0.06663374602794647,-0.4799240231513977,0.015431505690910655,-0.6394310227445253,-0.07248082973849108,0.12434675719541236,-0.10154584421585297,0.5512279287190686,0.23695520800371828,-0.8,0.0,0.0033044815063476562,0
0.8500537872314453,0.3136135935783386,0.06822535395622253,-0.4867132008075714,0.01532099939819254,-0.6403860354739467,-0.07984246260653688,0.06734313463063292,-0.1009594791260722,0.5500690877433965,0.23963305011860864,-0.8,0.0,0.002335786819458008,0
0.8602056503295898,0.31796586513519287,0.06983676552772522,-0.4933619499206543,0.01517025075860301,-0.641333051438783,-0.08667594363862957,0.010488316432711583,-0.10011351248196289,0.548886683151185,0.24232913374023052,-0.8,0.0,0.0026831626892089844,0
0.8701412677764893,0.32647407054901123,0.07312034070491791,-0.5063004493713379,0.014752058787823952,-0.6432243191402195,-0.1236759940003729,-0.11105794628449626,-0.09740737926831115,0.5477166697124699,0.24496213935847544,-0.8,0.0,0.0026700496673583984,0
0.880314826965332,0.3319975733757019,0.07494519650936127,-0.5147427916526794,0.014489309379443063,-0.6432036272363783,-0.13003022007379345,-0.14411139866055916,-0.09576240816552233,0.5465055488345926,0.24765234723902918,-0.8,0.0,0.002279996871948242,0
0.8902783393859863,0.33742284774780273,0.07678645104169846,-0.5229967832565308,0.014057806489244117,-0.6431663066998619,-0.1349635198441213,-0.17515195311638393,-0.09303770410503943,0.5453066260297333,0.25028120905906737,-0.8,0.0,0.002041339874267578,0
0.9001672267913818,0.34274816513061523,0.07864420115947723,-0.5310653448104858,0.01358125168765131,-0.6431943816137901,-0.140541726595212,-0.20567718125360576,-0.09000660863326526,0.5441041790435371,0.2528846423714941,-0.8,0.0,0.001718282699584961,0
0.9100046157836914,0.3530897796154022,0.08241315931081772,-0.5466557145118713,0.012549719605090107,-0.6432746420904684,-0.17112040747739254,-0.2732883700923828,-0.08318307317855277,0.5428956615532057,0.2554687860908003,-0.8,0.0,0.0016257762908935547,0
0.9201087951660156,0.3581063747406006,0.0843232199549675,-0.5541834831237793,0.01197503954487652,-0.6434007867976625,-0.1733737022988099,-0.2966001972316932,-0.07951156403171519,0.5416415925710213,0.25811699904719126,-0.8,0.0,0.002260923385620117,0
0.9301791191101074,0.36301639676094055,0.08625169098377228,-0.5615869164466858,0.011353634440556894,-0.6435342814607199,-0.17403447621495707,-0.31773087098175606,-0.07554621580614891,0.5403788726048068,0.2607502138874636,-0.8,0.0,0.0023407936096191406,0
0.9404778480529785,0.3678223192691803,0.08819586783647537,-0.5688169002532959,0.010684803925014343,-0.6437773864025151,-0.17290726645879298,-0.3358757039959419,-0.07128484954679211,0.5390742729110992,0.2634367633519848,-0.8,0.0,0.005249500274658203,0
0.9501585960388184,0.3725231885910034,0.09015613049268723,-0.5758751630783081,0.009960309437392118,-0.6440580633069795,-0.1732961346256436,-0.35235273827997754,-0.0666374074943978,0.537835777634682,0.2659561548377793,-0.8,0.0,0.0018138885498046875,0
0.9602749347686768,0.3816131055355072,0.09412539750337601,-0.5894865989685059,0.008472732833728498,-0.6446686907747688,-0.19120854592058195,-0.3867835784118408,-0.05685199599206903,0.5365289749577238,0.268582685649716,-0.8,0.0,0.0017499923706054688,0
0.9702634811401367,0.38600337505340576,0.09613347053527832,-0.5960427522659302,0.007681110328518293,-0.6451581129581014,-0.18726397032407496,-0.39364430468059797,-0.05178251927818713,0.5352260954448457,0.2711697379038909,-0.8,0.0,0.0015194416046142578,0
0.9801025390625,0.39029091596603394,0.0981554463505745,-0.6024356484413147,0.006863079864173275,-0.6456258577987908,-0.18094935188443623,-0.3995877900312921,-0.04656015664944519,0.5339305190581528,0.2737118938195626,-0.8,0.0,0.0013723373413085938,0
0.990044116973877,0.3985547721385956,0.10223979502916336,-0.6147629618644714,0.005212933707183959,-0.6466011234655025,-0.19208625255097142,-0.4173967592214446,-0.03573596392037745,0.5326091795352865,0.27627425119751736,-0.8,0.0,0.0015134811401367188,0
1.0001308917999268,0.40253233909606934,0.10430312156677246,-0.6207014918327332,0.004396902144209408,-0.6472414960413141,-0.18461854756366552,-0.4169238508761663,-0.030518811292648912,0.5312559744931744,0.2788675125670031,-0.8,0.0,0.0015211105346679688,0
1.0101611614227295,0.4064096212387085,0.10637947171926498,-0.6264829039573669,0.003567026225559371,-0.6479939961237219,-0.17683563859181445,-0.4135856090419682,-0.02520658048016917,0.5298978293916379,0.2814396745415091,-0.8,0.0,0.0015010833740234375,0
1.0202744007110596,0.4101879596710205,0.10846974700689316,-0.6321070790290833,0.002742831740104219,-0.6488546800089108,-0.1691005612970118,-0.4091999172741245,-0.019925431347989676,0.5285158415087569,0.2840264165078497,-0.8,0.0,0.0016071796417236328,0
1.0299923419952393,0.41744905710220337,0.11269130557775497,-0.6428943872451782,0.0011262400215803802,-0.6504405108471238,-0.1763360193080955,-0.4078491235070204,-0.009309288897783173,0.5271759746225084,0.2865056575022705,-0.8,0.0,0.0014050006866455078,0
1.0401008129119873,0.4209344983100891,0.1148209199309349,-0.6480620503425598,0.00032724107873811486,-0.6513869350652868,-0.16685939804141067,-0.399193292689154,-0.004197973229952782,0.5257699233066747,0.2890778229925178,-0.8,0.0,0.0016341209411621094,0
1.0499978065490723,0.42432326078414917,0.1169615313410759,-0.6530808210372925,-0.0004532995656892789,-0.6523506282711645,-0.15670601621472252,-0.3889109487196135,0.000793911998392537,0.5243811287027562,0.291589492026759,-0.8,0.0,0.0014719963073730469,0
1.0601253509521484,0.4276176393032074,0.11910980194807053,-0.6579529643058777,-0.0012208512996203153,-0.6533440336928362,-0.14332558408760376,-0.3766496339260061,0.005677513349044543,0.5229475613618971,0.29415276314467076,-0.8,0.0,0.0014910697937011719,0
1.0701076984405518,0.4339296519756317,0.12343236804008484,-0.6673919558525085,-0.002673268937507282,-0.6552726353518246,-0.14374532105621754,-0.36083790121547704,0.015189749334274008,0.5215222851997848,0.2966723884017423,-0.8,0.0,0.0013654232025146484,0
1.08009672164917,0.4369504153728485,0.1256084144115448,-0.6718985438346863,-0.0033551447128737995,-0.6562484285337249,-0.13388915006850957,-0.34465199096109295,0.019560566169067355,0.5200839039384606,0.2991867859116275,-0.8,0.0,0.001428842544555664,0
1.0899560451507568,0.43988341093063354,0.1277928650379181,-0.6762682795524597,-0.003980725041512382,-0.6572636226058627,-0.12186217881620097,-0.3277121694029423,0.023554279441908337,0.5186523113922836,0.3016616977467336,-0.8,0.0,0.0013403892517089844,0
1.1001083850860596,0.44272950291633606,0.12998291850090027,-0.680503249168396,-0.004605798169911257,-0.6582571454667523,-0.10906626617395146,-0.3103913903930197,0.027539956561902862,0.517165865196472,0.304203004382903,-0.8,0.0,0.0019156932830810547,0
1.1123712062835693,0.4481712877750397,0.13437879085540771,-0.688579261302948,-0.005728585141804307,-0.6602854822065134,-0.09993291518619725,-0.2811993488015233,0.03484793659067988,0.5153538143380576,0.3072628289383778,-0.8,0.0,0.0035314559936523438,0
1.120086431503296,0.4507724940776825,0.13658231496810913,-0.6924262046813965,-0.006242803712685528,-0.6612564265595208,-0.09247818752177787,-0.262292313641647,0.03817100854522135,0.514204470068079,0.30918241049905465,-0.8,0.0,0.0025177001953125,0
1.1301758289337158,0.4532964825630188,0.13879038393497467,-0.6961498856544495,-0.00670305158247093,-0.662292616104914,-0.08085570399112497,-0.2413179566188739,0.0411103083995193,0.5126906567636029,0.3116862051283397,-0.8,0.0,0.002468585968017578,0
1.1401207447052002,0.4557427763938904,0.14100226759910583,-0.6998093724250793,-0.007159670828899324,-0.6633174967305584,-0.06864372781196054,-0.22136951669434496,0.044022317819940614,0.5111865904213098,0.31414689203211305,-0.8,0.0,0.0021703243255615234,0
1.150202989578247,0.4604077935218811,0.1454390287399292,-0.7067656517028809,-0.007922180397318944,-0.6653375910573404,-0.06799543245097468,-0.19321670274969033,0.049065325475582275,0.5096496987652751,0.3166341493718962,-0.8,0.0,0.0029404163360595703,0
1.1601448059082031,0.4626331031322479,0.14766205847263336,-0.7100678086280823,-0.008226644745528752,-0.666423523314385,-0.05731898567711012,-0.17098312581452013,0.05100876758815416,0.5081223628638979,0.3190794013370485,-0.8,0.0,0.0021016597747802734,0
1.17012357711792,0.4647899866104126,0.14988818764686584,-0.713254988193512,-0.00849161157829971,-0.6674978230205982,-0.04815182761993464,-0.1495253056055515,0.052708826930482996,0.5065775522299969,0.3215263341884529,-0.8,0.0,0.0017893314361572266,0
1.1803438663482666,0.4668784439563751,0.1521175652742386,-0.7163296937942505,-0.008739414271793866,-0.6685827734422308,-0.037883430728442885,-0.12895907438602128,0.05429055707603079,0.5049831378734906,0.32402473742515875,-0.8,0.0,0.0018260478973388672,0
1.1901183128356934,0.47085389494895935,0.15657798945903778,-0.7221523523330688,-0.009113661979409212,-0.6706284483227053,-0.038556999984359026,-0.10441647326463299,0.056821144018654055,0.50344674931971,0.3264067563630034,-0.8,0.0,0.0016617774963378906,0
1.2001681327819824,0.4727444052696228,0.15880636870861053,-0.7249056696891785,-0.009259599740237552,-0.6716800352452046,-0.02887764127742093,-0.08549715058833146,0.05774867254932154,0.5018553615070004,0.32884828740116306,-0.8,0.0,0.0016286373138427734,0
1.2100231647491455,0.4745723009109497,0.16103577613830566,-0.7276178002357483,-0.009366453566538278,-0.6726393086978161,-0.021961923122552202,-0.06732489911013528,0.058441136934590326,0.500283319702476,0.3312349619642682,-0.8,0.0,0.0014333724975585938,0
1.2201814651489258,0.4763440191745758,0.16326653957366943,-0.7302309274673462,-0.009412636176041331,-0.6735694878125212,-0.013952272417679849,-0.04979057542029319,0.05873687091658436,0.49865102240019743,0.33368721560652836,-0.8,0.0,0.0015110969543457031,0
1.230029821395874,0.47970935702323914,0.16772709786891937,-0.7351666688919067,-0.009418820265202413,-0.6754977718463475,-0.01912676584093973,-0.032316817656981515,0.05890108805944916,0.49705705277346934,0.3360569688135517,-0.8,0.0,0.0016121864318847656,0
1.2402536869049072,0.48130542039871216,0.1699540913105011,-0.7374933958053589,-0.00940704203898395,-0.6763962090684905,-0.00990641003147493,-0.018461383968288964,0.05881371364875845,0.4953903929194021,0.3385090229272483,-0.8,0.0,0.0023546218872070312,0
1.250107765197754,0.482843816280365,0.17217832803726196,-0.739730715751648,-0.009365388650590044,-0.6773267171851421,-0.00284496240410825,-0.005892294754506506,0.058545465981682636,0.49377256617781007,0.34086456678595994,-0.8,0.0,0.002393960952758789,0
1.2603483200073242,0.4843270182609558,0.17440040409564972,-0.7418797016143799,-0.009297269855923067,-0.6782736055540094,0.0045134017259826405,0.007064130349896686,0.0581038197933135,0.4920794209847872,0.3433043015216625,-0.8,0.0,0.002145528793334961,0
1.2702398300170898,0.4871353209018707,0.1788417100906372,-0.7459172010421753,-0.009041541360258623,-0.680151866409568,-0.005263141542714997,0.01408774107706569,0.05658426058690881,0.4904325401214142,0.34565289466465837,-0.8,0.0,0.0017311573028564453,0
1.280216932296753,0.49048611521720886,0.1812863051891327,-0.7499785423278809,-0.00888653362121346,-0.6800875073366826,-0.0018672675631362288,0.04685417220472441,0.05558956944552105,0.4887600535714272,0.3480138072445626,-0.8,0.0,0.0017085075378417969,0
1.290081262588501,0.4937414824962616,0.18372385203838348,-0.7539048790931702,-0.008966873479879673,-0.6800386233756384,-0.0001063977006082027,0.07763944937311279,0.05610584440127647,0.48709529790176065,0.35034007872636413,-0.8,0.0,0.0017926692962646484,0
1.3001420497894287,0.49690496921539307,0.18615391850471497,-0.7577005624771118,-0.009007559405480313,-0.6799934736731296,0.0023899240301005703,0.10727180350443069,0.05636340645338022,0.48538598256772103,0.3527044767603156,-0.8,0.0,0.0019812583923339844,0
1.3101837635040283,0.5029689073562622,0.19099244475364685,-0.7649131417274475,-0.009042257023636308,-0.679935549455704,-0.01493509937262249,0.14906263096079986,0.05668414210911021,0.48366846351986337,0.35505607641094467,-0.8,0.0,0.001958131790161133,0
1.3201510906219482,0.5058755278587341,0.19340156018733978,-0.7683368921279907,-0.009015673272934342,-0.6799535293808914,-0.013766386834878554,0.1749751735196835,0.056511297409375466,0.4819524006866933,0.3573819853774571,-0.8,0.0,0.0018815994262695312,0
1.3299314975738525,0.5086994171142578,0.19580352306365967,-0.7716426253318787,-0.009001213035842283,-0.6800084538640876,-0.012148806618062844,0.1988037645304989,0.056414284669886836,0.48025764715481484,0.359656214111923,-0.8,0.0,0.0015377998352050781,0
1.340223789215088,0.5114420056343079,0.19819611310958862,-0.7748655676841736,-0.008971022209413846,-0.6800394356060051,-0.008142925786203547,0.22188645466123097,0.05620523499044479,0.4784626060288242,0.3620407913924979,-0.8,0.0,0.001556396484375,0
1.3499736785888672,0.5166908502578735,0.20295636355876923,-0.7809740900993347,-0.00887220443709445,-0.6802368386443122,-0.025552261707736654,0.2463470133785475,0.05565809008219476,0.47675124227894716,0.3642914396269567,-0.8,0.0,0.0022804737091064453,0
1.3602409362792969,0.5191980004310608,0.20532554388046265,-0.7838633060455322,-0.008793944918782971,-0.6804075333884356,-0.022966756532157247,0.26284007122587716,0.05514429053333661,0.47493762308145904,0.3666527705905602,-0.8,0.0,0.0024170875549316406,0
1.3705050945281982,0.5216280817985535,0.20768709480762482,-0.7866442203521729,-0.008698937934473773,-0.6806777982757379,-0.02130204845069604,0.2761344597446999,0.05452638184615315,0.4731128611944788,0.36900436389340135,-0.8,0.0,0.0022554397583007812,0
1.3799850940704346,0.5239819288253784,0.21004131436347961,-0.7893193960189819,-0.008606474983022238,-0.6808892892320664,-0.021121607633558415,0.28694173332025086,0.053930242212685255,0.4714171628350292,0.3711682348808577,-0.8,0.0,0.0017848014831542969,0
1.389998197555542,0.5284640192985535,0.21473126113414764,-0.7943615913391113,-0.008358784787748801,-0.6815012889802872,-0.038958237169795164,0.28477302472765603,0.052420638766461906,0.46961536104159,0.3734453275564939,-0.8,0.0,0.001832723617553711,0
1.4000511169433594,0.5305930376052856,0.21706603467464447,-0.796768844127655,-0.008230224326744622,-0.6818858530404682,-0.036840740552864376,0.2877586848484327,0.051581078995414024,0.467795329998597,0.37572267596127823,-0.8,0.0,0.0022356510162353516,0
1.4099829196929932,0.5326494574546814,0.21939416229724884,-0.7990753650665283,-0.008083041296650483,-0.6823150828829987,-0.03593670846449636,0.28902374565796884,0.05062536954351412,0.4659863814823464,0.3779638769419495,-0.8,0.0,0.002686738967895508,0
1.420175552368164,0.5346341133117676,0.22171588242053986,-0.8012831807136536,-0.007950423792924037,-0.6827531453036663,-0.03332280640313916,0.28752096264612365,0.049753897398234485,0.4641187624274188,0.3802548807876648,-0.8,0.0,0.0021581649780273438,0
1.4300038814544678,0.5383873581886292,0.22633656859397888,-0.8054101467132568,-0.007662202980465591,-0.6836780421976991,-0.04774767462495395,0.2613865169735303,0.04796153045408045,0.46230722818322734,0.3824552611346082,-0.8,0.0,0.0016591548919677734,0
1.4400904178619385,0.540156900882721,0.22863627970218658,-0.807331383228302,-0.007513362242380113,-0.6842476271760835,-0.04411609380840392,0.25219714433083046,0.04697879234333164,0.4604372555855165,0.38470447575883193,-0.8,0.0,0.0021882057189941406,0
1.4502735137939453,0.5418535470962524,0.23092813789844513,-0.8091610074043274,-0.007354288768471534,-0.6847589569994212,-0.040155511142344245,0.2407801465693896,0.04592719585898996,0.4585382812859491,0.38696594759142283,-0.8,0.0,0.0020880699157714844,0
1.4601812362670898,0.5434775948524475,0.23321445286273956,-0.8109011650085449,-0.007177617746168959,-0.6853309892781495,-0.03854101419053775,0.2273590118140183,0.04477148437726772,0.4566799982701135,0.3891572679264889,-0.8,0.0,0.0022356510162353516,0
1.4704630374908447,0.5465102791786194,0.23777180910110474,-0.814169704914093,-0.006818828149272515,-0.6863820676026771,-0.05047391621490113,0.18139406118929566,0.042517363689916945,0.45474048137211537,0.3914218882503338,-0.8,0.0,0.002277851104736328,0
1.4800984859466553,0.5479175448417664,0.24004077911376953,-0.8157032132148743,-0.006628265369897827,-0.6869022724503087,-0.04732883042628143,0.16350598248832704,0.041267882929406474,0.452912695781585,0.39353537325106797,-0.8,0.0,0.0018661022186279297,0
1.4899687767028809,0.5492520928382874,0.24230365455150604,-0.8171530961990356,-0.006443171738254571,-0.6875109938095523,-0.04412981897770276,0.14444908713613383,0.04005211243867891,0.4510301776592016,0.39569151979883144,-0.8,0.0,0.0017473697662353516,0
1.5003225803375244,0.5505136847496033,0.244559645652771,-0.8185206651687622,-0.006251940817745546,-0.6880892779377172,-0.03811900122246154,0.12491623463559177,0.038781838905658186,0.44904441090994224,0.3979436103652663,-0.8,0.0,0.0018715858459472656,0
1.5099592208862305,0.552808403968811,0.24904732406139374,-0.821017861366272,-0.005830155754407622,-0.6892333173619974,-0.046496605885595045,0.06448026784004328,0.036121418994652814,0.4471860848989041,0.40003075565859947,-0.8,0.0,0.001573801040649414,0
1.520108938217163,0.5538451671600342,0.25128018856048584,-0.822150468826294,-0.005608257418251811,-0.6898024517205471,-0.04169833159628564,0.04192614535809278,0.034663444057125174,0.44521832874507655,0.40221964117810177,-0.8,0.0,0.0015518665313720703,0
1.5300350189208984,0.5548074245452881,0.2535063624382019,-0.8232100605964661,-0.0054052640046340795,-0.6903724465602753,-0.03649759144612707,0.018200818001614053,0.033325290497028995,0.4432835668269868,0.4043509359221818,-0.8,0.0,0.0016448497772216797,0
1.5401182174682617,0.5556952357292175,0.25572529435157776,-0.8241980075836182,-0.005221273693134391,-0.6909420706739364,-0.030707987833059884,-0.005052642234877914,0.032105364852649,0.44130773412491,0.40650643758929295,-0.8,0.0,0.0016295909881591797,0
1.5502324104309082,0.5572444796562195,0.26013854146003723,-0.8260788917541504,-0.004789666887946335,-0.6920159539128743,-0.036367285347185876,-0.06883002391251349,0.02938801434748258,0.43931529846333633,0.4086588657255214,-0.8,0.0,0.0016009807586669922,0
1.560157299041748,0.5579057335853577,0.26233455538749695,-0.8269147872924805,-0.0045697509776219105,-0.6926254496186006,-0.031085098306963856,-0.09149982342939326,0.027947190849201022,0.43734994912941055,0.41076151474608963,-0.8,0.0,0.001771688461303711,0
1.570150375366211,0.5584923028945923,0.26452431082725525,-0.8276835083961487,-0.004355927237984184,-0.6931567774991862,-0.025536237512293173,-0.11300342452441413,0.02654489990643999,0.4353609296824492,0.4128690602431157,-0.8,0.0,0.0016942024230957031,0
1.5802690982818604,0.5590032339096069,0.2667063772678375,-0.8283889889717102,-0.004110644605021542,-0.6937039488985245,-0.018838624426289977,-0.13327994848941688,0.024935773685025895,0.4333365534854555,0.41499329080522124,-0.8,0.0,0.0017113685607910156,0
1.590043306350708,0.5598036646842957,0.27104634046554565,-0.8296091556549072,-0.0036279679347353436,-0.6948306412993122,-0.02455989394603572,-0.1901926945087162,0.021918004460675797,0.43137126004347875,0.4170357730561029,-0.8,0.0,0.0016150474548339844,0
1.6001551151275635,0.5600922107696533,0.27320459485054016,-0.830127477645874,-0.003391981728236244,-0.6954147410788261,-0.019082079961187187,-0.20813838806053553,0.020382826103838965,0.42932795457305734,0.41913900727815206,-0.8,0.0,0.0016775131225585938,0
1.6109404563903809,0.5603057146072388,0.2753559947013855,-0.8305850028991699,-0.0031563877514962967,-0.6960906820446139,-0.012400754662064466,-0.2247873737881137,0.018843580747634533,0.42713724685309484,0.42137129986599503,-0.8,0.0,0.0013484954833984375,0
1.6199641227722168,0.5604442358016968,0.2774989902973175,-0.8310317993164062,-0.0029170030393198087,-0.6966862698549827,-0.007061915691371768,-0.24302637964045148,0.017295137674323377,0.4252954485226518,0.4232301755143606,-0.8,0.0,0.0012996196746826172,0
1.6300668716430664,0.5604442358016968,0.2774989902973175,-0.8310317993164062,-0.0029170030393198087,-0.696746932234743,0.010363634453996365,-0.2255953583507304,0.017161404462673585,0.4232238044214897,0.42530178858194406,-0.8,0.0,0.001463174819946289,0
1.6400103569030762,0.5604169368743896,0.2838710844516754,-0.8320335745811462,-0.002249331429214046,-0.6983060983575882,-0.005755300549227842,-0.2989095465088851,0.0130935099112715,0.4211749649136229,0.42733084247454983,-0.8,0.0,0.006919145584106445,0
1.650669813156128,0.5602625608444214,0.28597715497016907,-0.8322604894638062,-0.0020253435973565793,-0.6988515824727758,0.0018111443327581168,-0.3068532460769321,0.011633805231865624,0.4189677983607727,0.42949503365781416,-0.8,0.0,0.001420736312866211,0
1.660123348236084,0.560038149356842,0.2880737781524658,-0.8324368000030518,-0.0018112838861233532,-0.6993771680318089,0.006716614692595776,-0.31549824961102885,0.01025891380019714,0.4170010256889746,0.4314048499661809,-0.8,0.0,0.0016961097717285156,0
1.6700506210327148,0.559378981590271,0.2922368049621582,-0.8326464295387268,-0.001386362704859109,-0.7003317767010886,0.002782654791391146,-0.34647891760291405,0.007642318508481267,0.4149263234964763,0.4334006761297189,-0.8,0.0,0.0015439987182617188,0
1.680011510848999,0.5589436888694763,0.29430341720581055,-0.8326823711395264,-0.0011961594575380736,-0.7008451765262695,0.008240845225539951,-0.35227107970291655,0.006422469390671692,0.41283499496418496,0.43539323252999856,-0.8,0.0,0.0015511512756347656,0
1.6900036334991455,0.5595371127128601,0.29674720764160156,-0.8348658084869385,-0.0009936081205925184,-0.7003429238318476,0.009910413015810207,-0.3432251968477626,0.00513960762786771,0.4107274954496792,0.43738189775256336,-0.8,0.0,0.001653909683227539,0
1.7001447677612305,0.560039758682251,0.29917213320732117,-0.8369502425193787,-0.000928980438698434,-0.6998843541644411,0.012142729502347634,-0.33174227480149343,0.004736342106953443,0.4085787724164444,0.43938978906054627,-0.8,0.0,0.002724885940551758,0
1.710123062133789,0.5607817769050598,0.30397069454193115,-0.840836226940155,-0.00084940398675348,-0.6989127222665179,-0.004643576258444161,-0.3236146964391806,0.0043868444475645835,0.4064549714030932,0.44135513616781513,-0.8,0.0,0.0018248558044433594,0
1.7200508117675781,0.5610263347625732,0.30634620785713196,-0.842644214630127,-0.0007899561862286519,-0.6984805197251266,-0.0036369417623743324,-0.3075876664573399,0.00402312886011342,0.4043325464628553,0.44330034048132977,-0.8,0.0,0.0024144649505615234,0
1.7304539680480957,0.5611897706985474,0.30870485305786133,-0.8443648219108582,-0.0007458208442415247,-0.6980914572187156,-0.0022957456508895914,-0.2901783868340114,0.0037563820499346492,0.4020984979903685,0.4453277421336892,-0.8,0.0,0.0018591880798339844,0
1.7415404319763184,0.5612733364105225,0.31104832887649536,-0.8460007309913635,-0.0007192989331818335,-0.6977347305481555,-0.0011253278060949954,-0.26997801592025894,0.0036018296320351347,0.39970652336236884,0.44747591575588525,-0.8,0.0,0.0037140846252441406,0
1.7500641345977783,0.5612788796424866,0.313377320766449,-0.8475539088249207,-0.0006989873527371511,-0.6973870088588956,-0.0037271405145546444,-0.2539365677070511,0.0035117230119402366,0.3978596735049296,0.44911878183677734,-0.8,0.0,0.0022644996643066406,0
1.7602088451385498,0.5610673427581787,0.31798574328422546,-0.8504667282104492,-0.0006993800453331291,-0.6967468836471513,-0.016849189992387943,-0.22975886150254882,0.0036396437018023655,0.39565279806113957,0.45106414553408153,-0.8,0.0,0.0019276142120361328,0
1.7704033851623535,0.5608552694320679,0.3202659785747528,-0.8518293499946594,-0.0007023463634271243,-0.6964733598492806,-0.01672609315509905,-0.20811863099502975,0.00367879994214041,0.39342550076112187,0.4530081404907206,-0.8,0.0,0.0018267631530761719,0
1.7801058292388916,0.5605738162994385,0.3225318491458893,-0.8531158566474915,-0.000710303899900408,-0.6962675859344409,-0.016293516130225387,-0.18710621797908755,0.0037501318989157295,0.39129684448292484,0.4548480839771733,-0.8,0.0,0.0015916824340820312,0
1.7903404235839844,0.5602258443832397,0.32478129863739014,-0.8543263077735901,-0.0007160806707789133,-0.6961447991833398,-0.01379610907540859,-0.16452028134366223,0.003798175146676038,0.38904211298817887,0.4567781018412475,-0.8,0.0,0.0016734600067138672,0
1.8000679016113281,0.5593436360359192,0.32923436164855957,-0.8565263748168945,-0.0007296672588865996,-0.6959162352870808,-0.027770229135765257,-0.13790630451107727,0.003992192439294901,0.3868902772899093,0.4586021296707387,-0.8,0.0,0.0017123222351074219,0
1.8099579811096191,0.5588138103485107,0.331438809633255,-0.8575182557106018,-0.0007421401081514557,-0.695912140206799,-0.02555140649888621,-0.11541068519525638,0.004081380996163463,0.38469370497400085,0.46044625457633637,-0.8,0.0,0.0016129016876220703,0
1.8205220699310303,0.5582267642021179,0.33362725377082825,-0.8584397435188293,-0.0007678576333910753,-0.6959352717092969,-0.02223132080626251,-0.0923257357212548,0.004251140402540208,0.38233772850268516,0.46240443484400856,-0.8,0.0,0.0023283958435058594,0
1.830092191696167,0.5575838685035706,0.33580172061920166,-0.8592899441719055,-0.0007877946353856384,-0.6961007259424723,-0.022025119771027016,-0.07240063825255637,0.0043943777790376405,0.38019481758107676,0.4641679660257607,-0.8,0.0,0.0028192996978759766,0
1.8400812149047852,0.556887149810791,0.3379642367362976,-0.8601180911064148,-0.000805325361658712,-0.6961784360895737,-0.02091536654647811,-0.05151017757698766,0.004517004302224557,0.37794943227357913,0.4659980972537111,-0.8,0.0,0.002097606658935547,0
1.8499727249145508,0.5553468465805054,0.3422476649284363,-0.8615722060203552,-0.0009218313247481196,-0.6964315699929907,-0.030688404221416585,-0.02924059138141588,0.005329174069519103,0.37571728539359805,0.4677996595300873,-0.8,0.0,0.002089262008666992,0
1.8601210117340088,0.5544992089271545,0.34436729550361633,-0.8621988892555237,-0.0009857465578802084,-0.6966489806834343,-0.02800348394570783,-0.012954367888262692,0.005743215396897805,0.37341826935922234,0.4696368768620744,-0.8,0.0,0.001936197280883789,0
1.8702847957611084,0.552659809589386,0.34856417775154114,-0.863257110118866,-0.0011078449433928723,-0.6971848064872335,-0.035250467854494136,0.0002047878635926663,0.006574037333235592,0.3711067383342566,0.47146557537418315,-0.8,0.0,0.0018138885498046875,0
1.8801147937774658,0.5516738891601562,0.3506394326686859,-0.8636883497238159,-0.0011598954833127817,-0.6975348297939175,-0.0316557106852876,0.014514417301120157,0.006906368538579368,0.3688626000606009,0.47322339574088385,-0.8,0.0,0.0018510818481445312,0
1.890047311782837,0.5506449341773987,0.35270074009895325,-0.8640569448471069,-0.0012057853588190197,-0.6978443230342937,-0.028340623957994245,0.027406479358114372,0.007199609790278907,0.3665866003308125,0.4749886992949381,-0.8,0.0,0.0018215179443359375,0
1.9001576900482178,0.549572765827179,0.3547493517398834,-0.8643659949302673,-0.0012681115662797361,-0.6981699064217004,-0.02522578808011717,0.0385216521067059,0.007598166283696863,0.3642611683613723,0.4767743714001498,-0.8,0.0,0.0016505718231201172,0
1.90995192527771,0.5473056435585022,0.35880741477012634,-0.8648905754089355,-0.0013680015930929673,-0.6989360166319044,-0.03195025889548038,0.03976796214152092,0.008270525239861317,0.36200015585073436,0.478493351222401,-0.8,0.0,0.0016129016876220703,0
1.9201164245605469,0.546117901802063,0.3608151972293854,-0.8650633096694946,-0.0013778679788932172,-0.6993697066087536,-0.02641821575447164,0.04978310000220192,0.00832496456912316,0.35964509037461645,0.4802659773182293,-0.8,0.0,0.0015532970428466797,0
1.9301707744598389,0.5448975563049316,0.3628087341785431,-0.8651779890060425,-0.0014075534114239437,-0.6998232734784131,-0.02189450683581671,0.05827894282230002,0.008508104264438623,0.3573070063894345,0.4820079907895932,-0.8,0.0,0.0017004013061523438,0
1.940087080001831,0.543641984462738,0.3647889494895935,-0.8652368783950806,-0.0014274723504947933,-0.7002280320136012,-0.017308423562376583,0.06458291091303099,0.00862843216171071,0.3549927589371715,0.483714937853045,-0.8,0.0,0.0014691352844238281,0
1.950287103652954,0.543641984462738,0.3647889494895935,-0.8652368783950806,-0.0014274723504947933,-0.700250556169402,-0.002744001496581118,0.08455055779957511,0.008588784879074447,0.35260379076420706,0.4854591298335126,-0.8,0.0,0.0024881362915039062,0
1.9601244926452637,0.5396720767021179,0.3706510365009308,-0.8651033043861389,-0.0015070447290575838,-0.7014834939692866,-0.016995721218604605,0.05863354352353347,0.009151250214559674,0.3502916373052986,0.4871301354196567,-0.8,0.0,0.002302408218383789,0
1.9702112674713135,0.5382835865020752,0.3725779354572296,-0.8649579286575317,-0.001526692387953344,-0.701961190920335,-0.011670913194730263,0.06172353523661881,0.009267024709303804,0.3479126468202391,0.488832067465439,-0.8,0.0,0.002000093460083008,0
1.9803342819213867,0.5368638038635254,0.37449130415916443,-0.8647982478141785,-0.0015304534683975237,-0.7024270051895919,-0.0060456476684828415,0.0638341990992986,0.00928114514803081,0.3455167956970296,0.49052843331580387,-0.8,0.0,0.0018219947814941406,0
1.98996901512146,0.5339327454566956,0.3782765865325928,-0.8643373250961304,-0.0015249198548502403,-0.7033093798544982,-0.009395995288421046,0.04400124236572424,0.009265938019534205,0.3432288247869908,0.49213206950506805,-0.8,0.0,0.0017199516296386719,0
2.0001580715179443,0.5324207544326782,0.3801489770412445,-0.8640397787094116,-0.001512308397072824,-0.70375013198934,-0.003961176916571771,0.04329257611077536,0.009176096549945329,0.3408011217431991,0.4938163579900702,-0.8,0.0,0.0017838478088378906,0
2.0100557804107666,0.5308791995048523,0.3820086121559143,-0.8636999130249023,-0.001477107249127076,-0.7041983207488792,0.00019373690840375352,0.04135422948080918,0.008944233926407339,0.3384349224379979,0.4954410189663208,-0.8,0.0,0.0014574527740478516,0
2.019970178604126,0.5293086767196655,0.3838561773300171,-0.863318920135498,-0.0014570709935491806,-0.7046130139097039,0.003834098404473952,0.0391811760785307,0.008809064190371047,0.3360569688135518,0.4970570527734693,-0.8,0.0,0.0013725757598876953,0
2.030015230178833,0.5277102589607239,0.38569214940071106,-0.8628997802734375,-0.0014467234595739694,-0.7050234580721185,0.008390444047094152,0.03725310549378268,0.008734846217804208,0.33363980875782717,0.49868274284562975,-0.8,0.0,0.0018873214721679688,0
2.040053606033325,0.5244314670562744,0.38932254910469055,-0.861947774887085,-0.0014316409537111136,-0.705920181813215,0.004941884430816985,0.011916466480161704,0.008662064141548527,0.3312163987216578,0.5002956098326825,-0.8,0.0,0.0016872882843017578,0
2.050062894821167,0.5227519869804382,0.39111772179603577,-0.8614534735679626,-0.001445861453625999,-0.7062906350956883,0.008538320433768048,0.007888867117785595,0.008748736225251914,0.3287922478247873,0.5018920778118774,-0.8,0.0,0.0021049976348876953,0
2.0602290630340576,0.5210437774658203,0.39289936423301697,-0.8609247207641602,-0.0014200212060352865,-0.7067196010774431,0.014465321434105604,0.0034471443345626463,0.008576529201467741,0.3263222258822894,0.5035015440842541,-0.8,0.0,0.002866506576538086,0
2.0703048706054688,0.517546534538269,0.3964202404022217,-0.8597608804702759,-0.0013542693679108025,-0.7076874978287883,0.010757501051097894,-0.023064611569207583,0.008181930449973764,0.32386638463922796,0.5050847106186404,-0.8,0.0,0.002593517303466797,0
2.0800974369049072,0.5167126655578613,0.3985840976238251,-0.8610128164291382,-0.0013107546147622675,-0.7072879699613054,0.009677988140309587,-0.017214065388767675,0.00789779683124648,0.3214722192700212,0.5066118950810446,-0.8,0.0,0.001959562301635742,0
2.0900285243988037,0.5158321261405945,0.40072768926620483,-0.8621858358383179,-0.0013763996818135578,-0.7068267779783048,0.008322570816190115,-0.011575107986143729,0.008312485788990154,0.319036832601124,0.5081490917475326,-0.8,0.0,0.0025968551635742188,0
2.100229263305664,0.5149072408676147,0.40285128355026245,-0.8632834553718567,-0.001463028801885608,-0.7064153566924448,0.007492689729608111,-0.0046316876556222,0.008860615587163879,0.31652766782097025,0.5097158379958558,-0.8,0.0,0.002081632614135742,0
2.109976291656494,0.5129256844520569,0.40703701972961426,-0.8652616143226624,-0.0016242521856729899,-0.7055778332398022,-0.007340387055286345,-0.014772817720465313,0.009925758624555971,0.3141229171361171,0.5112013232865268,-0.8,0.0,0.001482248306274414,0
2.120014190673828,0.5118685960769653,0.4091000556945801,-0.8661648631095886,-0.001696714501921598,-0.7052525791573548,-0.008276316268138654,-0.009993653689968999,0.010387997921775301,0.31163911797247695,0.5127192800639904,-0.8,0.0,0.001474618911743164,0
2.130115270614624,0.5107687711715698,0.4111437201499939,-0.8669999241828918,-0.0017799039725988597,-0.7049215180529096,-0.009105093397586082,-0.0037937580445173012,0.01091777532884992,0.3091322807477678,0.514234608908894,-0.8,0.0,0.0023784637451171875,0
2.1402294635772705,0.5096276998519897,0.4131677448749542,-0.8677698373794556,-0.0018612288606469757,-0.7045991154734048,-0.009361552524107213,0.002091092231965077,0.011435886836653537,0.3066148068259567,0.5157396244570328,-0.8,0.0,0.0028281211853027344,0
2.1499838829040527,0.5072237849235535,0.41715919971466064,-0.8691201210021973,-0.0019961377719267606,-0.7040871000734139,-0.023986414920862117,-0.007793058204703783,0.012337790648079678,0.3041799409938818,0.5171794306591848,-0.8,0.0,0.0015988349914550781,0
2.160221576690674,0.5059615969657898,0.4191265106201172,-0.8697026968002319,-0.002061600812411669,-0.7038644075067102,-0.02388515758199511,-0.002938803709208503,0.012755767795122908,0.30161717109448843,0.5186782066955947,-0.8,0.0,0.0016934871673583984,0
2.1700785160064697,0.5046601891517639,0.42107540369033813,-0.8702265620231628,-0.002118104706307002,-0.7036912909241738,-0.024180172360555703,0.0019384262725277662,0.013117015888715368,0.2991427357057076,0.5201092420583441,-0.8,0.0,0.0015354156494140625,0
2.180006742477417,0.5033208131790161,0.42300504446029663,-0.870691180229187,-0.0021446320728917153,-0.7035930933674523,-0.023069450372590533,0.006736923020310895,0.013284480340243985,0.2966435416078195,0.5215386938879701,-0.8,0.0,0.0014200210571289062,0
2.1899943351745605,0.500529408454895,0.4268096089363098,-0.8715054392814636,-0.0022847140606960816,-0.7033984307354308,-0.03353231853869787,-0.006178466949085093,0.014213195454253409,0.2941225117406373,0.5229645763217415,-0.8,0.0,0.0014719963073730469,0
2.200096607208252,0.4990781247615814,0.42868468165397644,-0.871856153011322,-0.0023559513113513815,-0.7033711908372114,-0.0320130334424777,-0.001854757333313085,0.014665219165458689,0.2915655630371455,0.5243944340387608,-0.8,0.0,0.0016131401062011719,0
2.2100417613983154,0.49759241938591003,0.43054184317588806,-0.8721500635147095,-0.002414604047070551,-0.7034010895692806,-0.03074458917069687,0.002493289533615959,0.015036822316096472,0.2890415918724009,0.5257898422068159,-0.8,0.0,0.001483917236328125,0
2.2202229499816895,0.49607419967651367,0.43238258361816406,-0.872387707233429,-0.0024628795333368875,-0.7034880297277997,-0.030085466196276663,0.006523065352313302,0.015342471776871914,0.2864508004773894,0.5272057842113105,-0.8,0.0,0.0015985965728759766,0
2.2300631999969482,0.4929374158382416,0.4360182285308838,-0.8726971745491028,-0.0025570392299283707,-0.7037113692910103,-0.03929461745682607,-0.008528915300222812,0.015972841438677263,0.2839401748864637,0.52856217901534,-0.8,0.0,0.0015742778778076172,0
2.240142583847046,0.49131906032562256,0.43781158328056335,-0.872771143913269,-0.0025643787237615593,-0.7039312567223841,-0.03624967446652779,-0.006664819708740837,0.016014275380022928,0.2813618789281006,0.5299391409266245,-0.8,0.0,0.0016813278198242188,0
2.2500314712524414,0.48966771364212036,0.4395877718925476,-0.8728458285331726,-0.0025828605448278805,-0.7041170903156369,-0.033904606087489,-0.004413624835463809,0.01612745299068934,0.278825822125456,0.5312778566024219,-0.8,0.0,0.0021276473999023438,0
2.260052442550659,0.48798486590385437,0.44134730100631714,-0.8728682994842529,-0.002616028521352843,-0.7042805695910935,-0.03136718098552544,-0.0022822440198689694,0.016334024653060542,0.276249394379173,0.5326220724914995,-0.8,0.0,0.002097606658935547,0
2.2705459594726562,0.48452767729759216,0.4448211193084717,-0.872760534286499,-0.002645953444658094,-0.7047536556389012,-0.03678682892760677,-0.018842488681345068,0.016546099313838086,0.2735445286263966,0.5340162833271683,-0.8,0.0,0.005539417266845703,0
2.280107021331787,0.48275402188301086,0.4465343654155731,-0.8726311326026917,-0.0026481316074016313,-0.7050128169111927,-0.03372580740627822,-0.01803069798268523,0.016553889662591612,0.2710738895621215,0.5352746457638945,-0.8,0.0,0.0015170574188232422,0
2.289933204650879,0.4809483587741852,0.4482315182685852,-0.8724535703659058,-0.002670295405263139,-0.7053047609846653,-0.029427187994114572,-0.0180108234451932,0.016687953420147256,0.26852871036146425,0.5365559912177003,-0.8,0.0,0.0014462471008300781,0
2.300286054611206,0.4791122376918793,0.44991180300712585,-0.8722281455993652,-0.002665408922168553,-0.7056162452619874,-0.024664161162039035,-0.01663710842365381,0.016647276912479,0.2658405627231066,0.5378929216963745,-0.8,0.0,0.0015406608581542969,0
2.3100154399871826,0.47535470128059387,0.4532235562801361,-0.871688187122345,-0.0026368776953273913,-0.706198557054354,-0.026909203846124947,-0.03669199962425131,0.016483549761202372,0.26330823142963555,0.5391370653752137,-0.8,0.0,0.0017063617706298828,0
2.3201019763946533,0.47343528270721436,0.4548555016517639,-0.8713743686676025,-0.0026481530070448017,-0.7065356710777555,-0.022202343026157385,-0.03426875896112967,0.016545506611063847,0.26067679580940784,0.5404142930442719,-0.8,0.0,0.002562999725341797,0
2.3300817012786865,0.4714897572994232,0.45647141337394714,-0.8710169792175293,-0.0026272473044757164,-0.7068492590983427,-0.017400796479151576,-0.03286539033956151,0.01640315814221433,0.25806712840922036,0.5416653553944714,-0.8,0.0,0.0021648406982421875,0
2.3401389122009277,0.46951770782470703,0.4580707252025604,-0.8706181049346924,-0.0026106010452553747,-0.7071385234276543,-0.012193708032415504,-0.0316822782063659,0.016287546754984252,0.25543112468198653,0.542913382174077,-0.8,0.0,0.0018548965454101562,0
