time,x,y,z,yaw,throttle,roll_rate,pitch_rate,yaw_rate,x_ref,y_ref,z_ref,yaw_ref,mpc_time,metadata
1.6689300537109375e-06,0.08176453411579132,-0.09698445349931717,1.3368033170700073,-0.2227827828640142,-0.9750915857768673,0.5267892229300366,-0.6309215537488659,0.7999999999999873,0.5999999999998048,4.839783134855013e-07,-0.8,0.0,0.026021242141723633,Sim
0.027010679244995117,0.08176453411579132,-0.09698445349931717,1.3368033170700073,-0.2227827828640142,-0.975091585776867,0.5472022820612787,-0.6259342802273584,0.7999999999999053,0.5999488719616765,0.007832689953770301,-0.8,0.0,0.02865290641784668,Horizon:3.0
0.05666637420654297,0.08058999478816986,-0.09578491747379303,1.3298834562301636,-0.2229122243281219,-0.9750915857768673,0.5601014566063685,-0.6358513017187454,0.7999999999999662,0.5997749816220195,0.01643080704975328,-0.8,0.0,0.027553081512451172,Num Steps:20
0.08509635925292969,0.08058999478816986,-0.09578491747379303,1.3298834562301636,-0.2229122243281219,-0.9750915857768673,0.5770047364425033,-0.6293130025830623,0.799999999999989,0.5994925946702541,0.024670406067319867,-0.8,0.0,0.027927875518798828,No Pyjoules
0.11420226097106934,0.080906942486763,-0.09522752463817596,1.3290289640426636,-0.22307958561759253,-0.9750915857768673,0.5918805561725513,-0.6209936326235524,0.7999999999999979,0.5990862372993552,0.03310106159174804,-0.8,0.0,0.02825164794921875,0
0.1434319019317627,0.080906942486763,-0.09522752463817596,1.3290289640426636,-0.22307958561759253,-0.9750915857768673,0.6091783316951588,-0.6130659225950563,0.7999999999999553,0.59855884110314,0.04156096410414555,-0.8,0.0,0.028064727783203125,0
0.17263150215148926,0.08254202455282211,-0.09503059089183807,1.3329427242279053,-0.2233016032503707,-0.9750915857768673,0.6256718724734728,-0.5914146323930192,0.7999999999999907,0.5979127117888092,0.05000389066215075,-0.8,0.0,0.027982473373413086,0
0.2015831470489502,0.08254202455282211,-0.09503059089183807,1.3329427242279053,-0.2233016032503707,-0.9750915857768673,0.6426748412152555,-0.5823603865549837,0.7999999999999994,0.5971544962919553,0.05836529412502927,-0.8,0.0,0.02777266502380371,0
0.23033642768859863,0.0845474824309349,-0.09516430646181107,1.3386831283569336,-0.22344645077725445,-0.9750915857768673,0.6590264163279529,-0.5536276283648472,0.8,0.5962857515193106,0.06665810179603723,-0.8,0.0,0.02792954444885254,0
0.2591679096221924,0.0845474824309349,-0.09516430646181107,1.3386831283569336,-0.22344645077725445,-0.9750915857768382,0.6758067075976639,-0.5434345546078381,0.799999999986393,0.595299015623887,0.07496053626563261,-0.8,0.0,0.026530742645263672,0
0.28678083419799805,0.08813609182834625,-0.09566966444253922,1.3493456840515137,-0.22363387269278873,-0.9750915857768557,0.69318811777567,-0.4944895488857922,0.7999999999945598,0.5942456123357944,0.08289844521857288,-0.8,0.0,0.024852514266967773,0
0.31255054473876953,0.08813609182834625,-0.09566966444253922,1.3493456840515137,-0.22363387269278873,-0.9750915857768662,0.707949268450562,-0.48388382010453557,0.7999999999994951,0.5931670416946656,0.09029319269578884,-0.8,0.0,0.02475905418395996,0
0.33828210830688477,0.08771407604217529,-0.09516508877277374,1.3468660116195679,-0.2237711019996542,-0.9750915857768673,0.7210163192769,-0.48374109855440184,0.79999999999999,0.5919982557595129,0.09766301847523598,-0.8,0.0,0.025823354721069336,0
0.36516451835632324,0.08771407604217529,-0.09516508877277374,1.3468660116195679,-0.2237711019996542,-0.9750915857768673,0.736336094269042,-0.4717513229706898,0.8,0.5906794014504848,0.10534630844076577,-0.8,0.0,0.02698040008544922,0
0.39324450492858887,0.08436615020036697,-0.09376181662082672,1.334784746170044,-0.2238940148845112,-0.9750915857767675,0.7485024099649158,-0.5003974458858595,0.7999999999927085,0.5891953217272692,0.11335286875372741,-0.8,0.0,0.025156259536743164,0
0.41931939125061035,0.08436615020036697,-0.09376181662082672,1.334784746170044,-0.2238940148845112,-0.9750915857766529,0.7633683075858394,-0.4882442806558336,0.79999999998381,0.5877200339175971,0.12076904293691532,-0.8,0.0,0.026548147201538086,0
0.4470376968383789,0.08261086046695709,-0.09284303337335587,1.3285638093948364,-0.22403751034498057,-0.9750915857765742,0.7778570793526751,-0.491231787816299,0.7999999999713175,0.5860494156665352,0.12863157620472723,-0.8,0.0,0.027021169662475586,0
0.47503089904785156,0.08261086046695709,-0.09284303337335587,1.3285638093948364,-0.22403751034498057,-0.9750915857768668,0.7931458761871591,-0.4771479943531745,0.7999999999998185,0.5842554799975336,0.1365486510107352,-0.8,0.0,0.02729010581970215,0
0.5034196376800537,0.08216361701488495,-0.09241259843111038,1.3271265029907227,-0.2241525465371584,-0.9750915857768673,0.7999999957146177,-0.46720670528089514,0.799999999999992,0.5823269723277618,0.1445520574034912,-0.8,0.0,0.02702045440673828,0
0.5314619541168213,0.08234240114688873,-0.09229550510644913,1.327859878540039,-0.22426379801847285,-0.9750915857768673,0.7999999999830525,-0.4487231489596864,0.7999999999999909,0.5803143658892009,0.1524310885043289,-0.8,0.0,0.025486230850219727,0
0.5579473972320557,0.08234240114688873,-0.09229550510644913,1.327859878540039,-0.22426379801847285,-0.9750915857768673,0.7999999999999999,-0.43228905531729545,0.8,0.5783156033351818,0.15984699853004636,-0.8,0.0,0.025545597076416016,0
0.5844666957855225,0.08346133679151535,-0.09235846251249313,1.331985354423523,-0.2244272313562935,-0.9750915857768648,0.7999999999973757,-0.405054068767378,0.7999999999989058,0.5762193395173626,0.16724614424905107,-0.8,0.0,0.026793718338012695,0
0.6122252941131592,0.08346133679151535,-0.09235846251249313,1.331985354423523,-0.2244272313562935,-0.9750915857699044,0.7999999999961775,-0.3899040792439604,0.7999999993783233,0.5739237172962646,0.17496161500408422,-0.8,0.0,0.025963783264160156,0
0.6392967700958252,0.08517201244831085,-0.09261080622673035,1.3379396200180054,-0.2245665755934427,-0.9750915857768673,0.7999999999999995,-0.355680772296864,0.7999999999999998,0.571585416726617,0.18245577926023498,-0.8,0.0,0.027037858963012695,0
0.667396068572998,0.08517201244831085,-0.09261080622673035,1.3379396200180054,-0.2245665755934427,-0.9750915857768673,0.7999999999999927,-0.34011191774037725,0.7999999999999979,0.5690548476929039,0.1902014203869307,-0.8,0.0,0.026937484741210938,0
0.6954820156097412,0.08845106512308121,-0.09318207949399948,1.3488942384719849,-0.22477867944570376,-0.975091585776762,0.7999999997969298,-0.28477275953359804,0.7999999999496755,0.5664205987747707,0.19790832545304957,-0.8,0.0,0.026579618453979492,0
0.7229499816894531,0.08845106512308121,-0.09318207949399948,1.3488942384719849,-0.22477867944570376,-0.9750915857766301,0.7999999993752976,-0.2683533022040683,0.7999999998854332,0.5637433558600143,0.20541039098275718,-0.8,0.0,0.026920318603515625,0
0.7509942054748535,0.08688484877347946,-0.09237577766180038,1.3424988985061646,-0.22487879509455666,-0.9750915857768657,0.7999999999914507,-0.27857737832021434,0.7999999999992222,0.5609074437201835,0.2130324847981854,-0.8,0.0,0.025502443313598633,0
0.7774145603179932,0.08688484877347946,-0.09237577766180038,1.3424988985061646,-0.22487879509455666,-0.975091585776867,0.7999999999993086,-0.2603727549763484,0.7999999999999086,0.5581414609147562,0.22017745027123373,-0.8,0.0,0.028464317321777344,0
0.806990385055542,0.08346039056777954,-0.09090578556060791,1.3298510313034058,-0.22510146585484533,-0.9750915857766195,0.7999999995029561,-0.27675328100929936,0.7999999998837201,0.5549371860989885,0.2281331179038604,-0.8,0.0,0.026812314987182617,0
0.8347527980804443,0.08346039056777954,-0.09090578556060791,1.3298510313034058,-0.22510146585484533,-0.9750915857768673,0.7999999999999865,-0.254973224589221,0.7999999999999982,0.5518261890978424,0.23555860635042014,-0.8,0.0,0.02523517608642578,0
0.8610258102416992,0.08218546956777573,-0.09019318968057632,1.3252326250076294,-0.22515382285311378,-0.9750915857768159,0.7999999992536692,-0.24715560202361153,0.7999999999778858,0.5487905804492393,0.2425466940821643,-0.8,0.0,0.02288818359375,0
0.8848865032196045,0.08218546956777573,-0.09019318968057632,1.3252326250076294,-0.22515382285311378,-0.975091585776861,0.7999999999527733,-0.22765315612162035,0.7999999999986406,0.5459570046666815,0.2488592956981615,-0.8,0.0,0.022988080978393555,0
0.9090704917907715,0.08183468878269196,-0.08974149078130722,1.3241009712219238,-0.2252368973747785,-0.9750915857768646,0.7999999999974975,-0.21214133517299277,0.7999999999997593,0.5430109459368856,0.2552236521028737,-0.8,0.0,0.022783756256103516,0
0.9328162670135498,0.08183468878269196,-0.08974149078130722,1.3241009712219238,-0.2252368973747785,-0.9750915857768668,0.7999999999997303,-0.1920335613187572,0.7999999999999592,0.540046083754177,0.26143876419111317,-0.8,0.0,0.023990869522094727,0
0.9578673839569092,0.08237223327159882,-0.08953273296356201,1.3259445428848267,-0.2253379586113933,-0.9750915857768664,0.7999999999997062,-0.1662478145801865,0.7999999999999278,0.5368411404135176,0.2679581869611635,-0.8,0.0,0.02376532554626465,0
0.9825742244720459,0.08237223327159882,-0.08953273296356201,1.3259445428848267,-0.2253379586113933,-0.9750915857768668,0.7999999999998914,-0.14459708983575142,0.799999999999958,0.5336031564965624,0.27434954233040937,-0.8,0.0,0.023896455764770508,0
1.007706880569458,0.08393516391515732,-0.08952853083610535,1.331301212310791,-0.2254423039640212,-0.975091585776867,0.7999999999999535,-0.10627295485679633,0.7999999999999778,0.5302313024438061,0.2808109077453099,-0.8,0.0,0.025431394577026367,0
1.0340254306793213,0.08393516391515732,-0.08952853083610535,1.331301212310791,-0.2254423039640212,-0.975091585776867,0.7999999999999495,-0.0828625992635435,0.7999999999999684,0.526616493596349,0.2875327262630924,-0.8,0.0,0.023703813552856445,0
1.058763027191162,0.0859784185886383,-0.08971866220235825,1.3381993770599365,-0.22561991446357055,-0.9750915857768673,0.7999999999999952,-0.04249676815787995,0.799999999999996,0.5231411302187245,0.2938083693046803,-0.8,0.0,0.02393054962158203,0
1.083589792251587,0.0859784185886383,-0.08971866220235825,1.3381993770599365,-0.22561991446357055,-0.9750915857768673,0.7999999999999969,-0.019675323941153344,0.799999999999997,0.519578052611948,0.3000644051599185,-0.8,0.0,0.023929834365844727,0
1.1342341899871826,0.08860724419355392,-0.09006389230489731,1.3469152450561523,-0.22575886970812006,-0.9750915857768673,0.7999999999999973,0.051978573231518777,0.7999999999999948,0.5120782999549635,0.3126912450249199,-0.8,0.0,0.023916244506835938,0
1.1591010093688965,0.08860724419355392,-0.09006389230489731,1.3469152450561523,-0.22575886970812006,-0.9750915857768673,0.7999999999999988,0.075882991507074,0.7999999999999978,0.5082832704914737,0.3188230182067965,-0.8,0.0,0.02396845817565918,0
1.184187412261963,0.08422314375638962,-0.08867082744836807,1.3308175802230835,-0.22596162586645321,-0.9750915857768673,0.7999999999999962,0.05564904514568836,0.7999999999999952,0.5043803358229596,0.3249622698639312,-0.8,0.0,0.022492647171020508,0
1.2076950073242188,0.08422314375638962,-0.08867082744836807,1.3308175802230835,-0.22596162586645321,-0.9750915857768673,0.7999999999999994,0.07884088645200937,0.799999999999999,0.500655724899284,0.33067180878564856,-0.8,0.0,0.024004697799682617,0
1.2327468395233154,0.08268725126981735,-0.08793434500694275,1.3239085674285889,-0.22574019153442687,-0.9750915857542158,0.799999997607829,0.06766557997727962,0.7999999963298038,0.49661531615798216,0.3367094114474786,-0.8,0.0,0.02218031883239746,0
1.2558088302612305,0.08268725126981735,-0.08793434500694275,1.3239085674285889,-0.22574019153442687,-0.9750915857768673,0.8,0.09106697361436944,0.8,0.4928314576579809,0.34222383660801564,-0.8,0.0,0.02407550811767578,0
1.2809462547302246,0.08302734792232513,-0.08688371628522873,1.3171041011810303,-0.2222613230749439,-0.9750915857768673,0.7999999999999999,0.053142282910801586,0.8,0.48863734919829066,0.34818607233556564,-0.8,0.0,0.024211645126342773,0
1.3061347007751465,0.08302734792232513,-0.08688371628522873,1.3171041011810303,-0.2222613230749439,-0.9750915857768673,0.7999999999999955,0.07938887369960845,0.7999999999999899,0.48436238194135767,0.3541088575001963,-0.8,0.0,0.02422952651977539,0
1.3314719200134277,0.08554195612668991,-0.08413747698068619,1.3016194105148315,-0.20265145824910083,-0.9750915857768673,0.4614301179607474,-0.17735396459815927,0.7999999999999698,0.47998974283920504,0.36001367580850846,-0.8,0.0,0.022017240524291992,0
1.3544833660125732,0.08747240155935287,-0.08208825439214706,1.2914541959762573,-0.18965641025964022,-0.975091585776867,0.245105549158945,-0.2309609666258695,0.7999999999999439,0.47595608955525814,0.365329715209791,-0.8,0.0,0.02065110206604004,0
1.3760778903961182,0.08747240155935287,-0.08208825439214706,1.2914541959762573,-0.18965641025964022,-0.9750915857766331,0.252319904385271,-0.21604814766777208,0.7999999998789549,0.47211724976996217,0.3702773318333802,-0.8,0.0,0.020905733108520508,0
1.3980419635772705,0.09188477694988251,-0.0766996443271637,1.2686657905578613,-0.16421325581140328,-0.975091585776792,-0.16311334314829384,-0.2558180347726592,0.7999999999483999,0.46815996161810264,0.37526823784825786,-0.8,0.0,0.008905172348022461,0
1.4078938961029053,0.09188477694988251,-0.0766996443271637,1.2686657905578613,-0.16421325581140328,-0.9750915857763516,-0.1596244623043514,-0.24837060770350178,0.799999999647397,0.46636776304206123,0.3774931914553477,-0.8,0.0,0.0077898502349853516,0
1.416649341583252,0.0953926295042038,-0.07197044789791107,1.2511210441589355,-0.14761826518307,-0.9750915857768098,-0.42786791052476236,-0.21091787941971515,0.7999999999411587,0.46476615458441706,0.37946333360789125,-0.8,0.0,0.002616405487060547,0
1.4199213981628418,0.0953926295042038,-0.07197044789791107,1.2511210441589355,-0.14761826518307,-0.9750915857768541,-0.42633319881161685,-0.20959469671226286,0.7999999999865229,0.46416546879082987,0.38019786635670266,-0.8,0.0,0.0016222000122070312,0
1.429565191268921,0.09664874523878098,-0.07037172466516495,1.2446117401123047,-0.14202970902719314,-0.975091585776867,-0.5089534979049989,-0.18013355971012282,0.7999999999997738,0.4623883092423186,0.38235723018668005,-0.8,0.0,0.0019528865814208984,0
1.4395911693572998,0.09797527641057968,-0.06862413138151169,1.2377874851226807,-0.13644639421420215,-0.9750915857768673,-0.5876564119818315,-0.1462274784156087,0.7999999999999988,0.46053007050816264,0.38459336208227346,-0.8,0.0,0.0019266605377197266,0
1.4495069980621338,0.10083966702222824,-0.06466688215732574,1.2231837511062622,-0.12519576474120017,-0.9750915857768664,-0.7395488847284841,-0.07350104335634866,0.7971934749309629,0.4586816105896362,0.3867960445853826,-0.8,0.0,0.002349853515625,0
1.459580659866333,0.10237860679626465,-0.062454115599393845,1.215394377708435,-0.1196012797580823,-0.9750915857768673,-0.7980273304982924,-0.03489648649422751,0.7616165929756453,0.4567929403923202,0.38902469022895986,-0.8,0.0,0.002092123031616211,0
1.4696719646453857,0.10398773849010468,-0.06008690595626831,1.2072980403900146,-0.11400176890759127,-0.9750915857768664,-0.7999999999997698,0.005842307075021272,0.6869712244899374,0.4548901054973239,0.3912479928646709,-0.8,0.0,0.002200603485107422,0
1.4794464111328125,0.10569629818201065,-0.057570088654756546,1.1989028453826904,-0.10837286014582377,-0.9750915857767932,-0.7999999999969385,0.0471510899817746,0.6017329031075364,0.45303670070850505,0.3933926128070434,-0.8,0.0,0.0016808509826660156,0
1.4896860122680664,0.10747447609901428,-0.05490187183022499,1.1902188062667847,-0.1027161421619137,-0.9750915857768532,-0.7999999999996459,0.09018859825015467,0.5307292425294577,0.4510842511259125,0.39562987549750933,-0.8,0.0,0.0017108917236328125,0
1.4994609355926514,0.10932046920061111,-0.052084773778915405,1.1812529563903809,-0.09703715773286584,-0.9750915857768673,-0.8,0.13349098025052622,0.47087230885108344,0.44921009630477937,0.3977565705024253,-0.8,0.0,0.002057313919067383,0
1.5095698833465576,0.11321411281824112,-0.04601404443383217,1.162488579750061,-0.08554343308920768,-0.9750915857768475,-0.7999999999997169,0.21720979475072622,0.3782036429921532,0.44726135291953417,0.39994659916617353,-0.8,0.0,0.0018682479858398438,0
1.519547700881958,0.11526376754045486,-0.04276434704661369,1.15269136428833,-0.07974842208501082,-0.9750915857768573,-0.7999999999998574,0.2628401515551653,0.34991033484480494,0.4453274177886229,0.40209885720518695,-0.8,0.0,0.0018532276153564453,0
1.5295181274414062,0.11561723053455353,-0.040010008960962296,1.1394647359848022,-0.07392336514280817,-0.9750915857768518,-0.7999999999997622,0.30188470538732726,0.3277440273147648,0.44338456996370323,0.40424017998969614,-0.8,0.0,0.0019030570983886719,0
1.539562702178955,0.11608077585697174,-0.03710455819964409,1.126022458076477,-0.06809428177014945,-0.9750915857768592,-0.7999999999998885,0.33993502413454685,0.30935614356069513,0.44141686224064514,0.40638793501975834,-0.8,0.0,0.002158641815185547,0
1.549699068069458,0.11735767871141434,-0.030856169760227203,1.0984368324279785,-0.05656421456419778,-0.975091585775662,-0.7999999999820507,0.409012350590598,0.27119463318960985,0.43942062634197043,0.4085456071789665,-0.8,0.0,0.002223491668701172,0
1.5594265460968018,0.11816952377557755,-0.027522023767232895,1.0842795372009277,-0.050933028717416645,-0.975091585776867,-0.7999999999999999,0.45132791175632997,0.258396862458314,0.4374949982706552,0.4106070219664532,-0.8,0.0,0.002087116241455078,0
1.569701910018921,0.12010820209980011,-0.02046898938715458,1.055253267288208,-0.04003493429827276,-0.9750915857768668,-0.7999999999999798,0.5176716581222398,0.21433168647258466,0.4354504101218509,0.4127746846945823,-0.8,0.0,0.001970529556274414,0
1.5794641971588135,0.12122982740402222,-0.016767676919698715,1.0403985977172852,-0.03479600319641004,-0.9750915857768673,-0.799999999999998,0.5515074133911829,0.19377458066088718,0.43349796402716734,0.4148246800568895,-0.8,0.0,0.0019223690032958984,0
1.589747428894043,0.12244758754968643,-0.012960550375282764,1.0253217220306396,-0.029709933889602226,-0.975091585776468,-0.799999999968414,0.5825690011848677,0.17215471784058495,0.4314308934446602,0.4169740809469364,-0.8,0.0,0.00286865234375,0
1.5996601581573486,0.12375926226377487,-0.00905743706971407,1.010023832321167,-0.024796136879067794,-0.9750915857765969,-0.7999999999902573,0.6118269116895393,0.14972303442852405,0.4294282102154593,0.41903628992146646,-0.8,0.0,0.0035622119903564453,0
1.6095726490020752,0.12664902210235596,-0.0009948161896318197,0.9788090586662292,-0.015524168668907143,-0.975091585776322,-0.7999999697704652,0.6527216676676718,0.10143620098006739,0.42741571840730175,0.42108883107768375,-0.8,0.0,0.0033006668090820312,0
1.6196014881134033,0.12823711335659027,0.0031394455581903458,0.9628868699073792,-0.01118833766128087,-0.975091585774802,-0.7819138726188846,0.6716664812711237,0.07515650608648987,0.4253696212419254,0.4231556277830899,-0.8,0.0,0.002257823944091797,0
1.6296112537384033,0.12965132296085358,0.006187623366713524,0.9467107057571411,-0.007069622716034224,-0.9750915857224622,-0.7335805324966619,0.6863586643826624,0.04910673094307619,0.423317449922416,0.42520858010061696,-0.8,0.0,0.001344442367553711,0
1.639585256576538,0.1311453878879547,0.009297957643866539,0.9303328990936279,-0.0034673101525578053,-0.9750915857768673,-0.6815992575866135,0.6991014867204227,0.026335623703212484,0.4212627555537933,0.4272442987135404,-0.8,0.0,0.0016732215881347656,0
1.6496756076812744,0.13435551524162292,0.015673238784074783,0.8969616889953613,0.0031177599058616248,-0.9661404040238447,-0.5659850717692426,0.6919863916629508,-0.015514686735488123,0.41917413150572574,0.42929366111837775,-0.8,0.0,0.0016155242919921875,0
1.6594996452331543,0.1360643357038498,0.018922973424196243,0.8799579739570618,0.006099734458186967,-0.9540761794237931,-0.4909267296864534,0.6774143571890098,-0.034458421787151756,0.4171310534516188,0.43127912567888416,-0.8,0.0,0.0026924610137939453,0
1.6697964668273926,0.13783641159534454,0.02220465987920761,0.8627420663833618,0.0088859347983055,-0.9418656771191742,-0.413800585388784,0.6600350542104659,-0.05219553023962595,0.41497955857044194,0.43334970401360734,-0.8,0.0,0.0031311511993408203,0
1.6797072887420654,0.13966768980026245,0.025511791929602623,0.8453006744384766,0.011431815257705591,-0.9294690271186964,-0.3349917026824984,0.6389810917492414,-0.06845039048327513,0.41289900951215286,0.4353325257132564,-0.8,0.0,0.002301931381225586,0
1.6896836757659912,0.14155487716197968,0.028835324570536613,0.8276458978652954,0.013728135880690641,-0.9168912024319855,-0.25375584735993745,0.6153820791994854,-0.08315534874440016,0.4107951284097075,0.4373183765574595,-0.8,0.0,0.001992940902709961,0
1.699573040008545,0.14550469815731049,0.035498473793268204,0.7916945815086365,0.01766846336896899,-0.8912140426205521,-0.09912569265282058,0.5469761726968002,-0.10860316061741408,0.4087001727681424,0.43927687029855156,-0.8,0.0,0.0018439292907714844,0
1.7097065448760986,0.14754356443881989,0.03882644325494766,0.7733975052833557,0.019298414727176687,-0.8780573722000853,-0.01593641357163439,0.5142683401649625,-0.11916881874813161,0.40654381322147787,0.4412733029895873,-0.8,0.0,0.0020024776458740234,0
1.7195634841918945,0.1496165543794632,0.04214349761605263,0.7548848986625671,0.02071881171644879,-0.8646993927399038,0.06298200546889307,0.47798429013101934,-0.12843382607975543,0.4044369484851539,0.44320509326948965,-0.8,0.0,0.0019388198852539062,0
1.7297537326812744,0.15171819925308228,0.045443687587976456,0.7361556887626648,0.021913414991785445,-0.8510740734709977,0.13977879401221455,0.4404175924717525,-0.13629715346669147,0.40224919128854814,0.44519163077006396,-0.8,0.0,0.0019261837005615234,0
1.7394607067108154,0.1538439244031906,0.04872182756662369,0.7172061204910278,0.022901085646026113,-0.8371427634815881,0.21362957742966288,0.40387159082912627,-0.1429202240664888,0.4001561137964849,0.4470739140134376,-0.8,0.0,0.0022199153900146484,0
1.74961519241333,0.158151313662529,0.055189214646816254,0.6786758899688721,0.02428274552806842,-0.8094098204234722,0.34693253712553823,0.3214440418454498,-0.15249664350930878,0.39795711555301977,0.44903244223632705,-0.8,0.0,0.0019881725311279297,0
1.7596423625946045,0.16032111644744873,0.05836808308959007,0.659119725227356,0.024683053672603643,-0.7956826578956924,0.4120660733182281,0.28747469653986835,-0.15550348535669298,0.39577628163670014,0.45095580148594094,-0.8,0.0,0.0018665790557861328,0
1.7694709300994873,0.16252543032169342,0.061502110213041306,0.6393826603889465,0.024889786076310393,-0.7820923675199676,0.47293044935709255,0.25270364161052566,-0.15729695981486674,0.3936296206951128,0.4528307870622553,-0.8,0.0,0.0018477439880371094,0
1.7796356678009033,0.16472825407981873,0.06459295004606247,0.6194791793823242,0.0249286009268363,-0.7686506844349664,0.5302679071361188,0.21978847366812435,-0.15804460995470285,0.39140019375827123,0.4547591541970186,-0.8,0.0,0.001931905746459961,0
1.7898218631744385,0.16911306977272034,0.07063520699739456,0.5792374014854431,0.024514803458826527,-0.7424821346416611,0.6252933838190871,0.1320896467489024,-0.15619642419324642,0.3891565838065762,0.4566805812381289,-0.8,0.0,0.002301931381225586,0
1.7996809482574463,0.17128461599349976,0.07358656078577042,0.5589338541030884,0.024097232570940125,-0.7298779684251531,0.668878014939478,0.09739918619752592,-0.15400316200567138,0.38697603969139854,0.4585297642517453,-0.8,0.0,0.0029587745666503906,0
1.8097577095031738,0.17343704402446747,0.07649210095405579,0.5385370850563049,0.023586453731077026,-0.7177951809852742,0.7075023596393424,0.06361063525888787,-0.15120793245736783,0.38473827237210473,0.4604090157372335,-0.8,0.0,0.0024938583374023438,0
1.819535255432129,0.17556719481945038,0.07935208827257156,0.5180695056915283,0.022977542142311302,-0.7061034309527978,0.7418374805034987,0.03158806079126843,-0.14777627127164336,0.382558228388329,0.46222202661965717,-0.8,0.0,0.002246379852294922,0
1.8299305438995361,0.17975126206874847,0.08493760973215103,0.4769706428050995,0.021508448336238887,-0.6838743552401888,0.786300630721485,-0.0504392152033058,-0.13898954728906937,0.3802310809020032,0.46413826077591824,-0.8,0.0,0.003612041473388672,0
1.8396146297454834,0.1818326711654663,0.08766435086727142,0.4563865661621094,0.02067370836250171,-0.6733213016524313,0.7999952924484115,-0.08035638630934074,-0.13417286275817925,0.37805451028819653,0.46591285370845037,-0.8,0.0,0.0023398399353027344,0
1.849583625793457,0.18589389324188232,0.09300849586725235,0.4152413308620453,0.018821097784310178,-0.6536482291195933,0.7999999998664179,-0.1570576881911998,-0.1230300915354949,0.3758052532208019,0.4677289938112122,-0.8,0.0,0.002138376235961914,0
1.8595831394195557,0.18786878883838654,0.09563075751066208,0.3947153389453888,0.017872194118747478,-0.6445309328821898,0.7999999999872827,-0.18202109436571198,-0.11725546924586462,0.373540346122401,0.4695397851287544,-0.8,0.0,0.002176523208618164,0
1.8695318698883057,0.18980450928211212,0.09822413325309753,0.37424492835998535,0.016895852564706697,-0.6359523896100534,0.7999999999056562,-0.20537760818581827,-0.11112096882196151,0.37127828272055224,0.4713304963399649,-0.8,0.0,0.002596139907836914,0
1.8795745372772217,0.19170062243938446,0.10079166293144226,0.3538465201854706,0.015889291882086754,-0.6278337214287122,0.7992579841170526,-0.22660187312978355,-0.10464710914125354,0.36898615454729305,0.4731270630099288,-0.8,0.0,0.0023581981658935547,0
1.8898570537567139,0.19537098705768585,0.10585950314998627,0.31331998109817505,0.013846137651193838,-0.613194873537972,0.7565429535896081,-0.28608994177333213,-0.09168890715433539,0.36663027678446986,0.47495498749349185,-0.8,0.0,0.0027489662170410156,0
1.8994758129119873,0.19714346528053284,0.10836657881736755,0.29322347044944763,0.012802620960753994,-0.6066748007800685,0.7318125165466347,-0.3015168416702317,-0.08514944463591737,0.3644182772872596,0.4766542973466052,-0.8,0.0,0.002194643020629883,0
1.9096379280090332,0.19892752170562744,0.11085907369852066,0.2732641398906708,0.011770078229724222,-0.6008058809204541,0.7043712112413946,-0.3125569846582952,-0.07868007337217788,0.36207276868019633,0.47843840792755865,-0.8,0.0,0.0020608901977539062,0
1.9196178913116455,0.20066887140274048,0.11333855986595154,0.25345873832702637,0.010773077473290904,-0.595416004181111,0.6731041618664572,-0.321147686064876,-0.07240947744817147,0.3597608010101323,0.48017930615192905,-0.8,0.0,0.0019268989562988281,0
1.9295573234558105,0.1953626275062561,0.12203656882047653,0.20888055860996246,0.00888772833663646,-0.5826461959142998,0.566596816326301,-0.48018111543320047,-0.05919954193661032,0.3574499033200688,0.4819020301020462,-0.8,0.0,0.001874685287475586,0
1.9395661354064941,0.1927754431962967,0.1263245791196823,0.18697097897529602,0.007997791039231941,-0.5769602775250142,0.5127356392778704,-0.5407309261621733,-0.05316935329855642,0.3551145393440753,0.48362554104021965,-0.8,0.0,0.0016102790832519531,0
1.9496479034423828,0.19022990763187408,0.1305769681930542,0.1653251349925995,0.007099306345390793,-0.5717581655269229,0.4576319353386759,-0.5988758365835358,-0.04714458235813368,0.3527537514309715,0.4853501734329312,-0.8,0.0,0.0018086433410644531,0
1.9595472812652588,0.18772245943546295,0.1347963511943817,0.14395174384117126,0.0062149519182304064,-0.5670660846418164,0.40032531145543565,-0.6538872595348966,-0.0412823223837392,0.35042752271496985,0.4870323924790314,-0.8,0.0,0.0016694068908691406,0
1.9697215557098389,0.1828172504901886,0.1431521326303482,0.10206255316734314,0.004464577258366837,-0.5587979982248354,0.2728603188081125,-0.7771784262595742,-0.02987416934771983,0.34802833797426863,0.4887497068713885,-0.8,0.0,0.0019524097442626953,0
1.9794228076934814,0.18045319616794586,0.14729472994804382,0.08154699206352234,0.0036117551698919286,-0.5552532880615,0.21126110566710496,-0.7999999939244853,-0.025001569437379474,0.34573285735030856,0.49037617330819727,-0.8,0.0,0.002095937728881836,0
1.9898345470428467,0.17811985313892365,0.15141722559928894,0.06132495775818825,0.002782326506931659,-0.5520675672786854,0.15064155291708337,-0.7999999988427955,-0.020741685717145093,0.3432608084012427,0.4921097615529744,-0.8,0.0,0.002162933349609375,0
1.9995746612548828,0.17581576108932495,0.15552376210689545,0.041401468217372894,0.0019359210517122846,-0.5492756224395822,0.07851083313423948,-0.7999999982583191,-0.016051759243502974,0.3409403520525022,0.4937202409688263,-0.8,0.0,0.0017333030700683594,0
2.009457588195801,0.1712978035211563,0.16370052099227905,0.002465785713866353,0.00024833673768714015,-0.5446863706005407,-0.07512910602958164,-0.7999979026635526,-0.006656755969747254,0.3385781499140497,0.4953431501502562,-0.8,0.0,0.0017540454864501953,0
2.0196635723114014,0.16908404231071472,0.16777318716049194,-0.01654038578271866,-0.0006052080589311559,-0.5429710123537705,-0.1435828614701562,-0.7999992252360718,-0.0014483688124925763,0.33613062378446273,0.49700724718485545,-0.8,0.0,0.002919912338256836,0
2.0296950340270996,0.16689932346343994,0.17183761298656464,-0.035234469920396805,-0.0014714488371046451,-0.5416143463492091,-0.21113673652279616,-0.7999996310650824,0.003938012761308416,0.3337169798200213,0.4986311035021817,-0.8,0.0,0.0023679733276367188,0
2.0396535396575928,0.16474269330501556,0.17589686810970306,-0.0536278560757637,-0.002378478098579031,-0.5405506232527819,-0.27746732154748177,-0.799999746813321,0.009704667099701816,0.33131313011836244,0.5002315561929025,-0.8,0.0,0.0020215511322021484,0
2.049717903137207,0.1605614572763443,0.18400299549102783,-0.0894656702876091,-0.004232470463863111,-0.5393658195455705,-0.4122855874277702,-0.799999898448648,0.021392244008430088,0.3288759297687905,0.5018372473409218,-0.8,0.0,0.0017502307891845703,0
2.0595357418060303,0.15853343904018402,0.1880519688129425,-0.10690663754940033,-0.0051744361002944595,-0.5392497108319515,-0.4707572540719114,-0.7999996861869926,0.027590219407535834,0.3264909295987404,0.5033921660989077,-0.8,0.0,0.0017325878143310547,0
2.069647789001465,0.15653181076049805,0.1921015828847885,-0.12402843683958054,-0.006118269602037768,-0.5393135403799577,-0.5254349648503335,-0.7999984387510843,0.03385279285430653,0.32402677409658526,0.5049818310281673,-0.8,0.0,0.0016820430755615234,0
2.0796165466308594,0.15455740690231323,0.19615425169467926,-0.1408320814371109,-0.007101038196665548,-0.5396363871366869,-0.5785256393094893,-0.7999999999999923,0.04039928442055008,0.3215899597660367,0.5065371632740079,-0.8,0.0,0.0018799304962158203,0
2.0896265506744385,0.150689959526062,0.204278826713562,-0.173482745885849,-0.00911124479859588,-0.5410023776849894,-0.6850232527292688,-0.7999999999993758,0.053428068189069505,0.31913555116858344,0.5080870988131114,-0.8,0.0,0.0023381710052490234,0
2.0995118618011475,0.14879633486270905,0.20834892988204956,-0.18932993710041046,-0.01011597474513495,-0.5420432623048104,-0.725088133009321,-0.7999999999987559,0.06004853345595018,0.3167043855656542,0.5096060558544034,-0.8,0.0,0.0014765262603759766,0
2.1097497940063477,0.14693136513233185,0.21242380142211914,-0.2048979103565216,-0.011122554031362145,-0.5432133767498142,-0.7603549149600197,-0.7999976742913301,0.06675726089975603,0.3141788771196394,0.5111669327840392,-0.8,0.0,0.005032539367675781,0
2.1195759773254395,0.14509619772434235,0.21650317311286926,-0.22014597058296204,-0.012134302417476607,-0.5445736838313607,-0.7902864293603202,-0.7711416416380757,0.07319803002407356,0.31174770396586443,0.5126532639825984,-0.8,0.0,0.0017495155334472656,0
2.129608631134033,0.14161324501037598,0.2246779054403305,-0.24969278275966644,-0.014096999602999056,-0.5468988015504159,-0.7999996836445249,-0.6976772838032175,0.08026848848633139,0.3092581920969397,0.5141588962771453,-0.8,0.0,0.0015892982482910156,0
2.139465093612671,0.13991986215114594,0.22877457737922668,-0.263996422290802,-0.015052179458383459,-0.54829461073257,-0.799999996491014,-0.648505559312699,0.08433777180505847,0.3068053190835003,0.5156263144779091,-0.8,0.0,0.0014677047729492188,0
2.149554491043091,0.1382601410150528,0.2328774631023407,-0.27798962593078613,-0.015968478408778106,-0.5498959222717633,-0.7999999998427417,-0.5966331906763166,0.08877052789430236,0.3042872670223055,0.5171162916869823,-0.8,0.0,0.001560211181640625,0
2.1595897674560547,0.1366344690322876,0.2369847297668457,-0.29167476296424866,-0.016849230022004117,-0.5516917441069095,-0.7999999999470238,-0.5434619694540099,0.09366632814203499,0.3017755443768358,0.5185860785019825,-0.8,0.0,0.0017287731170654297,0
2.169600486755371,0.1334952414035797,0.24520909786224365,-0.3181307911872864,-0.018467691072113226,-0.5557813772729819,-0.7999999999897264,-0.44331375754414165,0.10261464983295204,0.2992628948146392,0.5200401136327487,-0.8,0.0,0.001739501953125,0
2.1796183586120605,0.13198524713516235,0.2493276447057724,-0.3309313654899597,-0.019192650451497366,-0.5580977174547663,-0.7999999999725559,-0.3810346294647053,0.10786971296644315,0.29674143672779757,0.5214830004216077,-0.8,0.0,0.001802682876586914,0
2.189797878265381,0.1305171251296997,0.2534507215023041,-0.34343233704566956,-0.01989499006457242,-0.5604463801199449,-0.7999999997802589,-0.31756402949255713,0.11346867427019662,0.2941721669135482,0.5229366464624443,-0.8,0.0,0.0017962455749511719,0
2.1996164321899414,0.1291338950395584,0.2575739324092865,-0.3556406795978546,-0.020512798226066397,-0.5628752092084145,-0.7999999937799726,-0.2550050294190523,0.11892540619412625,0.2916872561852891,0.5243267536366015,-0.8,0.0,0.0017652511596679688,0
2.2098448276519775,0.12649142742156982,0.2658218443393707,-0.37919288873672485,-0.021536455529499177,-0.5680464125677691,-0.7999999757117278,-0.14031060383887292,0.12883964974464168,0.2890916365029574,0.5257623281522193,-0.8,0.0,0.0029401779174804688,0
2.219558000564575,0.1252385824918747,0.2699456512928009,-0.390543133020401,-0.021911610048326594,-0.5705070277520806,-0.7999999928847261,-0.07387983429275398,0.13193849215323425,0.2866202215257131,0.5271136960965358,-0.8,0.0,0.0020682811737060547,0
2.2295796871185303,0.12403257191181183,0.27406981587409973,-0.4016142785549164,-0.022201659427805432,-0.5729874034866954,-0.7999999993410061,-0.007918303563685915,0.13462015589913154,0.28406368808863125,0.5284958099261382,-0.8,0.0,0.0017910003662109375,0
2.2396535873413086,0.12287303805351257,0.2781918942928314,-0.41240987181663513,-0.022433458882139667,-0.575566112150714,-0.7999999986985459,0.057674326083033224,0.13703099789937137,0.2814871183390289,0.5298726282883364,-0.8,0.0,0.0018374919891357422,0
2.2495620250701904,0.12069885432720184,0.28641819953918457,-0.4332227110862732,-0.02256708103420668,-0.5808207117437895,-0.7999999931533197,0.16863263206212706,0.13954679623637004,0.27894635851550337,0.531214579121225,-0.8,0.0,0.0019075870513916016,0
2.2595725059509277,0.11968788504600525,0.29051774740219116,-0.4432482421398163,-0.022517088120792634,-0.5833642046700382,-0.7999988715785208,0.23101127754078196,0.14048184203877695,0.27637293603468394,0.5325579782780167,-0.8,0.0,0.0017783641815185547,0
2.269676923751831,0.11878079921007156,0.2946045696735382,-0.45301568508148193,-0.02238263041716335,-0.5858784043546037,-0.7999949718478161,0.29244745290626956,0.14088194390336156,0.2737688041652107,0.5339013409478858,-0.8,0.0,0.0019369125366210938,0
2.2794666290283203,0.11792847514152527,0.29867953062057495,-0.4625280499458313,-0.022166401047742673,-0.5883613629288049,-0.7760372561841635,0.3524724697734894,0.140003209673566,0.27123955245750897,0.5351907185131766,-0.8,0.0,0.0017085075378417969,0
2.2896454334259033,0.11638931185007095,0.30678310990333557,-0.48080727458000183,-0.021462939170916327,-0.5932833435212905,-0.7094448752503147,0.447456255638066,0.13575605331930563,0.26860333527024505,0.5365186374038653,-0.8,0.0,0.0015735626220703125,0
2.299513578414917,0.11570271104574203,0.3108062148094177,-0.4895816743373871,-0.021005169690749934,-0.5956679182204612,-0.6651727601369338,0.49800449761987275,0.13298094776218694,0.26604136904004755,0.5377936313859595,-0.8,0.0,0.0018265247344970703,0
2.309563159942627,0.11507323384284973,0.3148064613342285,-0.49811914563179016,-0.0204500957095992,-0.5979699714310142,-0.6162492560546715,0.5459726097799313,0.1295887388909093,0.26342607881350844,0.5390794941387951,-0.8,0.0,0.001779317855834961,0
2.31967830657959,0.11450207233428955,0.31878072023391724,-0.5064237117767334,-0.019874965932831685,-0.6003381647036323,-0.5662132980739948,0.5914919062054004,0.12604827896687432,0.2607874503945238,0.5403609032088866,-0.8,0.0,0.0018224716186523438,0
2.3295421600341797,0.11040910333395004,0.3233911991119385,-0.5192590355873108,-0.019234877961124202,-0.6003608813300018,-0.5243245266823133,0.6008978182653185,0.12214050113562842,0.2582083708586271,0.5415980402646724,-0.8,0.0,0.0018973350524902344,0
2.3395774364471436,0.10264833271503448,0.33247312903404236,-0.5439023971557617,-0.01773343479419199,-0.6006268392585719,-0.44181003803538343,0.5934951382516646,0.11301095206726136,0.2555784476089669,0.5428440449316825,-0.8,0.0,0.0017938613891601562,0
2.3497190475463867,0.09897486865520477,0.33693817257881165,-0.5557272434234619,-0.016950452642723785,-0.6006602551904708,-0.390013871634594,0.5937640378679281,0.1082931999412472,0.2529145492787813,0.5440902781369199,-0.8,0.0,0.0018270015716552734,0
2.359494686126709,0.09542807936668396,0.3413512110710144,-0.5672320127487183,-0.01612593601839581,-0.600708605000225,-0.3391050376574594,0.5911085519603854,0.10330793033352396,0.25034102864468427,0.5452791664616587,-0.8,0.0,0.0017256736755371094,0
2.3697099685668945,0.09200702607631683,0.3457120954990387,-0.5784240365028381,-0.015311237617745251,-0.6008005342297391,-0.2865863323294656,0.5865671432544546,0.09839472338556868,0.24764579777583595,0.5465085167167751,-0.8,0.0,0.0020008087158203125,0
2.379589557647705,0.08870814740657806,0.3500179946422577,-0.5893092751502991,-0.014479403914371226,-0.6009883061788711,-0.23371728596554064,0.5776228209939769,0.09338754016478046,0.2450333941175552,0.5476847959978721,-0.8,0.0,0.0015635490417480469,0
2.389577865600586,0.08246077597141266,0.3584545850753784,-0.6101815104484558,-0.01289189410668263,-0.6017476508825951,-0.1344340933585913,0.5345836223524025,0.08396811263111001,0.24238656325176416,0.5488613248854382,-0.8,0.0,0.0016243457794189453,0
2.3995819091796875,0.07950799912214279,0.3625791370868683,-0.6201438307762146,-0.012111646208322675,-0.602223537361909,-0.07834198133819048,0.5178482976459448,0.07932254062990812,0.23972990032402672,0.5500268856070876,-0.8,0.0,0.0017724037170410156,0
2.409456253051758,0.07395622134208679,0.37063100934028625,-0.6392114758491516,-0.010619569693694415,-0.6036800905001959,0.021577575032865257,0.46235166949149714,0.0705412754786615,0.23710218395626798,0.5511647252529575,-0.8,0.0,0.001766204833984375,0
2.4196112155914307,0.07135096192359924,0.3745563328266144,-0.6483249068260193,-0.009928505491012684,-0.6045015909190252,0.07551156087043163,0.4401561034311828,0.066442642674727,0.23439415842227382,0.5523218070088434,-0.8,0.0,0.001840353012084961,0
2.4296345710754395,0.06884747743606567,0.3784134089946747,-0.6571617126464844,-0.009264050183484786,-0.6054776903695406,0.12957775965668383,0.41625800432502635,0.0625105107844496,0.23171569112707838,0.553450845591097,-0.8,0.0,0.0018839836120605469,0
2.439617395401001,0.06644275784492493,0.3822001516819,-0.6657242774963379,-0.008612174155268255,-0.606557878108755,0.18242227464620436,0.39135289845406807,0.05864093802405137,0.22904264934676002,0.5545624083727791,-0.8,0.0,0.0018138885498046875,0
2.4495272636413574,0.061918795108795166,0.3895564675331116,-0.6820470690727234,-0.007484949520979843,-0.6091144394524564,0.27570856275606753,0.3239627869531136,0.052107750395434,0.22638386867973748,0.5556530788195053,-0.8,0.0,0.0016055107116699219,0
2.4594545364379883,0.059793319553136826,0.39312416315078735,-0.6898133158683777,-0.006939988735050483,-0.6104887286942927,0.3239473852618041,0.2976552620512904,0.04886315645168202,0.22371521136144853,0.5567328840705409,-0.8,0.0,0.001596689224243164,0
2.469574451446533,0.05775565654039383,0.3966180384159088,-0.697330892086029,-0.006398558394054904,-0.6119732807306086,0.3700654330384161,0.2717418120042524,0.04561008403307728,0.22098946709618975,0.557820450891272,-0.8,0.0,0.0016422271728515625,0
2.4796690940856934,0.05580123886466026,0.40003663301467896,-0.704593300819397,-0.005859429921534509,-0.6135023236848883,0.4144763311113888,0.2445734607088379,0.04236226454926797,0.21826526268437388,0.5588920066572086,-0.8,0.0,0.001786947250366211,0
2.489576578140259,0.05213680490851402,0.4066484272480011,-0.7183661460876465,0.19397148372525425,-0.6172652708444136,0.381260833665211,0.22354796872297442,-0.7999999999998381,0.2155865136522732,0.559930759229441,-0.8,0.0,0.0017921924591064453,0
2.4996376037597656,0.050435870885849,0.4098449647426605,-0.7248819470405579,0.1944606429304358,-0.6190428723760002,0.41659194509654596,0.203451348015893,-0.7999999999965643,0.21286119209392082,0.5609724707152347,-0.8,0.0,0.0022139549255371094,0
2.5098795890808105,0.04882089048624039,0.4129709303379059,-0.7311564087867737,0.19492152941331534,-0.6208208188532238,0.44802100096986774,0.18395480104513276,-0.7999999999287563,0.21008168281859807,0.5620192937472039,-0.8,0.0,0.002889871597290039,0
2.5195467472076416,0.04728996753692627,0.41602623462677,-0.7371942400932312,0.1953842451408714,-0.6226760090504488,0.4760876230274569,0.16564916300574306,-0.7999999999985165,0.20745344857610734,0.5629947305915752,-0.8,0.0,0.0021560192108154297,0
2.529691696166992,0.045842308551073074,0.4190099537372589,-0.7429993748664856,0.19583493207305583,-0.6245662520743377,0.5021968532087139,0.15060297232991618,-0.7999999998574129,0.20469044701114283,0.5640051603508416,-0.8,0.0,0.0024406909942626953,0
2.5395383834838867,0.0431879460811615,0.4247632324695587,-0.7539425492286682,0.19666939138532522,-0.628081398758558,0.5352729601297554,0.11049753880923027,-0.7999999999986115,0.20200397082268587,0.5649729159631172,-0.8,0.0,0.0029535293579101562,0
2.549548864364624,0.0419795885682106,0.42752915620803833,-0.7591121792793274,0.19689769160936516,-0.6291036571709526,0.5575014857701905,0.1054823198108531,-0.7999999997026384,0.1992681170912635,0.5659436522401347,-0.8,0.0,0.001939535140991211,0
2.559605598449707,0.040829241275787354,0.4302283525466919,-0.7640894651412964,0.19691151734645668,-0.6300420326591369,0.5784173324591109,0.10346490956715973,-0.7999999999723278,0.19651492546992388,0.5669055336363813,-0.8,0.0,0.0018067359924316406,0
2.5693843364715576,0.038763824850320816,0.4354010224342346,-0.7735116481781006,0.19701329226397657,-0.6321517416151047,0.6047881299047516,0.07937874025530539,-0.7999999999999983,0.19383338705549727,0.567827982810458,-0.8,0.0,0.0017194747924804688,0
2.5796287059783936,0.03784259408712387,0.4378761649131775,-0.777960479259491,0.19663343252770848,-0.6333874897291573,0.6223288999901146,0.08224401400076692,-0.7999999999950492,0.19101951963330155,0.5687807513612453,-0.8,0.0,0.002286672592163086,0
2.5898008346557617,0.03699298948049545,0.4402787685394287,-0.7822336554527283,0.19593554057868806,-0.6347250776751969,0.6397235521743473,0.08682616607314461,-0.799999999999968,0.18822086122578224,0.5697130044148763,-0.8,0.0,0.0027642250061035156,0
2.599531888961792,0.03621181473135948,0.4426087737083435,-0.7863341569900513,0.19494719518537276,-0.6360910096009854,0.6559695044251116,0.08903260945080481,-0.7999999999999915,0.1855392968522923,0.5705919464236741,-0.8,0.0,0.0022225379943847656,0
2.6095895767211914,0.03549593314528465,0.4448682963848114,-0.7902653217315674,0.19365611592620255,-0.6375144937004453,0.6690821539215838,0.09499370743183415,-0.7999999833799142,0.18276341039440214,0.5714871265575518,-0.8,0.0,0.0015842914581298828,0
2.6194982528686523,0.034262266010046005,0.4491877555847168,-0.7976431250572205,0.1902251098264296,-0.640680792102209,0.677689574507866,0.08912782109768175,-0.7999999955213777,0.18002442705751,0.5723558383231669,-0.8,0.0,0.0016186237335205078,0
2.6297495365142822,0.0337369330227375,0.451253205537796,-0.8010836243629456,0.18812650913992865,-0.6423021312062253,0.6830848047433764,0.10062375771254804,-0.7999999993370472,0.17718639446462964,0.5732407710697353,-0.8,0.0,0.0031528472900390625,0
2.639617681503296,0.033272963017225266,0.45325756072998047,-0.8043625354766846,0.18580916419081298,-0.644005644795047,0.6856239323536726,0.11251876616150337,-0.7999999999462583,0.174450322787106,0.5740793367466508,-0.8,0.0,0.0023403167724609375,0
2.6497082710266113,0.03252170979976654,0.4570888876914978,-0.8104466199874878,0.18053151607849516,-0.6475253477585678,0.6733543454602662,0.11472275466815737,-0.7999999999586906,0.1716484723645114,0.574923300914939,-0.8,0.0,0.0017697811126708984,0
2.6596152782440186,0.03222931921482086,0.4589190185070038,-0.8132561445236206,0.1775574127708025,-0.6493671939737246,0.666791887489592,0.12856482298493369,-0.7999999999691381,0.16889362484474338,0.5757386069101177,-0.8,0.0,0.0019216537475585938,0
2.6697516441345215,0.03198936581611633,0.4606953561306,-0.8159134387969971,0.17437700995381453,-0.6512110863795085,0.6569306401562439,0.14290725708647023,-0.7999999999817899,0.16607099210114654,0.5765591258340648,-0.8,0.0,0.0018894672393798828,0
2.6795477867126465,0.031798891723155975,0.46241888403892517,-0.818421483039856,0.17102066495147442,-0.6531078905596679,0.6440416982023216,0.15684455684359472,-0.7999999999924851,0.16333931174084373,0.5773389552420894,-0.8,0.0,0.0017461776733398438,0
2.689830780029297,0.03165800869464874,0.4640921652317047,-0.8207893967628479,0.16749350944383576,-0.6549911802189734,0.6285145616279284,0.17412813810972883,-0.7999999999519085,0.16046793374762874,0.5781436173121404,-0.8,0.0,0.001859903335571289,0
2.6995575428009033,0.031511273235082626,0.4672936201095581,-0.8250979781150818,0.1599757910533259,-0.6588297441960964,0.5805352767808248,0.1792658654556789,-0.7999999999289161,0.15774822607642072,0.5788916108994346,-0.8,0.0,0.0022058486938476562,0
2.709625244140625,0.031499121338129044,0.4688264727592468,-0.8270444869995117,0.155937677865114,-0.6607481332256757,0.5565631118010931,0.19341381146473213,-0.7999999995634058,0.15492951723350834,0.5796523481275583,-0.8,0.0,0.0017561912536621094,0
2.7196874618530273,0.03152693063020706,0.47031572461128235,-0.8288565278053284,0.151767615540948,-0.6626736756063795,0.5307372107523164,0.2080489685547423,-0.7999999973891033,0.15210867833770877,0.5803989575924093,-0.8,0.0,0.0018270015716552734,0
2.729444742202759,0.025291288271546364,0.47876596450805664,-0.8411094546318054,0.14286752187411506,-0.6621088601614522,0.39718712831797703,0.14152181493905874,-0.7999998261636712,0.14936988912162774,0.5811098314637196,-0.8,0.0,0.0016541481018066406,0
2.739769458770752,0.022328313440084457,0.4828495979309082,-0.8468730449676514,0.13814678551674467,-0.66193105410681,0.33247180696831147,0.1214630716775557,-0.79999733952805,0.14646820911398406,0.5818479730298476,-0.8,0.0,0.0018107891082763672,0
2.749635934829712,0.019463397562503815,0.4868444502353668,-0.8524037599563599,0.13330230046562838,-0.661719320868281,0.2664838450326975,0.10105115739915048,-0.7999999998762034,0.14369190490252723,0.5825398153478293,-0.8,0.0,0.0019299983978271484,0
2.759458541870117,0.016693532466888428,0.49075499176979065,-0.8576952815055847,0.12836399340998966,-0.6615089868980144,0.20008504457689488,0.07963721009628363,-0.7999925813666093,0.14092469895921136,0.583215422655519,-0.8,0.0,0.0018301010131835938,0
2.7697014808654785,0.011420464143157005,0.4983336329460144,-0.8676340579986572,0.11823210823849369,-0.661261663322855,0.06142845409822702,0.011843173862724222,-0.7555338661916474,0.13803569583257402,0.5839059399218482,-0.8,0.0,0.0017359256744384766,0
2.7794535160064697,0.008908201940357685,0.5020081996917725,-0.8722919225692749,0.11305312915268513,-0.661193698204758,-0.004547587750738208,-0.012105316031298271,-0.7226573494208247,0.13528200647010175,0.5845500652000848,-0.8,0.0,0.0014462471008300781,0
2.789747953414917,0.006473771762102842,0.5056107640266418,-0.876749575138092,0.10777957394459037,-0.6611658697515477,-0.06922952163489095,-0.03437324035274134,-0.6891672443472504,0.13237189902037166,0.5852159262611882,-0.8,0.0,0.002836942672729492,0
2.799743413925171,0.004115512128919363,0.5091458559036255,-0.8810114860534668,0.10243016474457015,-0.661242746274379,-0.13373447984702408,-0.05552225861555047,-0.6551894060455804,0.1295431722964955,0.5858485866769335,-0.8,0.0,0.002317667007446289,0
2.809598207473755,0.0018311580643057823,0.512616753578186,-0.8850820660591125,0.09703142739169245,-0.6613139466112977,-0.19652770405271697,-0.07656913586007151,-0.6208887414599685,0.12675129432555604,0.5864589579730164,-0.8,0.0,0.0017228126525878906,0
2.8199357986450195,-0.002528602257370949,0.5193811058998108,-0.8926643133163452,0.0859948719990023,-0.6619238012689671,-0.3216968250659496,-0.13740992689068476,-0.5507801098380992,0.12381954986103269,0.5870849334399676,-0.8,0.0,0.004090070724487305,0
2.829782009124756,-0.004609832540154457,0.5226798057556152,-0.8961796760559082,0.0803971790904781,-0.6623220075481057,-0.37509898861525565,-0.1546742813328309,-0.5151728146282433,0.12102428594270376,0.5876675269334342,-0.8,0.0,0.0034492015838623047,0
2.8396174907684326,-0.006628761533647776,0.5259242057800293,-0.899517297744751,0.07475374325968032,-0.6627774672816672,-0.42548629347474426,-0.17002276891113183,-0.4792573846240593,0.118229331478634,0.5882361984595263,-0.8,0.0,0.002330780029296875,0
2.849717378616333,-0.010490342043340206,0.5322636961936951,-0.9056727886199951,0.06350569283298589,-0.6640018736214274,-0.5209992286479942,-0.21921665057196543,-0.4076955761880783,0.11535646073468174,0.5888063238168963,-0.8,0.0,0.001953125,0
2.859466075897217,-0.01233669463545084,0.5353614091873169,-0.9084967970848083,0.057882481495003295,-0.6646687809314624,-0.5602388670233904,-0.22973269905875573,-0.3718621189272947,0.11258087680640241,0.5893433177507841,-0.8,0.0,0.0016624927520751953,0
2.8696417808532715,-0.014131424017250538,0.5384149551391602,-0.9111558794975281,0.05227149067488826,-0.6654387766070425,-0.5957297433734017,-0.23907988836963412,-0.33608954741979924,0.10968105308868897,0.5898898766662776,-0.8,0.0,0.0015342235565185547,0
2.8798153400421143,-0.015878118574619293,0.5414268374443054,-0.9136525392532349,0.04670005819061029,-0.6662669718030242,-0.6281898225234794,-0.24641337897527352,-0.3005541833954808,0.10677918872291634,0.5904220565457187,-0.8,0.0,0.003397226333618164,0
2.889665365219116,-0.01923179067671299,0.5473319292068481,-0.9181749224662781,0.035721912362485564,-0.6680648506871221,-0.6858722673723903,-0.2802564303904754,-0.23057117135740596,0.10396714731868635,0.5909237110477245,-0.8,0.0,0.002549409866333008,0
2.899707794189453,-0.02084217593073845,0.5502258539199829,-0.9202058911323547,0.030319306627679298,-0.6689720374403698,-0.7037155801299345,-0.2814719620396896,-0.19606416972431012,0.10109775195034713,0.5914213764741566,-0.8,0.0,0.0033097267150878906,0
2.909731388092041,-0.022410109639167786,0.5530779957771301,-0.9220886826515198,0.025045655354660083,-0.6699552520128016,-0.7166703508204065,-0.2807747933569213,-0.1623635372532748,0.09823136320505217,0.5919042146182751,-0.8,0.0,0.002604961395263672,0
2.9195752143859863,-0.023937836289405823,0.5558902621269226,-0.9238274693489075,0.019889140037845865,-0.6708807176134315,-0.7259149981196754,-0.2787238989355592,-0.12939760959169996,0.09541413729327623,0.5923648726963642,-0.8,0.0,0.0021376609802246094,0
2.929640769958496,-0.026874788105487823,0.5613936185836792,-0.9268877506256104,0.009965699007420127,-0.6730350642866032,-0.7332234832855256,-0.2898105682838998,-0.06597736164691366,0.09253122137816162,0.592822041653535,-0.8,0.0,0.0018999576568603516,0
2.9395298957824707,-0.028283974155783653,0.5640847086906433,-0.9282132387161255,0.005214644038535755,-0.6740893660598568,-0.728468499279484,-0.2793375619997596,-0.03555377563924533,0.08969670430578475,0.5932575336535395,-0.8,0.0,0.0018925666809082031,0
2.949737548828125,-0.02965373545885086,0.5667362213134766,-0.9294089078903198,0.0006385307220035447,-0.6751118083635426,-0.7201177575854525,-0.26490945712259084,-0.006233554065069308,0.08676873943270813,0.5936928379703251,-0.8,0.0,0.0017254352569580078,0
2.959617853164673,-0.03098384104669094,0.5693470239639282,-0.9304771423339844,-0.0037564619263212176,-0.6762176602546521,-0.7064155818538026,-0.24974468645402073,0.021938643482759937,0.0839326591303952,0.5941004197366813,-0.8,0.0,0.0016703605651855469,0
2.969559669494629,-0.03353163227438927,0.5744431614875793,-0.9322553277015686,-0.012019995228809427,-0.6784873327076001,-0.671190423596702,-0.23778869728467675,0.07489785289289992,0.08107699040645808,0.5944968642698051,-0.8,0.0,0.0021200180053710938,0
2.9797122478485107,-0.034749358892440796,0.5769259929656982,-0.9329736828804016,-0.015850057433228103,-0.6795396176831364,-0.6460644479629826,-0.21642025877246918,0.09948986066453167,0.0781588513454212,0.5948875473199656,-0.8,0.0,0.0024378299713134766,0
2.989751100540161,-0.03593045473098755,0.5793670415878296,-0.9335781335830688,-0.019449508359289897,-0.6806223002798324,-0.6196854327383418,-0.19357979778065462,0.1226041770159572,0.07527154958305021,0.595259770036046,-0.8,0.0,0.0022864341735839844,0
2.999546527862549,-0.037075940519571304,0.5817636251449585,-0.9340715408325195,-0.02279381189432826,-0.6817245319999113,-0.5890899130182897,-0.16974217641249936,0.14409225759247318,0.07245255142591801,0.5956094591188715,-0.8,0.0,0.002512216567993164,0
3.0095834732055664,-0.0392620712518692,0.5864118337631226,-0.93473881483078,-0.028849294386676428,-0.6839229360073621,-0.5185412617350131,-0.14058417451143607,0.18302844139346036,0.06956236351937345,0.5959539223644715,-0.8,0.0,0.002068042755126953,0
3.0195231437683105,-0.04030080512166023,0.588657796382904,-0.9349189400672913,-0.03152860575753277,-0.6850217753416334,-0.4787150686900323,-0.11089188551451144,0.20028069556117636,0.06669857286635936,0.596281225914074,-0.8,0.0,0.0019195079803466797,0
3.029475450515747,-0.04130399227142334,0.5908504128456116,-0.9349993467330933,-0.0339743874415241,-0.6861136455858882,-0.43539963668777626,-0.08084960684647755,0.21604299784051811,0.06382959926835792,0.5965951577554421,-0.8,0.0,0.001781463623046875,0
3.039672613143921,-0.04227235168218613,0.5929875373840332,-0.9349841475486755,-0.03620426135296848,-0.6871709848945937,-0.3913553593706884,-0.04960379409579964,0.2304198316070446,0.060888509267595044,0.5969024957555211,-0.8,0.0,0.0018630027770996094,0
3.049574613571167,-0.044108305126428604,0.5970931649208069,-0.9346801042556763,-0.03994511048552405,-0.6894208902470986,-0.30176320514437016,-0.012339274548137071,0.2545994683519023,0.05803113459644883,0.5971870623326068,-0.8,0.0,0.0018870830535888672,0
3.0595970153808594,-0.04497435688972473,0.5990585684776306,-0.9343950748443604,-0.041478247220168685,-0.6904214956520867,-0.2543502439839285,0.020507095119995416,0.2645186709770395,0.055137663016345234,0.5974611603419053,-0.8,0.0,0.0017383098602294922,0
3.069713830947876,-0.0458051860332489,0.6009628772735596,-0.934027910232544,-0.042811723293852494,-0.6913941362846896,-0.20589690314567907,0.05262679510270881,0.2731582585730625,0.05221562223113833,0.5977236224167614,-0.8,0.0,0.0018165111541748047,0
3.0794739723205566,-0.0466015450656414,0.6028039455413818,-0.9335795044898987,-0.043929557193606084,-0.6924244476278745,-0.15637090886978597,0.0849647371235241,0.28041615229424294,0.04939541573439328,0.597963287254683,-0.8,0.0,0.001729726791381836,0
3.0897538661956787,-0.04736308753490448,0.6045803427696228,-0.9330534934997559,-0.044849994746094746,-0.6933588680567907,-0.10766471738636409,0.1170869817717338,0.28640242726534804,0.04642383868426701,0.5982013266466543,-0.8,0.0,0.0017483234405517578,0
3.0994749069213867,-0.04809088632464409,0.6062905192375183,-0.932453453540802,-0.04556026272430486,-0.6943008315127643,-0.0595377298149451,0.14747988785400207,0.2910408737863461,0.04361275210172674,0.5984128406494243,-0.8,0.0,0.001794576644897461,0
3.1095521450042725,-0.04944492131471634,0.6095069050788879,-0.9310680627822876,-0.04637485958470999,-0.6962261960510371,0.03392761167223341,0.18301233363562566,0.2965001895893786,0.04069764647259556,0.5986181600750111,-0.8,0.0,0.0015759468078613281,0
3.1195600032806396,-0.05007233843207359,0.6110120415687561,-0.9302858710289001,-0.04654197852662848,-0.6971846529469508,0.07925290416093281,0.2111712962347381,0.2976489179879968,0.037801655125654844,0.5988080116947009,-0.8,0.0,0.0016574859619140625,0
3.12959885597229,-0.054620161652565,0.6184091567993164,-0.9373168349266052,-0.046653291577781655,-0.6950444301476263,0.11443582986922099,0.19889133620241572,0.2984984795726453,0.0348958063945599,0.5989843760033089,-0.8,0.0,0.002157926559448242,0
3.1395955085754395,-0.05679255723953247,0.6219262480735779,-0.9405707120895386,-0.0465411409012596,-0.6940352809544841,0.13134286530279077,0.20376159226039825,0.2978057704246545,0.032001356477445564,0.5991459865371739,-0.8,0.0,0.0016264915466308594,0
3.1496353149414062,-0.058897919952869415,0.6253227591514587,-0.9436575770378113,-0.04628902656075078,-0.6930233037956581,0.14714050297264303,0.20906595555624996,0.2962108035193295,0.02909365994071022,0.5992942173517564,-0.8,0.0,0.001676797866821289,0
3.1595659255981445,-0.06093583628535271,0.6286014914512634,-0.946582555770874,-0.045929936761582565,-0.69205561607179,0.15947197291731702,0.2133535099575858,0.2939195249899839,0.026216914158339422,0.5994269541920969,-0.8,0.0,0.0017094612121582031,0
3.16972017288208,-0.06481970846652985,0.6348118185997009,-0.9519402384757996,-0.044816305979216965,-0.6902581784324546,0.1805879515862653,0.1917608266119963,0.2869225791587246,0.02327476027413811,0.5995484013273502,-0.8,0.0,0.001547098159790039,0
3.179415464401245,-0.0666709765791893,0.637743353843689,-0.9543966054916382,-0.04409473595531132,-0.689458053480999,0.18956244907061792,0.1905608054502157,0.2823199808779939,0.020465062886499633,0.5996508827651733,-0.8,0.0,0.0018515586853027344,0
3.189850330352783,-0.06846382468938828,0.6405609846115112,-0.956708550453186,-0.043260664544647345,-0.6887354310685108,0.19636606138901808,0.1903091107145971,0.2769833604865716,0.01744053633702953,0.5997464695121404,-0.8,0.0,0.002729177474975586,0
3.199646472930908,-0.07019956409931183,0.6432673335075378,-0.9588788747787476,-0.04233659410872141,-0.6880875916661292,0.20098986087656548,0.18784181212704865,0.2710712895562768,0.01460073742976241,0.5998223224143189,-0.8,0.0,0.0020210742950439453,0
3.2095744609832764,-0.0735071524977684,0.6483535766601562,-0.9628064632415771,-0.04024842149874337,-0.6871450930407094,0.2051827571280709,0.1571329979288032,0.2578062063040389,0.011722384248946413,0.5998854771600326,-0.8,0.0,0.0019555091857910156,0
3.219642162322998,-0.07508260756731033,0.6507366895675659,-0.9645654559135437,-0.03907051936939635,-0.6868697495698711,0.20789214536366302,0.15372817312740567,0.2502656021557937,0.00880324964575911,0.5999354155204328,-0.8,0.0,0.002132892608642578,0
3.229654312133789,-0.0766083225607872,0.6530117392539978,-0.9661896228790283,-0.03783238771589643,-0.6866441847389521,0.2102749400664162,0.1493245122943611,0.24234209989504182,0.005900015392191252,0.5999709908140325,-0.8,0.0,0.0020461082458496094,0
3.2395060062408447,-0.0780850350856781,0.6551815867424011,-0.9676724076271057,-0.03656410033285509,-0.6865829323074966,0.2108718856578252,0.14549381015975055,0.23421736178123082,0.003043173447815308,0.5999922825298393,-0.8,0.0,0.0018916130065917969,0
3.2496695518493652,-0.08090004324913025,0.6592167019844055,-0.9702454209327698,-0.03380580870266371,-0.6867168521123603,0.20973612104701328,0.11225561620094256,0.21664632086693453,9.582770566281102e-05,0.5999999923475423,-0.8,0.0,0.0018429756164550781,0
