time,x,y,z,yaw,throttle,roll_rate,pitch_rate,yaw_rate,x_ref,y_ref,z_ref,yaw_ref,mpc_time,metadata
9.5367431640625e-07,-0.004853079095482826,-0.009409468621015549,0.05860278755426407,-0.0052439334748077895,-0.8398086353288564,0.06702585292504375,-0.7999999999999992,0.005129880682518002,0.5999999999999363,2.7655903627744954e-07,-0.7000001382795181,3.994741635118857e-07,0.0037004947662353516,Sim
0.009913206100463867,-0.004817088134586811,-0.009268336929380894,0.0586124025285244,-0.0052527084858496696,-0.840086412851488,0.07180598411630829,-0.7999999999999992,0.024510284422534875,0.5999931131325079,0.0028747510433893386,-0.7014373755216946,0.004152434061165174,0.0026335716247558594,Horizon:3.0
0.020038127899169922,-0.0047849914990365505,-0.009132270701229572,0.058632876724004745,-0.005284678442399258,-0.8403501224299905,0.07656074786997409,-0.7999999999999992,0.044429057058161775,0.5999718612253919,0.005810829350363422,-0.7029054146751816,0.008393551386629986,0.0025205612182617188,Num Steps:20
0.030039310455322266,-0.004729169420897961,-0.008874700404703617,0.05870223790407181,-0.005346861723495446,-0.840621213217423,0.08037101394291955,-0.7999999999999992,0.06447823482608889,0.5999367636817208,0.00871088876654231,-0.7043554443832711,0.012582836939379132,0.0026175975799560547,No Pyjoules
0.03993988037109375,-0.0047043995000422,-0.0087533388286829,0.058750737458467484,-0.0053547135109234985,-0.840863089519596,0.0850864670638771,-0.799999999999999,0.08380856186880922,0.5998882122229665,0.01158157311996251,-0.7057907865599812,0.016729977967877774,0.002537250518798828,0
0.05001211166381836,-0.004680586513131857,-0.008637120015919209,0.05880627781152725,-0.005373007572704716,-0.8410933357566246,0.09003013072509095,-0.799999999999999,0.10344155886285251,0.5998247235675219,0.014501758415649591,-0.7072508792078247,0.020949024345808556,0.004978656768798828,0
0.059964656829833984,-0.004656707867980003,-0.00852514524012804,0.05887594819068909,-0.005381502760653319,-0.8413308584792862,0.09451707675615707,-0.799999999999999,0.12295747210011938,0.5997480266602585,0.0173869064852228,-0.7086934532426113,0.025117936716218592,0.0030519962310791016,0
0.07000565528869629,-0.004604747518897057,-0.00831625983119011,0.05899517610669136,-0.005430112095645748,-0.8403913492253088,0.09971587770538416,-0.7999999999999984,0.1430194686300798,0.5996565851238224,0.020297288430626347,-0.7101486442153131,0.02932390031529436,0.002597332000732422,0
0.080047607421875,-0.004549327772110701,-0.00821627490222454,0.0589330717921257,-0.005451666708494413,-0.8384966019817398,0.1035550164591701,-0.7999999999999949,0.16364475168495704,0.5995510098374268,0.023207468688372326,-0.7116037343441861,0.03353026338853364,0.0025238990783691406,0
0.08983778953552246,-0.004467404447495937,-0.0081153754144907,0.05870700255036354,-0.005454567956215238,-0.8360179847044968,0.10677777185087817,-0.7999999999998868,0.1840868433690362,0.5994344849491937,0.026044159684943228,-0.7130220798424716,0.03763116528260578,0.0024492740631103516,0
0.09992742538452148,-0.004359277430921793,-0.008013838902115822,0.05828603357076645,-0.0055048409668810245,-0.8332714522654519,0.11086960380744082,-0.7999999999976313,0.2054764441739564,0.5993003525409879,0.028967006131935237,-0.7144835030659675,0.041857502064020655,0.003392457962036133,0
0.1100168228149414,-0.0040698787197470665,-0.007817893289029598,0.056805308908224106,-0.005512043871450361,-0.8275676778771629,0.10894566032638764,-0.7999999999999169,0.23189376364686215,0.5991519720740837,0.03188909468355148,-0.7159445473417757,0.04608373897689465,0.002695798873901367,0
0.1200103759765625,-0.003893987275660038,-0.007721541915088892,0.05573857203125954,-0.0054493096016782145,-0.8245391029319817,0.10970008476022822,-0.7999999999999726,0.2525751681977524,0.5989909559786075,0.034782677525368566,-0.7173913387626842,0.050269828736335696,0.003955841064453125,0
0.13021063804626465,-0.003695304272696376,-0.007626248057931662,0.054416362196207047,-0.005303767427240407,-0.8214590794908329,0.11001266866260849,-0.7999999999999751,0.2732648124513205,0.5988121984831437,0.03773527458206816,-0.7188676372910341,0.054542504520717947,0.003171205520629883,0
0.13994789123535156,-0.0034718592651188374,-0.0075312950648367405,0.052873026579618454,-0.005086891034341354,-0.8183490266507905,0.10895956158458481,-0.7999999999999914,0.2927450570310157,0.5986279769178151,0.04055299312361303,-0.7202764965618065,0.058621235598715175,0.0024132728576660156,0
0.15001273155212402,-0.0029422910884022713,-0.0073451269418001175,0.04913514479994774,-0.004442008726108321,-0.8120024460040353,0.09888412867374823,-0.7999999999999999,0.3123262448493506,0.5984236223697097,0.043464562460871686,-0.7217322812304358,0.06283718605187874,0.0021467208862304688,0
0.16011381149291992,-0.0026292274706065655,-0.00725262938067317,0.04695098102092743,-0.003959713545476554,-0.8090014716607242,0.09628962117532529,-0.8,0.3314827842020884,0.5982042944263308,0.046385581055923386,-0.7231927905279616,0.06706831652325576,0.002190113067626953,0
0.1699662208557129,-0.002277033170685172,-0.007160360924899578,0.04456325247883797,-0.003373078704885622,-0.8060259042602352,0.09290498380390248,-0.8,0.34984953617535125,0.5979766301328185,0.049233624841142805,-0.7246168124205714,0.07119528410649704,0.0019369125366210938,0
0.17991137504577637,-0.001882574986666441,-0.0070678419433534145,0.04197820648550987,-0.002719386520785385,-0.803109372346088,0.08960200289983829,-0.7999999999999999,0.36811330720137375,0.5977330712697944,0.052107346030851216,-0.7260536730154256,0.07536110055213988,0.0018835067749023438,0
0.19005680084228516,-0.0009494552505202591,-0.006876884028315544,0.03624599799513817,-0.00111570771083202,-0.7971932535022334,0.07673661505830315,-0.8,0.38366093590325845,0.597470377514247,0.05503769610896745,-0.7275188480544836,0.07961080657212019,0.002523183822631836,0
0.20013213157653809,-0.00039684268995188177,-0.006778116337954998,0.03308825567364693,-0.00015610060256020917,-0.7944134201127602,0.07351396387808502,-0.7999999999980468,0.40080433935192966,0.5971952814643253,0.05794649080613312,-0.7289732454030665,0.08383115124108238,0.0027010440826416016,0
0.2101306915283203,0.00021613088028971106,-0.006675943732261658,0.029762543737888336,0.0009326282121140299,-0.7917126023128478,0.07029072055543568,-0.7999999998604935,0.4172266614482902,0.5969082815563634,0.06083176316225883,-0.7304158815811294,0.08801933823988187,0.0021812915802001953,0
0.22005486488342285,0.0008944151923060417,-0.006569302640855312,0.026276621967554092,0.0021230631078706483,-0.789076227496937,0.06599042787966908,-0.7999999996694545,0.43317592859733145,0.5966096322687003,0.06369416522889769,-0.7318470826144488,0.09217636625392743,0.0017254352569580078,0
0.23004388809204102,0.002464644843712449,-0.0063374531455338,0.018851015716791153,0.004817408908545691,-0.783682067962236,0.05248112492340631,-0.799999999441465,0.44340158240120625,0.5962951704018234,0.06657379180623815,-0.733286895903119,0.0963605585110918,0.002238750457763672,0
0.24028754234313965,0.0033682393841445446,-0.006209728308022022,0.01492323912680149,0.006352715566396983,-0.7811645083954731,0.04887115903611138,-0.7999999995594361,0.4585284719881085,0.5959582577948341,0.0695252110111582,-0.734762605505579,0.10065141036991385,0.0031175613403320312,0
0.2500464916229248,0.0043577635660767555,-0.006073216907680035,0.01086072064936161,0.00798779625104402,-0.7787336665160584,0.04483787941640753,-0.7999999999999974,0.4722939664179284,0.5956236992024397,0.07233539208714862,-0.7361676960435742,0.10473922948513097,0.002644777297973633,0
0.260204553604126,0.0054370141588151455,-0.005925564561039209,0.006671388633549213,0.009719825149470781,-0.7758834894254494,0.03715751660396134,-0.7550310517036953,0.488986393087307,0.5952613832189274,0.07525879116946572,-0.7376293955847328,0.10899422853777782,0.0020439624786376953,0
0.2702312469482422,0.007885044440627098,-0.005602551158517599,-0.002067957539111376,0.013522361927512378,-0.7703912983612866,0.02686103124236588,-0.6015545313718444,0.491288793102692,0.5948896816323574,0.07814260481550635,-0.7390713024077531,0.1131942000244009,0.001965761184692383,0
0.2800469398498535,0.009261722676455975,-0.00542421592399478,-0.006609129719436169,0.015600203871852339,-0.7678248279063489,0.02537643387723842,-0.5223265709187122,0.5017329472124419,0.5945122690437171,0.08096395467423069,-0.7404819773371153,0.117305787852347,0.0018842220306396484,0
0.29015493392944336,0.010745887644588947,-0.005233557894825935,-0.011257970705628395,0.01777095363667781,-0.7653138680463167,0.0244163086941485,-0.44138022500340335,0.5123863230064991,0.5941096333857894,0.08386741630814021,-0.74193370815407,0.12153981451140947,0.0026803016662597656,0
0.30008578300476074,0.012342097237706184,-0.005029600579291582,-0.01600871980190277,0.020026232836135173,-0.7628665672087811,0.024227770019596986,-0.3594204054384748,0.5223175735856594,0.5937002447806241,0.086718045108426,-0.7433590225542129,0.12569963884459961,0.002852916717529297,0
0.30995678901672363,0.015884999185800552,-0.00457893218845129,-0.025789014995098114,0.024856718662576,-0.7579077352285728,0.018502544883063795,-0.19226205799215254,0.5198012612170766,0.5932797688338454,0.0895495164278344,-0.7447747582139171,0.1298343961740294,0.0028600692749023438,0
0.32024669647216797,0.017836812883615494,-0.0043297722004354,-0.03081032633781433,0.027450263609627386,-0.7556229309289877,0.020671848354963777,-0.10744330142077828,0.5290201014811011,0.5928270735446005,0.09249897768378175,-0.7462494888418908,0.13414462252978177,0.0027129650115966797,0
0.32999515533447266,0.019912725314497948,-0.004065357148647308,-0.035912808030843735,0.030151450354149987,-0.7533884366995588,0.023281265429389603,-0.021442251285870607,0.5365976715529933,0.5923846726463988,0.09529113082348678,-0.7476455654117433,0.13822804742920025,0.0024771690368652344,0
0.3400411605834961,0.022114569321274757,-0.0037850590888410807,-0.04109160602092743,0.032959025909478426,-0.7511700070479604,0.02735427814859854,0.06906565881009637,0.5442097191126345,0.5919150098331731,0.09816629326909812,-0.749083146634549,0.14243610826763445,0.0016465187072753906,0
0.3501396179199219,0.025904059410095215,-0.0030924188904464245,-0.04999591410160065,0.03889383953754171,-0.7469874097999516,0.02948121245317534,0.24236398844555357,0.5368017647895692,0.5914288307316277,0.10105413489521188,-0.7505270674476059,0.1466661401850618,0.002348661422729492,0
0.3602006435394287,0.02801097370684147,-0.002719837473705411,-0.05457713454961777,0.041999107638581834,-0.7450991936697144,0.03518708859046891,0.32637538539040933,0.5430505369690736,0.5909304428153874,0.10392887834480898,-0.7519644391724044,0.15088049274157134,0.0029861927032470703,0
0.37031984329223633,0.03026231750845909,-0.002330395160242915,-0.05923529341816902,0.04516693330414499,-0.7433167385041821,0.04271150093298952,0.4075274389260085,0.5491653224248721,0.5904150786459116,0.10681776494358032,-0.7534088824717902,0.15511921322205507,0.0020551681518554688,0
0.37996768951416016,0.03265707939863205,-0.001924619311466813,-0.06396392732858658,0.048464415896772015,-0.7415759724450847,0.0509343557560723,0.4843883332749329,0.5536721435202212,0.5899105686260359,0.10956970851155477,-0.7547848542557773,0.15916049359722306,0.001971006393432617,0
0.3900306224822998,0.037878379225730896,-0.0010603541741147637,-0.07361722737550735,0.055312194882813685,-0.7379394892843743,0.06108293434869673,0.6269277757463727,0.5418502280978381,0.5893706863683762,0.11243751175505919,-0.7562187558775295,0.1633756451020596,0.002068042755126953,0
0.4001500606536865,0.04070715978741646,-0.0005993356462568045,-0.07853403687477112,0.05888684979241886,-0.7363243446631276,0.07073792676974626,0.6924132859843898,0.5459688096408193,0.588813713440318,0.1153187359652504,-0.7576593679826251,0.16761446545108422,0.002554178237915039,0
0.4099769592285156,0.043680042028427124,-0.00011957206879742444,-0.08350541442632675,0.06255429658971204,-0.73475467945894,0.08180334926965552,0.7529550429312669,0.5490343192992831,0.5882593614343875,0.11811402831504234,-0.7590570141575211,0.17173074710045155,0.002117633819580078,0
0.42006587982177734,0.04680071026086807,0.0003780630067922175,-0.0885443314909935,0.06630182651291092,-0.7331023945937839,0.09308810292807627,0.7999999997136066,0.5532841080388512,0.5876764228825954,0.12098108111567271,-0.7604905405578363,0.1759567842762438,0.0021386146545410156,0
0.4301304817199707,0.053474314510822296,0.0014332691207528114,-0.09875687211751938,0.07398280855686684,-0.7286159299951334,0.09758140683635812,0.8,0.5486964722959139,0.5870809666097792,0.12383835691952375,-0.7619191784597619,0.1801726348608665,0.0018229484558105469,0
0.4399242401123047,0.05702695995569229,0.001993008889257908,-0.10392037034034729,0.07792328236887697,-0.7266624187541432,0.1066854297139927,0.8,0.5556722694227715,0.5864881980155305,0.12661592944213532,-0.7633079647210677,0.1842750347830518,0.0018296241760253906,0
0.45007920265197754,0.060720399022102356,0.0025725041050463915,-0.10911748558282852,0.081902267950898,-0.7248520053451963,0.11731105370029785,0.7999999999049275,0.5627984942380421,0.585859690687683,0.1294929450871068,-0.7647464725435533,0.18852873554466723,0.001657724380493164,0
0.45996713638305664,0.06455223262310028,0.003171993186697364,-0.11434468626976013,0.08595270552364437,-0.7231466492660289,0.12884357742194658,0.7999999998312494,0.5686888214706064,0.5852341487670376,0.13229131157003823,-0.766145655785019,0.19267058354049935,0.0018413066864013672,0
0.470181941986084,0.07261916995048523,0.004431122913956642,-0.12487867474555969,0.09419555631872345,-0.7198175663926105,0.14210179805164658,0.7999999999987102,0.556257372532167,0.5845738916194323,0.13517901182103748,-0.7675895059105187,0.19694935130587515,0.003515481948852539,0
0.480313777923584,0.0768505185842514,0.005091847851872444,-0.13018018007278442,0.09837647693230588,-0.718463293421668,0.15508581345668054,0.7999999999995582,0.560476073875348,0.5839049219054622,0.13804000208119405,-0.769020001040597,0.20119336481902542,0.0033485889434814453,0
0.48994946479797363,0.08121655881404877,0.005772999953478575,-0.13553346693515778,0.10259304136191406,-0.7171984404379154,0.16752715631778894,0.7999999999999999,0.562916891570877,0.5832557206317704,0.1407578216310346,-0.7703789108155172,0.20522955189860864,0.002379894256591797,0
0.5000290870666504,0.08570872992277145,0.006474839523434639,-0.1409028023481369,0.10682322938859128,-0.7160603706232233,0.1810223179650516,0.7999999999999928,0.5659681198296611,0.5825630717583232,0.14359758850171084,-0.7717987942508554,0.20945169420130663,0.002339601516723633,0
0.5101089477539062,0.09505712240934372,0.007940233685076237,-0.1516752988100052,0.11529428201428356,-0.7138567944423182,0.1972068335876253,0.7999999999999996,0.547163938217704,0.5818565797852437,0.14643401435670006,-0.77321700717835,0.21367393637254553,0.002691507339477539,0
0.5200397968292236,0.09990737587213516,0.008704395033419132,-0.15707354247570038,0.11957685501934351,-0.7130384540040378,0.21001772809157335,0.7999999999999996,0.5481979071934592,0.5811470264872894,0.14922511050416976,-0.7746125552520848,0.21783376070573565,0.002239704132080078,0
0.530123233795166,0.10486899316310883,0.009490590542554855,-0.16247692704200745,0.12388543751834188,-0.7123113587635727,0.22238451966843573,0.7999999999999997,0.5488753336623508,0.5804128723386255,0.15205557412875867,-0.7760277870643792,0.22205750090508772,0.0018970966339111328,0
0.5399303436279297,0.10993610322475433,0.010297889821231365,-0.16788309812545776,0.12819862338373356,-0.7116606111438357,0.23496788985605488,0.8,0.5485825471222244,0.5796856127150872,0.15480500770690164,-0.7774025038534508,0.2261654934655622,0.0020596981048583984,0
0.5500328540802002,0.11510498076677322,0.011124957352876663,-0.17329101264476776,0.13251435550785362,-0.711091419923189,0.2481430567434791,0.7999999999796037,0.5484896215919,0.578922828999422,0.15763361971136097,-0.7788168098556805,0.23039722314818448,0.001590728759765625,0
0.5601522922515869,0.1257314234972,0.012837684713304043,-0.1841079741716385,0.14118771619307885,-0.709945406261631,0.25922359836494824,0.7999999999821966,0.5233656861753759,0.5781449301673135,0.16046320363819297,-0.7802316018190965,0.2346360434972091,0.0016460418701171875,0
0.5699527263641357,0.1311817169189453,0.013724563643336296,-0.18951088190078735,0.14551785676734205,-0.7096101287312909,0.26914462412492796,0.7999999999761853,0.5210918290779291,0.5773783706499546,0.1631999298578394,-0.7815999649289197,0.23874123973853897,0.0015566349029541016,0
0.580141544342041,0.1367163211107254,0.014631279744207859,-0.19490671157836914,0.14987612777567508,-0.7093491103391558,0.27993846862308,0.7999999999642273,0.5192335142769303,0.5765676983733667,0.16604122738777374,-0.7830206136938869,0.24300912183295909,0.0017230510711669922,0
0.5899755954742432,0.14801853895187378,0.01650303229689598,-0.20566904544830322,0.15861056570635884,-0.7087060708841709,0.28439213833471116,0.8,0.4893312154797542,0.5757719926304806,0.16877977515782444,-0.7843898875789121,0.24712839953855278,0.0016963481903076172,0
0.5999679565429688,0.15377871692180634,0.017470208927989006,-0.21103373169898987,0.16298839904891438,-0.7086228512901512,0.29221042188533347,0.7999999999788089,0.4851918815954266,0.574950154513485,0.17155850263079278,-0.7857792513153964,0.2513139899552894,0.0019292831420898438,0
0.6099836826324463,0.15960483253002167,0.018457110971212387,-0.21638573706150055,0.16736480026435946,-0.7083779920252431,0.2979256516958465,0.7999999979996621,0.48260330163940607,0.5741129373409203,0.17433971199293768,-0.7871698559964688,0.25550936748903214,0.001699686050415039,0
0.6198694705963135,0.16549107432365417,0.01946434937417507,-0.2217252105474472,0.17174603661230464,-0.7080375045656314,0.3031319233362915,0.8,0.480564993187906,0.5732733888476383,0.17708083363013757,-0.7885404168150687,0.2596503166679963,0.0020666122436523438,0
0.6300179958343506,0.17743146419525146,0.021538177505135536,-0.23239865899085999,0.18049783305438274,-0.7071359490216411,0.2978352472624818,0.8,0.45434487533702017,0.5723979137611583,0.17989060098257906,-0.7899453004912895,0.2639013209790081,0.0027055740356445312,0
0.6401505470275879,0.18347537517547607,0.022607440128922462,-0.23772989213466644,0.18485002897453204,-0.7068695260524296,0.2998984201963495,0.8,0.45212417132086213,0.5715100778458309,0.18269162794351684,-0.7913458139717584,0.26814563409778097,0.0031540393829345703,0
0.6499326229095459,0.1895618587732315,0.023699603974819183,-0.24304810166358948,0.18921893596461267,-0.706593524823777,0.30015686543674325,0.8,0.4488352348761045,0.57063994732541,0.18539161393238165,-0.7926958069661908,0.27224314046146325,0.002302408218383789,0
0.6601550579071045,0.19568754732608795,0.024813707917928696,-0.24835212528705597,0.19357212241130192,-0.706396870749419,0.3017577364323286,0.8,0.44637156966111885,0.5697170167951272,0.18820871598855546,-0.7941043579942777,0.2765251040201472,0.0021407604217529297,0
0.6701667308807373,0.20803003013134003,0.027103858068585396,-0.2589116394519806,0.20221104374818386,-0.7057249189645458,0.28631066172805636,0.799999996705437,0.41786853543943625,0.5687996346535259,0.19096328342908067,-0.7954816417145403,0.28071878378869497,0.0015861988067626953,0
0.6800687313079834,0.21424001455307007,0.028281480073928833,-0.26416996121406555,0.2065148079432603,-0.7055341168991445,0.28461300721189614,0.7999999999999994,0.414117739440274,0.5678792017303774,0.1936832781684297,-0.7968416390842148,0.28486652402843887,0.0017693042755126953,0
0.690068244934082,0.22047185897827148,0.02948049269616604,-0.269413560628891,0.21080298365333947,-0.705382590028189,0.2820951463324234,0.7999999999999998,0.4104396155461532,0.5669365049401568,0.196425556805217,-0.7982127784026085,0.28905511050140187,0.002411365509033203,0
0.7001094818115234,0.22672131657600403,0.03070090338587761,-0.2746415138244629,0.21509462920973724,-0.7051550849207169,0.2793860084271685,0.7999999999999974,0.4082652883098392,0.5659765494273546,0.19917466078370805,-0.7995873303918539,0.2932611739690185,0.0031385421752929688,0
0.7101242542266846,0.23925116658210754,0.03319802135229111,-0.28509533405303955,0.22353712041039497,-0.7043360392051968,0.2551151802905701,0.7999999999999999,0.3843620214115822,0.5650058461289119,0.20191184670581433,-0.8009559233529071,0.2974561520285977,0.002341032028198242,0
0.7201883792877197,0.24552106857299805,0.03448297455906868,-0.29029640555381775,0.2277141755023605,-0.7040927206772537,0.24892429847643385,0.7999999999999999,0.38328109581204917,0.564017023704815,0.20465775570733247,-0.8023288778536661,0.30167180287613865,0.0021867752075195312,0
0.7299766540527344,0.2517887353897095,0.03579075261950493,-0.29547998309135437,0.23188256028619536,-0.7038527654010048,0.241972258999098,0.7999999999998736,0.3815534451726854,0.5630425026872112,0.20732375688213298,-0.8036618784410664,0.30577190582188374,0.0020401477813720703,0
0.7400205135345459,0.2580488920211792,0.037121254950761795,-0.3006458580493927,0.235997297340234,-0.7036279709409575,0.2355978788744453,0.7999999999993768,0.3804977238624809,0.5620294363816339,0.2100545468218739,-0.8050272734109369,0.30997906784345003,0.002187967300415039,0
0.7500810623168945,0.268098920583725,0.039435748010873795,-0.3118661046028137,0.24416329364296938,-0.7026179880890214,0.2027819759769215,0.7999999999995697,0.3563195890445371,0.5610014092998786,0.21278491197345253,-0.8063924559867263,0.3141932206628778,0.0038034915924072266,0
0.7599077224731445,0.27312982082366943,0.04063469171524048,-0.31743231415748596,0.24820149736983976,-0.702249269661053,0.19301295826876488,0.7999999999934031,0.35438065289715087,0.5599844765226443,0.21544694486963625,-0.8077234724348181,0.31830940244370426,0.0019190311431884766,0
0.7700762748718262,0.27815860509872437,0.041861146688461304,-0.3229696750640869,0.25219349722729334,-0.7019178888091118,0.18292104120386316,0.7999999999844398,0.3533199363177555,0.5589188640623352,0.21819647887917187,-0.8090982394395859,0.32256879571214975,0.002122640609741211,0
0.7798337936401367,0.28317829966545105,0.043116867542266846,-0.32850298285484314,0.2561938987406513,-0.7015499266887506,0.1732092945184544,0.7752859451800783,0.3525094990894219,0.5578836328610826,0.22082991687205986,-0.8104149584360298,0.3266560156161216,0.0016541481018066406,0
0.7899160385131836,0.29317063093185425,0.04570288956165314,-0.33947527408599854,0.2640219737633586,-0.7005382129722965,0.1372863373906564,0.6923762722660936,0.3338610272256172,0.5568009158171677,0.2235458345511346,-0.8117729172755672,0.3308792564727693,0.0016505718231201172,0
0.8001518249511719,0.29813432693481445,0.047037649899721146,-0.34491202235221863,0.2678980984047542,-0.700229824145054,0.12523249458941044,0.6491242929848047,0.3354894793695727,0.5556881850719649,0.2262976822051557,-0.8131488411025778,0.33516681266974235,0.001623392105102539,0
0.8099246025085449,0.3030715584754944,0.04839946702122688,-0.3503159284591675,0.27172818644749186,-0.6998825002253911,0.11333479855523455,0.6052922508368436,0.3363665681829756,0.5546130962299666,0.22891988443603978,-0.8144599422180199,0.33926042416033036,0.0016651153564453125,0
0.8200750350952148,0.3079768717288971,0.049786172807216644,-0.3556884229183197,0.2755177859243045,-0.6995355451023686,0.10259746301832816,0.5589281490099293,0.3381706217985929,0.5534833622968568,0.2316380099650452,-0.8158190049825226,0.34351222741966914,0.0018100738525390625,0
0.8301169872283936,0.3128437399864197,0.05119772627949715,-0.3610289692878723,0.27929370940350656,-0.699203396640375,0.09101075069931862,0.5109702786968119,0.33980295760913165,0.5523525935587893,0.23432160034635927,-0.8171608001731796,0.34771859049290843,0.002341032028198242,0
0.8401446342468262,0.3176679015159607,0.052634574472904205,-0.3663359582424164,0.28302510557927674,-0.698909624136465,0.07912468432879373,0.46160524783326584,0.34161145405344223,0.5512104519923161,0.2369958599098867,-0.8184979299549433,0.351918961453695,0.002789020538330078,0
0.8501193523406982,0.32717302441596985,0.05558493733406067,-0.37686213850975037,0.2904523910248401,-0.69804450190946,0.038704912860809314,0.36313519191158616,0.32477830360675086,0.5500614937220069,0.23965048116854384,-0.8198252405842719,0.3560971615984067,0.0025529861450195312,0
0.8600962162017822,0.33184579014778137,0.057095278054475784,-0.382082462310791,0.2940703597396555,-0.6977414208103623,0.028159395852085056,0.3126182414807823,0.32701437056137483,0.5488994996355193,0.24230010173311206,-0.821150050866556,0.3602762605599863,0.002250194549560547,0
0.8700666427612305,0.3410104215145111,0.06018122658133507,-0.392419695854187,0.30124469046552893,-0.6968590612596566,-0.00982408064195556,0.21136170242290903,0.3114341092652353,0.5477255046280269,0.24494238420488446,-0.8224711921024421,0.3644526630709622,0.001972198486328125,0
0.8801534175872803,0.34549617767333984,0.0617607980966568,-0.39753520488739014,0.3047334003016871,-0.6965980479061118,-0.02290373116542646,0.162110303746823,0.31466127251501386,0.5465248671985478,0.24760971211487193,-0.8238048560574359,0.36867780142988654,0.001850128173828125,0
0.8899304866790771,0.34991389513015747,0.06336537003517151,-0.4026157259941101,0.30820593341226993,-0.6963100113052796,-0.03604884853772373,0.11346333959905756,0.31734065651145604,0.545348696812824,0.25018952592895355,-0.8250947629644767,0.37277321055421037,0.0018651485443115234,0
0.9001083374023438,0.3542603552341461,0.06499220430850983,-0.40766024589538574,0.3116493811545706,-0.6960909968647445,-0.047048288191816515,0.06477244303596133,0.3209424154224453,0.544111376560912,0.25286915568528595,-0.826434577842643,0.3770364986957501,0.0017611980438232422,0
0.9100425243377686,0.36272332072257996,0.06830315291881561,-0.4176357090473175,0.31837912954164005,-0.6953523931198297,-0.08432266999676263,-0.030430189454469177,0.30775927651542606,0.5428909807537469,0.25547873300185825,-0.827739366500929,0.38119772118851253,0.0018374919891357422,0
0.9200811386108398,0.3668329417705536,0.06999267637729645,-0.4225778877735138,0.3216798448030176,-0.6951405286316235,-0.09665119484534501,-0.07562383861959489,0.311916299529601,0.5416450427777426,0.258109758890084,-0.829054879445042,0.38540268610217954,0.001791238784790039,0
0.9300487041473389,0.37085917592048645,0.07170351594686508,-0.42748168110847473,0.3249709208368729,-0.6949393351534953,-0.1086049873110228,-0.1188163280783,0.3160024182205805,0.5403953072466604,0.26071615198485015,-0.8303580759924251,0.38957789019066486,0.002513408660888672,0
0.9401645660400391,0.3747997283935547,0.07343338429927826,-0.43234649300575256,0.32818565053061854,-0.6947440672531787,-0.1183396597217219,-0.16078826746364114,0.32073642054600915,0.539114155291338,0.2633551358232966,-0.8316775679116483,0.3938152125115763,0.003362894058227539,0
0.9500281810760498,0.38241639733314514,0.07694756984710693,-0.4419585168361664,0.3344793405255794,-0.6941245662623018,-0.15298138097898695,-0.23764669506256672,0.30997649494360213,0.5378525404246111,0.2659222532222381,-0.832961126611119,0.3979468739162389,0.002447843551635742,0
0.9601619243621826,0.38609039783477783,0.07873441278934479,-0.446701318025589,0.3375108541821887,-0.6940229554295886,-0.16295465089301792,-0.2722179161406996,0.3158373251034349,0.5365436442536982,0.26855337981667804,-0.8342766899083389,0.4021916863777162,0.002254486083984375,0
0.9700126647949219,0.38967302441596985,0.08054140955209732,-0.4514029324054718,0.340493622185989,-0.6938753939784228,-0.17268704339703345,-0.3044719109703881,0.3213902176888551,0.5352589640755272,0.2711048531044648,-0.8355524265522324,0.40631795488117134,0.0021376609802246094,0
0.9801902770996094,0.3931615352630615,0.08236578106880188,-0.45606252551078796,0.34346124776406334,-0.6938069940584572,-0.1803895791587376,-0.3356837862278726,0.3276582020295287,0.5339189116284595,0.2737345352809565,-0.8368672676404783,0.41058114315417016,0.0030117034912109375,0
0.9902784824371338,0.39985421299934387,0.08605784177780151,-0.4652789235115051,0.34919541396735193,-0.6932881497680417,-0.20834589152093352,-0.3898668421732086,0.320442569839191,0.5325778814366228,0.27633458018221063,-0.8381672900911052,0.4148068807243398,0.003144502639770508,0
1.0000674724578857,0.40305736660957336,0.08792664110660553,-0.46983662247657776,0.35195669121143885,-0.693221257260076,-0.21518859011144242,-0.41295044956185123,0.3270724325381834,0.531264522079404,0.2788512283991993,-0.8394256141995996,0.41890728327570753,0.002255678176879883,0
1.010101318359375,0.40616482496261597,0.08981049060821533,-0.4743506908416748,0.3546655247555086,-0.6931505390186161,-0.2203084712807946,-0.4340404963786449,0.33444951604815887,0.5299059693808125,0.2814243479420027,-0.8407121739710013,0.42311025081855697,0.0020461082458496094,0
1.0198707580566406,0.409176230430603,0.09170715510845184,-0.4788212776184082,0.3573005451336526,-0.6930944553494327,-0.224911067121527,-0.45291681731776134,0.34167616681198487,0.5285712419807627,0.28392330328966325,-0.8419616516448316,0.4272024641495727,0.0016982555389404297,0
1.0300178527832031,0.4120909571647644,0.09361694753170013,-0.483247846364975,0.35989462321287746,-0.6930755890061356,-0.22897140451597114,-0.46963528450156256,0.34992100152037664,0.5271724419895392,0.28651215752003595,-0.843256078760018,0.4314528692493392,0.0016796588897705078,0
1.0401341915130615,0.41763558983802795,0.09747319668531418,-0.49196770787239075,0.36494431269023125,-0.6927485422265491,-0.2481822096559506,-0.49343856070498354,0.3464656452762663,0.5257652596583482,0.2890863049962583,-0.8445431524981291,0.4356903913073324,0.0018382072448730469,0
1.0499191284179688,0.4202679395675659,0.099420927464962,-0.49626272916793823,0.3673988250002971,-0.6927471377122255,-0.25061324557867093,-0.5011615453843621,0.3547646533731678,0.524392216558589,0.29156955124424394,-0.845784775622122,0.4397890960935052,0.0017764568328857422,0
1.0600836277008057,0.42280417680740356,0.1013878732919693,-0.5005138516426086,0.36985608157748207,-0.692756479837166,-0.25201585081274824,-0.5066610813742296,0.36384320138814696,0.5229534930704919,0.2941422174482455,-0.8470711087241227,0.44404679159675575,0.0016257762908935547,0
1.0702855587005615,0.42759960889816284,0.1053629070520401,-0.5089523792266846,0.3747475585917156,-0.6925366278302341,-0.2675877677686337,-0.5112853780181266,0.3615432834645998,0.5214967801967472,0.2967172193257842,-0.8483586096628921,0.44832016646092415,0.00189208984375,0
1.080094337463379,0.4298621416091919,0.10736745595932007,-0.5131041407585144,0.37717197247279977,-0.6925751167568069,-0.26680424386862744,-0.5098711157436164,0.3700812086118353,0.5200842486998203,0.2991861866034986,-0.8495930933017493,0.45242885810118477,0.0024323463439941406,0
1.0901439189910889,0.43203791975975037,0.10938361287117004,-0.5172109603881836,0.3795894233734083,-0.6926471039318001,-0.26559360278600025,-0.5061838496538799,0.37918613417333286,0.518624917300975,0.3017087919742425,-0.8508543959871212,0.45663841696773216,0.002507448196411133,0
1.0999093055725098,0.43412694334983826,0.1114116683602333,-0.5212734341621399,0.38198953131111907,-0.6926922692775266,-0.2642652061244892,-0.501449404137463,0.3877951921946281,0.5171951330628,0.30415324153484313,-0.8520766207674215,0.46072893253355296,0.0018689632415771484,0
1.1100494861602783,0.4380515217781067,0.11549833416938782,-0.5292673707008362,0.38680277633283844,-0.6925588614010403,-0.2727217006082334,-0.4847955040286199,0.385779662811308,0.5156982811857804,0.30668433736014583,-0.8533421686800728,0.464976441445634,0.001880645751953125,0
1.120126485824585,0.439894437789917,0.11755646020174026,-0.5331991910934448,0.38920833197195626,-0.6926723052245816,-0.26773007106614144,-0.4731842631476006,0.39499021829755365,0.51419848446846,0.3091923649936055,-0.8545961824968027,0.4691974851943823,0.0017178058624267578,0
1.1298887729644775,0.4416578710079193,0.11962387710809708,-0.5370870232582092,0.3916036145664557,-0.6927803739744256,-0.2633590831662759,-0.4602932083555125,0.40363305480240536,0.5127338953134118,0.3116150711963963,-0.8558075355981981,0.47328670246917176,0.0022530555725097656,0
1.140106439590454,0.4433460831642151,0.12170110642910004,-0.5409660935401917,0.39401326387826263,-0.6928788868334723,-0.2581700787360942,-0.4460558150494967,0.41314564092377754,0.5111887624131343,0.3141433576928344,-0.8570716788464172,0.47756666865703806,0.0018723011016845703,0
1.150078535079956,0.4508899450302124,0.1253974735736847,-0.5494272112846375,0.3986026691146199,-0.6927442195729486,-0.24586442743024517,-0.391004032033273,0.4116978549630184,0.5096687438909094,0.31660349255916703,-0.8583017462795834,0.48174377024780013,0.0018045902252197266,0
1.160055160522461,0.4544927775859833,0.12726351618766785,-0.5535770058631897,0.4008092646283474,-0.6928207208697391,-0.2320812180119608,-0.361604477254984,0.42165906792689356,0.5081361873259874,0.3190573853240339,-0.8595286926620169,0.48592276934083883,0.0017616748809814453,0
1.1702113151550293,0.45798924565315247,0.129140704870224,-0.5576746463775635,0.4030376490206167,-0.6928894548180268,-0.21686912844152215,-0.3308255186447724,0.431879980558943,0.5065639172191806,0.3215478156846337,-0.8607739078423168,0.49017696944515865,0.0018093585968017578,0
1.1801326274871826,0.461384654045105,0.13102902472019196,-0.5617223978042603,0.40530157504300496,-0.6929414046982487,-0.20153237672795402,-0.2992880323815473,0.4414404944080242,0.505016216993475,0.3239731787873795,-0.8619865893936898,0.4943327990367137,0.0019257068634033203,0
1.1898586750030518,0.4646812677383423,0.13292665779590607,-0.5657208561897278,0.40760211276582126,-0.6929866786376495,-0.18643360201878367,-0.2676964942243982,0.4504219048016454,0.5034877057029684,0.3263435769338214,-0.8631717884669107,0.49840683629328963,0.0017914772033691406,0
1.2001211643218994,0.4678815007209778,0.13483430445194244,-0.5696714520454407,0.40992087692894535,-0.6930435789190359,-0.17070903509558016,-0.23580213446817638,0.4604310961383058,0.501862826525686,0.32883689475429784,-0.8644184473771489,0.5027055777668411,0.001833200454711914,0
1.2099463939666748,0.47401249408721924,0.1386832594871521,-0.5774535536766052,0.4146772795185963,-0.6929004422307087,-0.15286464673636593,-0.17210649702732944,0.4577719737059163,0.5002956098326826,0.33121639872165776,-0.8656081993608289,0.5068211603364222,0.0017838478088378906,0
1.2200980186462402,0.4769485294818878,0.14062416553497314,-0.5812863111495972,0.4171499815233138,-0.6929606425878756,-0.13684616409537587,-0.13960794952533356,0.4667793152464339,0.4986644801092864,0.3336671039784041,-0.866833551989202,0.5110734629384655,0.001817941665649414,0
1.229910135269165,0.4798029959201813,0.14257551729679108,-0.5850728154182434,0.41964635020439633,-0.6930487380415543,-0.12125600754178763,-0.10773553741235181,0.4749616750931459,0.49707649180635627,0.3360282150258895,-0.8680141075129447,0.5151835527382983,0.002077817916870117,0
1.240173101425171,0.4825778901576996,0.14453642070293427,-0.5888120532035828,0.42218650980156314,-0.6931570028915126,-0.10505792397771918,-0.07651638803610442,0.48385447960502737,0.49540357704049987,0.3384897278433682,-0.8692448639216841,0.5194824939489314,0.0028357505798339844,0
1.2501606941223145,0.4879049062728882,0.14848388731479645,-0.5961562395095825,0.4274424538604962,-0.6930603224269838,-0.08680606466401072,-0.017111791774650494,0.47891064130488564,0.4937638461174543,0.34087719822143997,-0.87043859911072,0.5236660869948506,0.002264261245727539,0
1.2599656581878662,0.49046459794044495,0.15047068893909454,-0.5997617244720459,0.43014569547003145,-0.6931710346744433,-0.07181502628317851,0.01239324019225635,0.48602235141889755,0.4921429063060297,0.34321328612490287,-0.8716066430624514,0.5277731807384571,0.002089977264404297,0
1.2701852321624756,0.49296125769615173,0.15247228741645813,-0.603324294090271,0.43287410057887193,-0.693244103138697,-0.05688396343756788,0.04090889919348166,0.4938667610139496,0.49044166115724086,0.34563995284302146,-0.8728199764215107,0.5320539458746505,0.00185394287109375,0
1.2799327373504639,0.49539393186569214,0.15448355674743652,-0.6068460941314697,0.43567645445359476,-0.6933249395815029,-0.043270515486508704,0.06737525103846911,0.5003566489325899,0.4888078513208893,0.34794666902710164,-0.8739733345135507,0.5361369712999055,0.0019114017486572266,0
1.2899987697601318,0.5000743865966797,0.15853361785411835,-0.6138083338737488,0.4414561964062273,-0.693306124580926,-0.030464460306579916,0.11593905064162711,0.4928579706240085,0.48710926578177766,0.3503206576688526,-0.8751603288344263,0.5403534210957734,0.002039670944213867,0
1.300173282623291,0.5023295283317566,0.1605752408504486,-0.6172260642051697,0.44443274033375463,-0.6934304290226185,-0.017523897307957524,0.13951833414224432,0.49933719090190276,0.4853806582570285,0.35271180387105516,-0.8763559019355276,0.5446153110777409,0.002657651901245117,0
1.3102748394012451,0.5066772699356079,0.16468660533428192,-0.623938798904419,0.450538187853113,-0.6933971205395821,-0.00754651313858381,0.17977680967621007,0.4902034820781313,0.48365283384496793,0.3550773666593406,-0.8775386833296702,0.5488466412861996,0.003113269805908203,0
1.3200156688690186,0.5087727308273315,0.16675540804862976,-0.6272362470626831,0.45365903726513873,-0.6934986396491151,0.0034460706183959233,0.19796193139928245,0.4950243221536324,0.48197579112913214,0.3573504397163198,-0.8786752198581599,0.55292687039231,0.0021991729736328125,0
1.3301002979278564,0.5108201503753662,0.16883234679698944,-0.6304939985275269,0.4568433929703087,-0.6936457358468541,0.014884111652986441,0.21501538148117166,0.5002312621772417,0.4802283030346163,0.35969539469458417,-0.8798476973472921,0.5571511099343665,0.0027008056640625,0
1.3400940895080566,0.5128237009048462,0.1709180772304535,-0.633711040019989,0.46007490181964206,-0.6938245915636762,0.024740535690832722,0.23059286810690435,0.5050136334171811,0.4784853002365886,0.36201079743220593,-0.881005398716103,0.5613372995623485,0.0034401416778564453,0
1.3500618934631348,0.5147815942764282,0.1730130910873413,-0.6368875503540039,0.46336591864589927,-0.6939757435214369,0.034310826527866024,0.24430770105059435,0.5094348102581361,0.47673570984849584,0.3643117661498881,-0.882155883074944,0.5655126035193746,0.002489328384399414,0
1.3601315021514893,0.5185638070106506,0.17722582817077637,-0.6431962847709656,0.470084389693726,-0.6940443174290496,0.03734820776879169,0.265521622796565,0.497036001785768,0.4749570153845468,0.3666276497169891,-0.8833138248584945,0.5697305513433558,0.0020728111267089844,0
1.3699731826782227,0.5203869342803955,0.17934393882751465,-0.6462903022766113,0.47349864408301956,-0.6942136676605051,0.04444385776949451,0.27270680249085094,0.5005478680270261,0.473207710924239,0.3688827216363513,-0.8844413608181756,0.5738530248422575,0.0020029544830322266,0
1.380098819732666,0.5221651196479797,0.18146860599517822,-0.6493449211120605,0.47693947942981557,-0.6943872869583646,0.05177147725442236,0.2784267612633902,0.5045057814238383,0.47139676044944406,0.3711941462870467,-0.8855970731435233,0.578094441773345,0.0020809173583984375,0
1.3900048732757568,0.5239005088806152,0.1835998296737671,-0.6523609757423401,0.480430869980464,-0.6945499275768815,0.05830969077601869,0.2831590886380406,0.5077436057480479,0.4696141561095468,0.37344684277888623,-0.886723421389443,0.5822438797782838,0.002112865447998047,0
1.3999390602111816,0.5272473692893982,0.18788619339466095,-0.6582773923873901,0.48752347797051604,-0.6946939137977726,0.05499419126408237,0.2868713125091313,0.49308578500545,0.46781567825648634,0.37569733985939213,-0.887848669929696,0.5864051022710463,0.001958131790161133,0
1.4100689888000488,0.5288578867912292,0.19004303216934204,-0.6611785292625427,0.4911041334313072,-0.6948678776079735,0.05994932043459874,0.2859300617375246,0.49631633149221055,0.465970658126441,0.3779832612235777,-0.8889916306117889,0.5906483168358695,0.0019533634185791016,0
1.4197871685028076,0.5304262638092041,0.19220498204231262,-0.6640427708625793,0.4947651974877843,-0.695050936464215,0.06396853131757549,0.28375357431030335,0.49827833099607155,0.4641901335842275,0.38016775229240185,-0.8900838761462009,0.5947190584305965,0.0020287036895751953,0
1.4298477172851562,0.5334368348121643,0.1965436339378357,-0.6697200536727905,0.5021718303105043,-0.6951670751924427,0.05712858141484552,0.2737326093103113,0.4822522526051382,0.46233609366021483,0.38242036621892017,-0.8912101831094601,0.5989332112500243,0.002106904983520508,0
1.4401741027832031,0.5348792672157288,0.19871988892555237,-0.6725040674209595,0.5059127996378584,-0.6953746673471825,0.05984508225316126,0.26729104091498046,0.485063772453966,0.4604216951596582,0.384723098638887,-0.8923615493194434,0.603258717492531,0.003549814224243164,0
1.449822187423706,0.5362785458564758,0.2009011059999466,-0.6752513647079468,0.5096847060280575,-0.695557550899121,0.06127000777286983,0.2590984695255863,0.48629994173100793,0.4586226815565732,0.38686591470670817,-0.893432957353354,0.6073000977362398,0.002197265625,0
1.4602687358856201,0.5376343131065369,0.20308606326580048,-0.6779638528823853,0.5134588083630403,-0.6957230477332054,0.06391977116641284,0.24979514423572427,0.4891731629161946,0.45666354021175865,0.3891765807975391,-0.8945882903987695,0.611675937723349,0.0024373531341552734,0
1.4702465534210205,0.538946270942688,0.20527324080467224,-0.6806420683860779,0.5172485126834768,-0.6959271114634292,0.0655045464130857,0.2389127968371306,0.49098811352164934,0.4547814339429539,0.39137430592821315,-0.8956871529641065,0.6158554361590921,0.0022118091583251953,0
1.4799621105194092,0.5402141809463501,0.20746226608753204,-0.6832840442657471,0.5210672139621587,-0.6961353652063882,0.06577326496632943,0.22747695775150728,0.4921141151166423,0.45293863398803114,0.3935055194543735,-0.8967527597271867,0.6199250791998695,0.0019884109497070312,0
1.4902303218841553,0.5426207780838013,0.21185235679149628,-0.6885139346122742,0.5287813461759197,-0.6962603005492486,0.05153365863731917,0.2011793721326188,0.47495478304775646,0.4509801544824723,0.39574853159925355,-0.8978742657996267,0.6242262175184019,0.0027875900268554688,0
1.5001628398895264,0.5437526702880859,0.2140488177537918,-0.6910771727561951,0.532681265628054,-0.696482081716113,0.050853875958659124,0.18619937057312172,0.4761197366416672,0.4490751332315524,0.39790894022761475,-0.8989544701138074,0.6283867409313783,0.004347324371337891,0
1.5100619792938232,0.5458750128746033,0.2184428572654724,-0.6960992217063904,0.5404796201725787,-0.6966347975836543,0.034411674562273745,0.15578850910925304,0.45778115062398356,0.44716621666245504,0.4000529648381403,-0.9000264824190701,0.6325332827486316,0.0026481151580810547,0
1.5201423168182373,0.5468644499778748,0.22064179182052612,-0.6985601186752319,0.5443897927253561,-0.6968419641862398,0.032291199969908264,0.14019021762782835,0.4592150759516828,0.44521183983435403,0.402226823659623,-0.9011134118298114,0.6367557246569523,0.0022459030151367188,0
1.5299396514892578,0.5478044748306274,0.2228412926197052,-0.7009884715080261,0.5482993945291859,-0.6970212603908951,0.03009133120815686,0.12420600595505181,0.4600574419484571,0.44330220417361044,0.40433050314664437,-0.9021652515733222,0.6408596226072507,0.002154111862182617,0
1.5400669574737549,0.5486950874328613,0.22504034638404846,-0.7033845782279968,0.5522211198860374,-0.6972246512430457,0.02737164782452426,0.10777211113865309,0.4615336448790244,0.44131780521911784,0.4064955040299717,-0.9032477520149857,0.6451017386181244,0.0021200180053710938,0
1.549980878829956,0.5499978065490723,0.22720065712928772,-0.7064062356948853,0.5561400858749326,-0.6972656595586353,0.02664669856383082,0.0939232642079824,0.46255968681024634,0.43936497617874787,0.40860545481851845,-0.9043027274092592,0.6492544722849122,0.002084493637084961,0
1.5599634647369385,0.5524231195449829,0.23152132332324982,-0.7123091220855713,0.563969345010271,-0.6971354956836435,0.011128612273222187,0.06494293528518764,0.4442674563051257,0.43738842914527903,0.41072054008757003,-0.9053602700437849,0.6534359680914728,0.0021812915802001953,0
1.5701866149902344,0.553546130657196,0.23367959260940552,-0.715192973613739,0.5678815054110163,-0.6971556683135046,0.009850264459135451,0.05130162133324695,0.4459892108856811,0.43535369804660495,0.4128766857030626,-0.9064383428515312,0.6577182312557793,0.0019991397857666016,0
1.5800554752349854,0.5546092391014099,0.23583601415157318,-0.7180348038673401,0.5717856560341675,-0.6971702294026457,0.008847980496757198,0.03765496343925323,0.447006725034525,0.4333793986962698,0.41494854715453533,-0.9074742735772676,0.6618520897683412,0.002047300338745117,0
1.5899090766906738,0.5565577745437622,0.24014054238796234,-0.7235913872718811,0.5795314356248297,-0.6970309459505296,-0.007323020443764642,0.009784885869586922,0.42891056491145746,0.4313983148071029,0.4170077864759742,-0.9085038932379871,0.6659795566942869,0.0018634796142578125,0
1.6000926494598389,0.5574426651000977,0.24228690564632416,-0.7263069152832031,0.5833944212990212,-0.6970877746309875,-0.008055674988966236,-0.003175443607521327,0.4308021098499613,0.42934060861494744,0.41912604523477964,-0.9095630226173897,0.6702452416808077,0.002559185028076172,0
1.6101813316345215,0.5582669973373413,0.24442946910858154,-0.728982150554657,0.5872373388660063,-0.6971242758708612,-0.00966411897011631,-0.016053387974495282,0.43261245424701666,0.42729181992690046,0.4212145541449835,-0.9106072770724917,0.6744711789880591,0.004671335220336914,0
1.620149850845337,0.5590291619300842,0.24656862020492554,-0.7316339612007141,0.5910548083786727,-0.6972092231431326,-0.011655776471490088,-0.028424223252474196,0.43431233087196025,0.42525745493716216,0.4232683510733675,-0.9116341755366837,0.6786467825507079,0.003003358840942383,0
1.6301774978637695,0.5603682994842529,0.2508349120616913,-0.7368144392967224,0.5986269909795935,-0.69712614751468,-0.02940766382998958,-0.052871843717239846,0.41754877787294115,0.4232010637463332,0.4253244169383789,-0.9126622084691894,0.6828471535114945,0.0023851394653320312,0
1.6399261951446533,0.5609452128410339,0.2529624104499817,-0.7393447160720825,0.6023794048176332,-0.6972173461690679,-0.03159259426016168,-0.06352482461557339,0.41914370204043394,0.42119234719796655,0.4273137098922378,-0.9136568549461188,0.6869306782794539,0.0020771026611328125,0
1.6500542163848877,0.5614607334136963,0.25508373975753784,-0.7418341636657715,0.6061196018592252,-0.6973430550764469,-0.03276428510486029,-0.07407245750413513,0.42158138705988957,0.4190955680858181,0.4293703585610276,-0.9146851792805137,0.69117309389595,0.002714395523071289,0
1.6600494384765625,0.5619139671325684,0.25719964504241943,-0.7442830204963684,0.6098598739803287,-0.6974615527874092,-0.03539975068213617,-0.08414017746513514,0.4237704299536113,0.41701643615705936,0.4313899534932,-0.9156949767465999,0.6953598827351772,0.003083944320678711,0
1.6701393127441406,0.5626375079154968,0.26141759753227234,-0.7490602731704712,0.617286108509229,-0.6975279802832445,-0.05228255549625742,-0.10236527141295804,0.40794417693284896,0.41490774467989466,0.4334184622332594,-0.9167092311166296,0.699586319385133,0.0024633407592773438,0
1.6801960468292236,0.562909722328186,0.2635166049003601,-0.7513906359672546,0.6209448401543112,-0.6976332532826731,-0.05308195802779857,-0.11036026619447917,0.4106670692068917,0.4127961604738794,0.4354300516707858,-0.9177150258353929,0.7037988743079068,0.0021843910217285156,0
1.6899299621582031,0.5631219744682312,0.2656072974205017,-0.753714919090271,0.6245946050161431,-0.6977677362476054,-0.05446693271001019,-0.11822977336021345,0.41277580282446497,0.4107430690360055,0.43736727271125714,-0.9186836363556286,0.7078762072263317,0.0019915103912353516,0
1.7001261711120605,0.5632729530334473,0.2676914632320404,-0.7559996843338013,0.6282148231219016,-0.6979310922235686,-0.05588419066307534,-0.12547803746748706,0.4160082904039963,0.4085827217094803,0.43938611666787264,-0.9196930583339362,0.712147185245519,0.0019800662994384766,0
1.7100682258605957,0.563393235206604,0.27184268832206726,-0.760455846786499,0.6353740109471865,-0.6979549219253762,-0.072836903925834,-0.13829754541863182,0.40128450289930934,0.4064666687489853,0.4413443635032656,-0.9206721817516328,0.7163117034001304,0.0019960403442382812,0
1.7199773788452148,0.5633639693260193,0.2739086151123047,-0.7626293897628784,0.6389166037214539,-0.6981013683813889,-0.07419612109348414,-0.14336741453498408,0.4043281794671801,0.4043482797099418,0.4432859897353069,-0.9216429948676534,0.7204624396961007,0.0019011497497558594,0
1.7300918102264404,0.5632762908935547,0.2759682238101959,-0.764765739440918,0.6424528812710412,-0.6982707427572296,-0.07513962990955646,-0.14767561281422764,0.40783494254021274,0.4021764414741053,0.4452573524639717,-0.9226286762319857,0.7246991628057668,0.0018093585968017578,0
1.739924669265747,0.5631301403045654,0.27802130579948425,-0.7668646574020386,0.645952570934568,-0.6984393586211268,-0.07662990547078338,-0.1517153970398802,0.4109512243488596,0.40005585041316266,0.4471636350936882,-0.9235818175468441,0.7288179411686562,0.0018024444580078125,0
1.750025987625122,0.5626619458198547,0.28210967779159546,-0.7709577083587646,0.6529066858312894,-0.698510428469889,-0.09268418580294886,-0.1582567924165452,0.3976387086344636,0.3978679539611383,0.44911144631458405,-0.924555723157292,0.7330491715085741,0.0018031597137451172,0
1.7601838111877441,0.562341570854187,0.2841435670852661,-0.7729775905609131,0.6563563478388393,-0.6986686601905931,-0.09313307190610493,-0.16009413147671894,0.40169150954392246,0.39565825566378904,0.4510593583167162,-0.925529679158358,0.73730407069268,0.0019414424896240234,0
1.7699849605560303,0.5619652271270752,0.28617173433303833,-0.7749635577201843,0.6597838722770746,-0.6987977783133952,-0.09360879492512908,-0.16102015593324273,0.4051190623786127,0.3935171062707826,0.4529285672954064,-0.9264642836477032,0.7414095665396325,0.0018150806427001953,0
1.7801637649536133,0.561534583568573,0.2881937623023987,-0.776915967464447,0.663206159422175,-0.698965963191467,-0.09392983814896759,-0.16050499840782145,0.4093716342220768,0.39128410785431017,0.4548590407375196,-0.9274295203687597,0.7456732541553358,0.0020165443420410156,0
1.7900869846343994,0.5605153441429138,0.2922201454639435,-0.7807179689407349,0.6700731817012593,-0.6990992818058631,-0.10722135684377766,-0.16043057605148275,0.3961295387227793,0.38909806200963926,0.456730443632065,-0.9283652218160324,0.7498298826952179,0.0020012855529785156,0
1.8000123500823975,0.5599257946014404,0.29422321915626526,-0.7825693488121033,0.6734557878903525,-0.6992673505981533,-0.1075374403110916,-0.15972649036975606,0.4000562950923918,0.3869025902842826,0.45859174178272394,-0.9292958708913619,0.7539874100519678,0.001646280288696289,0
1.810072660446167,0.5592840313911438,0.2962208688259125,-0.7843889594078064,0.6768077677374559,-0.6994295435442232,-0.1075716952572065,-0.15773452635098584,0.4044225747241462,0.38466818321003776,0.46046757630248925,-0.9302337881512446,0.7582014630028546,0.0017018318176269531,0
1.8199551105499268,0.5585917234420776,0.29821282625198364,-0.7861763834953308,0.680120152872491,-0.6996069750972687,-0.10705511210780794,-0.1556715350820004,0.40861267095098386,0.38246442401846026,0.4622996478045678,-0.9311498239022838,0.7623410140222466,0.0018649101257324219,0
1.829909086227417,0.5570586323738098,0.3021816313266754,-0.7896998524665833,0.6867837041382997,-0.6996919502717672,-0.1189812034793872,-0.15072566756006037,0.3964525891379412,0.3802358944426836,0.4641343173881591,-0.9320671586940795,0.7665105256039019,0.0023508071899414062,0
1.840301275253296,0.5562217235565186,0.3041593134403229,-0.7914356589317322,0.690098983826298,-0.6998783018088462,-0.1167580993455262,-0.14706754623784113,0.4016824061286768,0.3778998665801296,0.4660382933179636,-0.9330191466589818,0.7708635955636909,0.002851724624633789,0
1.8499867916107178,0.5553392767906189,0.3061313033103943,-0.7931401133537292,0.6934284381509872,-0.7000453077225344,-0.11550113332308341,-0.1425479528595004,0.40538100442474784,0.3757141049352657,0.4678022139245305,-0.9339011069622651,0.7749206551683177,0.0035619735717773438,0
1.8602113723754883,0.5544130206108093,0.3080982267856598,-0.7948142290115356,0.6967631026206245,-0.7002240673219733,-0.11302161720047614,-0.13769719646319736,0.41017095663302444,0.3733977584197487,0.4696531848152496,-0.9348265924076248,0.7792035175438694,0.002695798873901367,0
1.8703489303588867,0.5524297952651978,0.31201428174972534,-0.7980727553367615,0.7033800467281882,-0.7003743304962899,-0.12148315820844993,-0.12974362715456086,0.3985852198407327,0.3710921238269987,0.4714770785876737,-0.9357385392938368,0.7834499279020007,0.0031342506408691406,0
1.8801016807556152,0.551374077796936,0.31396418809890747,-0.7996594905853271,0.7066879395856365,-0.7005257268493312,-0.11963846797854784,-0.12426653334338994,0.4025312110088141,0.36886559925375306,0.47322105794984404,-0.936610528974922,0.7875351504351551,0.002637624740600586,0
1.8899874687194824,0.5502766966819763,0.31591081619262695,-0.8012194037437439,0.7099746176105748,-0.7006674487071162,-0.11745589049074748,-0.11812355386731069,0.4068606620578098,0.3666003384969096,0.47497809614123393,-0.937489048070617,0.7916760996141192,0.003060579299926758,0
1.9001555442810059,0.5491407513618469,0.3178536891937256,-0.8027536869049072,0.7132414916013022,-0.7008027839569605,-0.11387244233787171,-0.11203703686123122,0.41186653879804874,0.36426166282215394,0.4767739936259521,-0.938386996812976,0.795935293145483,0.002767324447631836,0
1.9101026058197021,0.5479661226272583,0.3197919428348541,-0.8042827248573303,0.7165068649387472,-0.700938430701303,-0.11122267641347516,-0.10604373799331528,0.41642666481186713,0.3619653075536222,0.4785197134158755,-0.9392598567079378,0.8001019085394528,0.0020623207092285156,0
1.9201679229736328,0.5455057621002197,0.3236580789089203,-0.8072627186775208,0.7230683540918953,-0.7010829466210758,-0.11767878785048591,-0.09508263611034529,0.4049249248922982,0.35963313629258664,0.480274928848423,-0.9401374644242114,0.8043180587296982,0.002240419387817383,0
1.929955244064331,0.5442248582839966,0.32558488845825195,-0.8087135553359985,0.7263397488958916,-0.7012282001590923,-0.11374964118917516,-0.08832792013168551,0.4091067034409709,0.35735721549798855,0.4819707672997649,-0.9409853836498824,0.8084177622012798,0.002028226852416992,0
1.9400784969329834,0.5429103970527649,0.3275088667869568,-0.8101403117179871,0.7296188794608676,-0.7013646616776308,-0.10980727292145878,-0.08131580054766091,0.4139536461817752,0.3549947655701727,0.4837134652020534,-0.9418567326010266,0.8126581804469585,0.0018913745880126953,0
1.9501185417175293,0.5416556596755981,0.3318527638912201,-0.8140434622764587,0.7361024764563401,-0.701230290924558,-0.10998895168077535,-0.06021712550275415,0.4027344148171392,0.35264333979529844,0.48543040170349616,-0.9427152008517481,0.8168637445718707,0.0025000572204589844,0
1.9599649906158447,0.5409634113311768,0.3340126574039459,-0.8159404993057251,0.739295324332886,-0.7012366379571362,-0.10355686856477958,-0.049039820226958276,0.40741692717597594,0.3503291895314916,0.48710312969863806,-0.943551564849319,0.8209882154415901,0.002102375030517578,0
1.9702465534210205,0.5402299761772156,0.33616408705711365,-0.8178030848503113,0.7424800786650855,-0.7012564251100784,-0.09603506224974284,-0.0380233751300197,0.41304265560157355,0.3479043099959055,0.4888380008615051,-0.9444190004307524,0.8252949463984117,0.002009153366088867,0
1.9800910949707031,0.5394574403762817,0.3383079171180725,-0.8196589350700378,0.7456678909740803,-0.701244290364935,-0.08905622907315149,-0.0264448994666139,0.41774202759818296,0.3455744488403083,0.4904878187159362,-0.9452439093579681,0.829418618319804,0.0018095970153808594,0
1.9899704456329346,0.5378011465072632,0.34257495403289795,-0.8232667446136475,0.7520637264960135,-0.7011922039522047,-0.0883408773864954,-0.006204458520916532,0.4065794076575152,0.3432284845279816,0.492132306812533,-0.9460661534062664,0.8335568710481644,0.0018315315246582031,0
2.0000100135803223,0.5369190573692322,0.3446977138519287,-0.8250179290771484,0.755261352819391,-0.701235020386584,-0.0807708704800366,0.004189021919740536,0.41162438185519923,0.3408364581966411,0.49379196911651907,-0.9468959845582595,0.837762235435995,0.0016324520111083984,0
2.0099058151245117,0.536003589630127,0.3468138873577118,-0.8267379403114319,0.758481864839794,-0.701244943603455,-0.07336945566764738,0.014907002800147345,0.4162532488752636,0.3384708318641682,0.4954164873893257,-0.9477082436946628,0.8419073790936761,0.00189208984375,0
2.020061492919922,0.5350568294525146,0.3489243984222412,-0.8284268379211426,0.7616849381157742,-0.7012929118032989,-0.06541143927467227,0.02544591954307792,0.4215077027005096,0.33603503126449125,0.49707188389917245,-0.9485359419495862,0.8461613794609142,0.0019638538360595703,0
2.030060291290283,0.5330724716186523,0.3531283140182495,-0.8317078948020935,0.7680912195042859,-0.7012269378465582,-0.06349847932929706,0.04263846495133281,0.41048535935486785,0.3336289478552229,0.49869000907679806,-0.949345004538399,0.8503496663282545,0.0021209716796875,0
2.0398619174957275,0.5320370197296143,0.35522180795669556,-0.8333019018173218,0.77130540052204,-0.7012766760597948,-0.05655006372554082,0.05086826093841805,0.4149344904969285,0.3312627483261131,0.5002649213880883,-0.9501324606940441,0.8544553619122888,0.0020339488983154297,0
2.0499889850616455,0.5309727787971497,0.35730916261672974,-0.8348667025566101,0.7745044432198572,-0.7013361040943701,-0.04942856338547836,0.05858849615063665,0.420136119482595,0.3288101763086265,0.5018803323063078,-0.9509401661531538,0.8586973780546215,0.0019578933715820312,0
2.0599164962768555,0.5298795700073242,0.35939228534698486,-0.8364032506942749,0.7777103991959062,-0.7013834708625339,-0.04216982346820064,0.06585775655524691,0.42488387264044647,0.32639828632465134,0.5034522407183535,-0.9517261203591767,0.8628558042282394,0.001922607421875,0
2.0700740814208984,0.527612030506134,0.3635370135307312,-0.8393940329551697,0.7841607067883263,-0.7013462882702014,-0.04132506304742618,0.07584796211252125,0.41393048087872447,0.32392272253973353,0.5050485816458123,-0.9525242908229061,0.8671106035438044,0.0018391609191894531,0
2.080219268798828,0.526440441608429,0.3655999004840851,-0.8408483266830444,0.7874057007420374,-0.7014311523606955,-0.03459057330161972,0.08096980116012839,0.41892766914644264,0.321442387363627,0.5066308237819447,-0.9533154118909724,0.8713602096952439,0.0032262802124023438,0
2.08994460105896,0.5252445340156555,0.36765581369400024,-0.8422753214836121,0.7906599717729043,-0.7015145756431572,-0.028377622699315236,0.08543391774877947,0.4230006760317027,0.3190574438780544,0.5081361505600661,-0.954068075280033,0.8754339473461972,0.002597808837890625,0
2.100158452987671,0.5240268707275391,0.36970481276512146,-0.8436875343322754,0.7939208449259451,-0.7015931996794756,-0.020999581836341236,0.08985572407255231,0.42805449557052333,0.3165451122425586,0.5097050047972317,-0.9548525023986159,0.8797123156374095,0.0020956993103027344,0
2.1101229190826416,0.5215265154838562,0.3737803101539612,-0.8464358448982239,0.8004766179160046,-0.7015776001781985,-0.022175702046676016,0.09432564555751508,0.41614302499140743,0.31408668840260007,0.5112235833451817,-0.9556117916725908,0.8838862214348635,0.0020825862884521484,0
2.1199822425842285,0.5202456712722778,0.3758077025413513,-0.8477718234062195,0.8037427456551244,-0.7016909023660473,-0.01612495438647042,0.09648090642811775,0.42042583035625375,0.31164703494286466,0.5127144679169107,-0.9563572339584553,0.8880160852057902,0.0019533634185791016,0
