time,x,y,z,yaw,throttle,roll_rate,pitch_rate,yaw_rate,x_ref,y_ref,z_ref,yaw_ref,mpc_time,metadata
9.5367431640625e-07,-0.018838558346033096,-0.022032156586647034,0.47505104541778564,-0.006495311509823105,-0.9224990077834091,0.07100184065563027,-0.7999999999999919,-0.007326449262603134,0.5999999999999363,2.7655903627744954e-07,-0.7000001382795181,3.994741635118857e-07,0.004519462585449219,Sim
0.010272741317749023,-0.01902138814330101,-0.02199786715209484,0.47590628266334534,-0.006495975414349217,-0.9228784051594419,0.0755259774615214,-0.7999999999999916,0.012536032980909089,0.5999926045245648,0.002979012559397931,-0.701489506279699,0.004303035820809154,0.003332853317260742,Horizon:3.0
0.0199735164642334,-0.019028794020414352,-0.021594904363155365,0.4741095006465912,-0.006487052514197089,-0.9227996235132582,0.07885723215270377,-0.7999999999999918,0.031642697324536145,0.5999720423941494,0.00579209335154648,-0.7028960466757732,0.008366487012052054,0.0033233165740966797,Num Steps:20
0.02992391586303711,-0.019049515947699547,-0.02140669897198677,0.47331300377845764,-0.006483914777651555,-0.9228979652853665,0.08285305630975202,-0.7999999999999916,0.051116121896661516,0.5999372485787648,0.008677428636484718,-0.7043387143182424,0.012534500565594194,0.0032699108123779297,No Pyjoules
0.039998769760131836,-0.01908109150826931,-0.02122506871819496,0.4725434482097626,-0.006492287012314897,-0.9229968770592097,0.0858055702054105,-0.7999999999999915,0.07113476629837749,0.5998878823390567,0.011598647453995707,-0.7057993237269978,0.016754645497474633,0.0034825801849365234,0
0.050040483474731445,-0.019123151898384094,-0.021049242466688156,0.4718381464481354,-0.006482560132990626,-0.9231036928696632,0.08941911753796325,-0.7999999999999913,0.09081510152819917,0.5998245246525904,0.014509983642098696,-0.7072549918210493,0.020960908702173032,0.003302335739135742,0
0.059929609298706055,-0.019209254533052444,-0.02071664109826088,0.47050154209136963,-0.00647457027756806,-0.9207224107912925,0.09202916023656758,-0.7999999999999897,0.11159835729512675,0.5997483210952119,0.01737674720638273,-0.7086883736031914,0.025103256040709527,0.004003763198852539,0
0.06996393203735352,-0.01923324353992939,-0.020553631708025932,0.4696900248527527,-0.006487849510319289,-0.9178306278773023,0.09441609264286857,-0.799999999999817,0.13287792763767944,0.599656994312204,0.020285195893886023,-0.710142597946943,0.02930642332064071,0.0032219886779785156,0
0.07988524436950684,-0.019245734438300133,-0.020391643047332764,0.4686838686466217,-0.006497027038210254,-0.9143687616249309,0.09609371460687753,-0.7999999999991426,0.15432032135998192,0.5995528291656053,0.023160419674923643,-0.7115802098374617,0.03346225291219574,0.0031926631927490234,0
0.09022116661071777,-0.019245067611336708,-0.020232941955327988,0.4674459397792816,-0.006486839347265203,-0.9109307542659223,0.09394409638150063,-0.7999999999879229,0.1821775345635175,0.599429648817747,0.026155231182930855,-0.7130776155914654,0.03779175389633756,0.004099845886230469,0
0.10002279281616211,-0.01919775828719139,-0.01992037333548069,0.46415677666664124,-0.006327934944004232,-0.9017404546363389,0.0863155522790506,-0.7999999999999866,0.2044492035008733,0.5992990167231409,0.028994629755810665,-0.7144973148779052,0.04189744948037184,0.002753734588623047,0
0.11002779006958008,-0.019148677587509155,-0.01976550929248333,0.4620189368724823,-0.006172729083552959,-0.8969357018812658,0.08386938181867745,-0.7999999999999852,0.22534045445813,0.5991518030306681,0.031892270616866426,-0.7159461353084332,0.04608833292977503,0.0027387142181396484,0
0.12004303932189941,-0.019079050049185753,-0.01961336098611355,0.459570050239563,-0.005947043158378237,-0.8920149386813433,0.08140365601622672,-0.799999999999992,0.24603738124998967,0.5989904067929082,0.03479213373833747,-0.7173960668691687,0.05028351072643597,0.002645730972290039,0
0.1300351619720459,-0.018986526876688004,-0.019461998715996742,0.45680636167526245,-0.005653681117036287,-0.8870304019324456,0.07781823261153738,-0.7999999999999985,0.2666162733796779,0.5988153967124106,0.03768448832289391,-0.7188422441614469,0.05446900127463176,0.0025763511657714844,0
0.14001679420471191,-0.018714115023612976,-0.019160596653819084,0.4503468871116638,-0.004861279990192704,-0.8768709467563744,0.06736731369371883,-0.8,0.2865538845400848,0.598626626077219,0.040572928799944855,-0.7202864643999723,0.05865009760702891,0.002416372299194336,0
0.15002775192260742,-0.01852247677743435,-0.019011937081813812,0.4466663599014282,-0.0043539840135531915,-0.8720379726629076,0.06412177461664045,-0.8,0.3063084954511372,0.5984233068153559,0.04346890682055887,-0.7217344534102794,0.06284347776995404,0.002291440963745117,0
0.15998053550720215,-0.018288353458046913,-0.018860064446926117,0.4426998496055603,-0.0037453954812927273,-0.8672604135392448,0.06049243650937775,-0.8,0.32561096106773846,0.5982072811221506,0.046347047505145574,-0.7231735237525727,0.06701249000890497,0.002230405807495117,0
0.1703042984008789,-0.0180051252245903,-0.018704209476709366,0.43845367431640625,-0.003073343483165788,-0.8625100010169452,0.05673914319743879,-0.7999999999939401,0.3453443376933466,0.5979685773610341,0.04933133374257012,-0.724665666871285,0.07133689769746202,0.0018682479858398438,0
0.18000221252441406,-0.017266422510147095,-0.01838650554418564,0.42911216616630554,-0.0014826223026336253,-0.8529654422455242,0.046406165743374146,-0.7999999999999876,0.36130580230080184,0.5977307829859807,0.05213358870216329,-0.7260667943510816,0.07539915046621438,0.002037525177001953,0
0.1900792121887207,-0.016803456470370293,-0.01822282001376152,0.424038290977478,-0.0005523296205155777,-0.8484317563987461,0.04304391556632761,-0.7999999999870493,0.3793852870196188,0.5974697813166189,0.055044167842484414,-0.7275220839212422,0.07962019421496272,0.0020711421966552734,0
0.20002460479736328,-0.016271168366074562,-0.018053818494081497,0.41872403025627136,0.0004939005603375395,-0.8439738494106112,0.040122772180533825,-0.7999999999506566,0.39643834095002684,0.5971982921399996,0.057915454457922164,-0.728957727228961,0.08378611052914642,0.0016481876373291016,0
0.21003222465515137,-0.0156622976064682,-0.017881663516163826,0.4131810665130615,0.0016300253638685128,-0.8396279817505985,0.03856837434170117,-0.7999999997971197,0.41321672327093506,0.5969111759370441,0.06080335551147764,-0.7304016777557387,0.08797809253249927,0.001598358154296875,0
0.21990132331848145,-0.014972140081226826,-0.01770498976111412,0.4074181914329529,0.0028911481060276576,-0.8353264660730674,0.03667221986321833,-0.7999999994104282,0.4292829296858877,0.5966143573704095,0.06364989064792848,-0.7318249453239642,0.09211205091360201,0.0019176006317138672,0
0.229994535446167,-0.01333386916667223,-0.017327316105365753,0.39526355266571045,0.0057154821873564715,-0.8267102954314421,0.026261598350003957,-0.8,0.44007570457066125,0.5962967582312788,0.0665595682292766,-0.7332797841146382,0.09633988572313006,0.002101421356201172,0
0.23998761177062988,-0.012376220896840096,-0.017124315723776817,0.3888929784297943,0.0072824487470895235,-0.8222810185969726,0.021603626276146676,-0.7596604045450965,0.45775631010875284,0.5959683301181052,0.0694388183672296,-0.7347194091836148,0.10052577574548935,0.002272367477416992,0
0.25023865699768066,-0.011313552036881447,-0.016913583502173424,0.3823409974575043,0.009019063411255867,-0.8180799734023723,0.02236169575979735,-0.6847388821171788,0.47084100953370484,0.5956169782854852,0.07239071195994566,-0.7361953559799728,0.10481972352907862,0.0020456314086914062,0
0.25992822647094727,-0.008864792063832283,-0.016463417559862137,0.3686663806438446,0.012793404753740746,-0.8096251981157153,0.016570240806295444,-0.5310807026133867,0.4729115369133723,0.5952714290955213,0.07517929038356005,-0.7375896451917799,0.10887848089890026,0.0019462108612060547,0
0.2701585292816162,-0.007471778430044651,-0.016220787540078163,0.3615890145301819,0.014832149520343724,-0.805617862654913,0.017746001839149005,-0.4516161639016294,0.48456185013991654,0.594892427668382,0.07812169674820706,-0.7390608483741035,0.11316374011943313,0.0017421245574951172,0
0.27997756004333496,-0.005959817674010992,-0.015966713428497314,0.35436201095581055,0.016973783754805807,-0.8017193800406235,0.019850104727540747,-0.3704467925105984,0.4949224193711427,0.5945149836562026,0.0809440189777175,-0.7404720094888587,0.1172767261069515,0.0018045902252197266,0
0.28989672660827637,-0.0043258629739284515,-0.015701156109571457,0.34699538350105286,0.01923892779415788,-0.7979305541765076,0.02294981129929259,-0.28830348805903455,0.5049412221245145,0.5941200951835123,0.083793272397814,-0.741896636198907,0.12143165688163862,0.0016307830810546875,0
0.29989147186279297,-0.002567567164078355,-0.015422659926116467,0.3394973576068878,0.021616637479272612,-0.7942305729583754,0.02590922053866151,-0.20481447681672899,0.5146110817104086,0.5937083862736746,0.08666228746293968,-0.7433311437314698,0.12561824598378407,0.0015976428985595703,0
0.3100595474243164,0.0013339477591216564,-0.014825376681983471,0.3241400718688965,0.02669110887036934,-0.7868789380553922,0.028007410147208346,-0.038605011044859125,0.5117889756696703,0.5932753205901601,0.08957898179061154,-0.7447894908953058,0.1298774395151478,0.002084970474243164,0
0.3199896812438965,0.0034833052195608616,-0.014507080428302288,0.31629544496536255,0.029398938914277497,-0.7834267920398642,0.03440413508787645,0.043213636728339784,0.5198504692593542,0.5928385592954482,0.09242533533884179,-0.7462126676694208,0.1340369642427153,0.0027246475219726562,0
0.33025336265563965,0.00576669629663229,-0.01417580246925354,0.3083295226097107,0.032211271248391196,-0.7800575776737269,0.04131565387116899,0.12323354054079445,0.528124994596479,0.5923727759609074,0.09536505806829122,-0.7476825290341456,0.1383362050589711,0.0022432804107666016,0
0.33998894691467285,0.010742035694420338,-0.013467998243868351,0.2921164929866791,0.038168420335985685,-0.7732373444436477,0.0472730845307954,0.28215865642934085,0.5200320635101244,0.5919174869704513,0.09815135566351396,-0.7490756778317569,0.14241423705718217,0.001692056655883789,0
0.35010528564453125,0.013437718152999878,-0.01309182308614254,0.2838818430900574,0.041269478984157185,-0.7700482700516998,0.056777044544287884,0.36107654824817337,0.5264776269281506,0.5914305074962534,0.1010443209820527,-0.7505221604910263,0.1466517591151754,0.0018110275268554688,0
0.360090970993042,0.016274278983473778,-0.0127005809918046,0.27557045221328735,0.04448192516011897,-0.7669822485946501,0.06696196213373835,0.4364831106942054,0.5321041386286967,0.5909359509586994,0.10389755466100985,-0.7519487773305049,0.15083455321276748,0.0038099288940429688,0
0.3702352046966553,0.01925242692232132,-0.012293667532503605,0.2671901285648346,0.0477700067594857,-0.7640114975854013,0.07716751640399232,0.5085228390504719,0.5376652837856055,0.590419447819997,0.10679361233673984,-0.7533968061683699,0.1550837598900434,0.0027027130126953125,0
0.3799593448638916,0.022373180836439133,-0.01187130156904459,0.25874677300453186,0.051106156493895646,-0.7610898267574046,0.08776770946748776,0.5766174758826007,0.5421027484142976,0.5899110105325941,0.1095673293113127,-0.7547836646556563,0.1591569981982923,0.001760721206665039,0
0.3899061679840088,0.025634765625,-0.011433897539973259,0.25024378299713135,0.054548510433179306,-0.7582480026137424,0.10047539004821604,0.6395193268067193,0.5465219049995624,0.5893774485972891,0.11240205996755456,-0.7562010299837773,0.1633235137237213,0.0019707679748535156,0
0.39986562728881836,0.03258076310157776,-0.01051638275384903,0.2330540418624878,0.06171551817006425,-0.7526598497875087,0.11809867994512137,0.7524638812105258,0.532825546354813,0.5888295610759626,0.1152377889543581,-0.757618894477179,0.16749532228181682,0.0024247169494628906,0
0.4102668762207031,0.0362657867372036,-0.010032149031758308,0.22438232600688934,0.06539587674415956,-0.7501068755476694,0.13154751403123482,0.7999999995410343,0.5373554709334476,0.5882428051384123,0.11819645596586985,-0.7590982279829349,0.1718521872461592,0.00341033935546875,0
0.4199554920196533,0.04196237400174141,-0.009219043888151646,0.20590248703956604,0.0729714957597802,-0.7437923603148531,0.14176873629722428,0.7999999999999862,0.5312897304216392,0.5876828767313349,0.12094972673298011,-0.7604748633664901,0.1759105451418173,0.002691984176635742,0
0.4301118850708008,0.045044951140880585,-0.008783086203038692,0.19664399325847626,0.07682796257220503,-0.740978878893246,0.1530850881085713,0.8,0.5386182901144034,0.5870820796661057,0.1238330801317654,-0.7619165400658826,0.180164845114678,0.0020613670349121094,0
0.4400455951690674,0.048279933631420135,-0.008327743038535118,0.18737751245498657,0.0807474598117838,-0.7382658728091043,0.16465825807269172,0.8,0.5446164764952981,0.5864807705314018,0.12665032884636815,-0.763325164423184,0.18432586787035868,0.0019063949584960938,0
0.45001864433288574,0.05166291818022728,-0.007852848619222641,0.1781061887741089,0.08470652753890401,-0.7357236404835336,0.17665401364970798,0.8,0.54987926009743,0.5858634805870677,0.12947579740788012,-0.76473789870394,0.18850336893528427,0.001789093017578125,0
0.4598968029022217,0.05518926680088043,-0.00735823716968298,0.16883531212806702,0.08871371245665371,-0.7333294471323046,0.18835577382656915,0.8,0.5541504319810024,0.5852386455020224,0.1322714172108172,-0.7661357086054086,0.19264112232094036,0.0016543865203857422,0
0.47005701065063477,0.06266865879297256,-0.006310752127319574,0.15026527643203735,0.09680931757048533,-0.7286672863734786,0.20240689395481726,0.8,0.5391138031158857,0.5845820529404474,0.13514371380101975,-0.7675718569005099,0.19689702019045513,0.0017764568328857422,0
0.4799182415008545,0.06661126017570496,-0.00575794093310833,0.14097456634044647,0.10091047808939171,-0.7266664609460466,0.21454941063276448,0.8,0.5410510430483026,0.5839313005405792,0.13792837361829413,-0.768964186809147,0.2010276829097089,0.0016903877258300781,0
0.49004387855529785,0.07068288326263428,-0.005185914225876331,0.13169927895069122,0.10503180207177776,-0.7248220899711114,0.22709757793690044,0.8,0.542775413933367,0.5832492969296783,0.14078443675007546,-0.7703922183750377,0.20526909984079633,0.001706838607788086,0
0.5000443458557129,0.07919683307409286,-0.003982286434620619,0.11320298910140991,0.11337086839218016,-0.7211223213513384,0.2384071895861657,0.8,0.5212810838968002,0.582562012723529,0.14360188484665098,-0.7718009424233254,0.2094580857879228,0.001676321029663086,0
0.5101032257080078,0.08363067358732224,-0.0033528131898492575,0.1039886474609375,0.11758981372694206,-0.7196028903830436,0.2504141927054127,0.8,0.5208132476679199,0.5818569847595175,0.1464324051791905,-0.7732162025895952,0.21367153952756443,0.0016574859619140625,0
0.5200483798980713,0.08817499876022339,-0.0027038180269300938,0.09480055421590805,0.12177644195941688,-0.7182011450190713,0.2611333576646073,0.7999999994773132,0.5195467803920333,0.5811464074389977,0.14922752132480943,-0.7746137606624046,0.2178373559732073,0.0015223026275634766,0
0.5300512313842773,0.09282543510198593,-0.0020351004786789417,0.08564133942127228,0.12597319152561212,-0.7168885897040651,0.27129575531947253,0.7999999993412613,0.5178390056376763,0.5804181635736653,0.15203537546825727,-0.7760176877341286,0.22202734060574256,0.0014786720275878906,0
0.5399684906005859,0.09757643193006516,-0.001345527358353138,0.0765141174197197,0.13020476782130838,-0.7156884866790744,0.28045110682459123,0.7999999987393828,0.515396515693388,0.5796827584349774,0.15481569550021582,-0.7774078477501078,0.22618147243210263,0.0022156238555908203,0
0.5500288009643555,0.1073659360408783,9.35397983994335e-05,0.05824413150548935,0.1386971561823796,-0.713280431223999,0.2844420093490915,0.7999999999972133,0.48700748251497405,0.5789231377962417,0.15763248562448587,-0.7788162428122429,0.23039552538298957,0.002463102340698242,0
0.5599117279052734,0.11239247024059296,0.0008446623687632382,0.04916989058256149,0.14294326562340612,-0.7122377236285969,0.2911485303187686,0.799999999966509,0.48363528594181143,0.5781635833205889,0.1603959816264,-0.7801979908132,0.2345352761394632,0.002117633819580078,0
0.570310115814209,0.11750071495771408,0.0016171109164133668,0.04013759270310402,0.14721770219144362,-0.7111180004918832,0.29675675072275587,0.7999999898685779,0.4828448105674386,0.5773501718328792,0.16329966039323188,-0.7816498301966159,0.23889094268131505,0.001657247543334961,0
0.5799849033355713,0.127940371632576,0.0032220801804214716,0.02220735140144825,0.1557820349962022,-0.7087019389601934,0.2916918651109243,0.8,0.45658053824053896,0.5765802673762468,0.16599757610379642,-0.7829987880518982,0.24294350820160227,0.0017867088317871094,0
0.5900936126708984,0.13326236605644226,0.004054901655763388,0.013308772817254066,0.1600520727059106,-0.7077021944926088,0.294659800686991,0.8,0.4544752514678549,0.5757623644446042,0.16881261709113676,-0.7844063085455684,0.24717783446628738,0.001744985580444336,0
0.6000339984893799,0.13864581286907196,0.004910587333142757,0.0044562979601323605,0.16432314815084792,-0.7067841603862907,0.2966571293269684,0.7999999999999998,0.4517329171939969,0.5749446781551735,0.1715768546775585,-0.7857884273387792,0.25134165354111265,0.0019526481628417969,0
0.6100585460662842,0.1440872699022293,0.005788227077573538,-0.004348216578364372,0.16859841352332755,-0.7059198838575795,0.297609254502463,0.7999999999999358,0.4489767566953329,0.5741066288067941,0.17436048508792903,-0.7871802425439645,0.2555407262108678,0.0017788410186767578,0
0.6200852394104004,0.15512193739414215,0.007607407867908478,-0.021922852843999863,0.17704904290557122,-0.7039872505166029,0.28523607036584736,0.799999999252625,0.42188982289067584,0.5732549187133686,0.17714061694295063,-0.7885703084714752,0.259740697697491,0.0037827491760253906,0
0.6300575733184814,0.16070331633090973,0.008546994999051094,-0.030633436515927315,0.18127018882155152,-0.7031368579433636,0.28480953562562367,0.7999999999309431,0.42034860414019315,0.5723944725890924,0.17990155015856518,-0.7899507750792826,0.2639178991567938,0.002957582473754883,0
0.6400375366210938,0.1663220077753067,0.009508912451565266,-0.03929246589541435,0.18547924256028914,-0.7022997872192572,0.2827742240621456,0.799999999976624,0.4191166337369231,0.571520055684868,0.18266041155643273,-0.7913302057782163,0.2680982964094048,0.002046823501586914,0
0.6503093242645264,0.1719740927219391,0.010494103655219078,-0.04789859429001808,0.18963979878840778,-0.7015410544591453,0.28020704246413425,0.7999999999952315,0.4187061736785596,0.5706061839812528,0.1854955061513692,-0.7927477530756846,0.2724009327560505,0.002576589584350586,0
0.6600019931793213,0.18336191773414612,0.01253263559192419,-0.06494832783937454,0.19792948478798106,-0.6997577024502896,0.2587754169680006,0.7999983661168809,0.3950385659649208,0.5697309388307393,0.18816656806947485,-0.7940832840347374,0.27646098841690353,0.0030202865600585938,0
0.6702549457550049,0.18908409774303436,0.013582643121480942,-0.07339300215244293,0.20203975804994434,-0.6990632317261051,0.2553684246851356,0.7999998327753112,0.3945185782018461,0.5687914921906992,0.19098753470181676,-0.7954937673509084,0.2807557351488198,0.0026803016662597656,0
0.6800398826599121,0.194819375872612,0.014654948376119137,-0.0818430632352829,0.20611354580917174,-0.6983564568043612,0.25023388459621354,0.7818850223721012,0.3940484850790243,0.5678819022369056,0.1936753601049798,-0.7968376800524899,0.2848544399349927,0.0018930435180664062,0
0.6900489330291748,0.20056423544883728,0.015750953927636147,-0.09023769944906235,0.21017372156825428,-0.6976907476984956,0.2438575141876461,0.7597757181599938,0.3942776947940134,0.5669383383255765,0.19642026508645719,-0.7982101325432286,0.28904702114959074,0.0018112659454345703,0
0.6999318599700928,0.2120644748210907,0.018013739958405495,-0.10685151815414429,0.2182313315812064,-0.6962191714730114,0.2161573184357217,0.7112049379989406,0.37393043916529844,0.565993646194392,0.19912607179266467,-0.7995630358963323,0.2931867719060644,0.0017459392547607422,0
0.7100009918212891,0.21780699491500854,0.019178343936800957,-0.11506906151771545,0.22222016671792824,-0.6956584577981616,0.20960838155148107,0.6832242520407812,0.3746129120418765,0.5650178741104643,0.20187818588369444,-0.8009390929418472,0.29740451999296386,0.0019021034240722656,0
0.7200257778167725,0.2235390543937683,0.020365985110402107,-0.12322786450386047,0.2261718828655833,-0.6951225568190756,0.20203402748408117,0.6549366771676512,0.37539223112806563,0.5640331057826588,0.2046134296207558,-0.8023067148103779,0.3016036925312598,0.0023670196533203125,0
0.7304093837738037,0.22925886511802673,0.021578826010227203,-0.13132722675800323,0.23012560714022343,-0.6946278404000555,0.1939790018944547,0.6259379597650503,0.3769130260749655,0.5629991290713368,0.20744151143133402,-0.8037207557156669,0.30595316722357724,0.0031681060791015625,0
0.7400095462799072,0.2406454086303711,0.024067746475338936,-0.14740023016929626,0.2379133775008893,-0.6933987571281212,0.1634050006910272,0.5656487462180441,0.357384185523354,0.5620305498129963,0.21005156766113664,-0.8050257838305683,0.30997447389056965,0.002300262451171875,0
0.7500767707824707,0.24630354344844818,0.0253446064889431,-0.15534424781799316,0.24176279159047553,-0.6929337416034617,0.15501497401274464,0.5327840163312546,0.3587478968110728,0.5610018506555983,0.21278374834792652,-0.8063918741739632,0.314191423029142,0.0021419525146484375,0
0.7600922584533691,0.2519324719905853,0.02664545737206936,-0.16322734951972961,0.24558297789947625,-0.6925122171775084,0.14575991487810405,0.4995161459547655,0.36015938880930753,0.5599652585200372,0.21549688919004803,-0.8077484445950239,0.3183867006943438,0.002340078353881836,0
0.7702291011810303,0.25752928853034973,0.027971679344773293,-0.1710483580827713,0.2493673403336087,-0.692126559177689,0.1356500826993566,0.46622191920415756,0.36202463669042423,0.558902745605439,0.2182377624397346,-0.8091188812198673,0.3226328114468525,0.002815723419189453,0
0.7800695896148682,0.2630910277366638,0.02932184375822544,-0.1788065880537033,0.25311749362763714,-0.6917471198128562,0.12608894342123547,0.4325586107486523,0.36343497529818564,0.557858462275131,0.22089349485221638,-0.8104467474261081,0.32675478560304994,0.002471446990966797,0
0.7899906635284424,0.2686113119125366,0.03069346584379673,-0.18650290369987488,0.2568469070239062,-0.6913657280544729,0.11666299325964433,0.39691873949047246,0.3650940387842172,0.5567928526244844,0.22356591704973547,-0.8117829585248677,0.3309105153260641,0.0030498504638671875,0
0.8000726699829102,0.27951329946517944,0.03350431099534035,-0.201707661151886,0.26423034758456926,-0.6904089420725446,0.08284953905362469,0.3278450825576001,0.3487635282042955,0.5556968422111686,0.22627642289141767,-0.8131382114457087,0.33513365631417086,0.0022153854370117188,0
0.8102037906646729,0.2848880887031555,0.03493896871805191,-0.2092721313238144,0.2678457865567555,-0.6901073232561586,0.07270029265703627,0.2934216125751004,0.3514973310508105,0.5545822012436684,0.22899472060230383,-0.8144973603011518,0.3393773702216985,0.001886606216430664,0
0.8200132846832275,0.29615139961242676,0.0374353788793087,-0.22769004106521606,0.2747788877698554,-0.6884671335506384,0.04474918019559942,0.23009086740074577,0.33690224121907236,0.553490275363043,0.2316214909686553,-0.8158107454843276,0.34348636146758177,0.001772165298461914,0
0.8301405906677246,0.3016813099384308,0.0387173593044281,-0.23673425614833832,0.27810860123103603,-0.687851406454716,0.03837209876002125,0.1984907928386042,0.3410326910811931,0.5523499203679129,0.23432790160277597,-0.8171639508013879,0.34772847747845537,0.001836538314819336,0
0.8400471210479736,0.3071407377719879,0.04002375155687332,-0.2456708550453186,0.2813807675695731,-0.6872405306051499,0.030994742960859738,0.16758147935653742,0.3450276724221956,0.5512216210587733,0.23696988094974875,-0.8184849404748743,0.3518781152204759,0.0021185874938964844,0
0.8501412868499756,0.312528133392334,0.0413566529750824,-0.2544997036457062,0.2846256208170821,-0.6867116385204306,0.022843630091920208,0.13804935315971095,0.34959697065368395,0.5500589530533617,0.23965631259334613,-0.819828156296673,0.3561063495041675,0.002607107162475586,0
0.8599526882171631,0.32308000326156616,0.04409331455826759,-0.27183711528778076,0.2909966034428017,-0.6853810509224145,-0.005972506533450606,0.08166228189455457,0.33809011071212836,0.5489163067273496,0.2422620238683856,-0.8211310119341928,0.36021613969837785,0.0021576881408691406,0
0.8700528144836426,0.3282397389411926,0.04549585282802582,-0.2803454101085663,0.2941541744071446,-0.6849405716353079,-0.012098100126548085,0.054028057538697716,0.3431200723824478,0.5477271416906785,0.24493872347050258,-0.8224693617352512,0.3644468706955913,0.002028942108154297,0
0.8800396919250488,0.3333160877227783,0.04692244902253151,-0.28880366683006287,0.2972535379668452,-0.6845266716526949,-0.0183439151451947,0.028376296547433802,0.34824696821073836,0.5465384765152324,0.2475796713957122,-0.823789835697856,0.36863016413588773,0.00186920166015625,0
0.8901829719543457,0.33831292390823364,0.04837390407919884,-0.2971552610397339,0.30027530031074,-0.6841165823841546,-0.025910656065671826,0.004080645776156778,0.3541544188856343,0.5453181617054512,0.25025607388070986,-0.8251280369403549,0.37287897133900016,0.0018777847290039062,0
0.899979829788208,0.3480566442012787,0.05135253444314003,-0.31354156136512756,0.30616287530223546,-0.6830856999368747,-0.05529866657229759,-0.041478997617391294,0.3453835404335271,0.5441270813537831,0.2528353601405735,-0.8264176800702867,0.3769826695522169,0.0018460750579833984,0
0.9100933074951172,0.3527992069721222,0.05287608131766319,-0.32157737016677856,0.30906879175244933,-0.682772983725287,-0.061282230064667306,-0.06310872826459042,0.3518438992049412,0.5428847099632117,0.25549205797472346,-0.8277460289873617,0.38121899318771957,0.0019011497497558594,0
0.9200761318206787,0.3574545383453369,0.05442247539758682,-0.3295094966888428,0.311925087739904,-0.6824719785720629,-0.06753566397171443,-0.08324663029107546,0.3583206121939864,0.5416456673737857,0.25810844816705675,-0.8290542240835284,0.3854005888628211,0.0018880367279052734,0
0.9300134181976318,0.3620222806930542,0.055991530418395996,-0.33733806014060974,0.3147426147657543,-0.6822384731787706,-0.07356570094178308,-0.10187313271934587,0.36491876694750874,0.5403997535448821,0.2607069357892701,-0.830353467894635,0.38956310964661495,0.0018107891082763672,0
0.9399003982543945,0.3708903193473816,0.05919069051742554,-0.35268262028694153,0.3202725779596004,-0.6815329089756399,-0.09977673538873369,-0.13609725150986204,0.35832496389002383,0.5391477755773257,0.2632863006121312,-0.8316431503060655,0.39370455816828354,0.0016720294952392578,0
0.9499893188476562,0.3751871585845947,0.06082204729318619,-0.3602401316165924,0.3229801588938079,-0.6813634695697769,-0.1046464231864858,-0.15201223066149522,0.36582592000678194,0.5378575351388746,0.2659121507083388,-0.8329560753541694,0.39793059534407577,0.0017397403717041016,0
0.9599995613098145,0.37939247488975525,0.06247415393590927,-0.3676944077014923,0.3256830214728967,-0.6812242050102798,-0.11008073560677037,-0.16698841836799816,0.37322863580665777,0.536564716959264,0.26851127446426704,-0.8342556372321335,0.40212367590137826,0.001737356185913086,0
0.9703552722930908,0.3835046887397766,0.06414660811424255,-0.3750459551811218,0.32836228872232565,-0.6811187784768548,-0.11462744708048278,-0.18088137495157228,0.3814631609265109,0.535214064559822,0.27119348277079725,-0.8355967413853986,0.4064614659744129,0.001825094223022461,0
0.9799289703369141,0.3914514482021332,0.06755175441503525,-0.3894421458244324,0.3336639086320116,-0.6806796789826522,-0.14001146856251864,-0.2036769834424142,0.3756016508330786,0.533953478753632,0.2736671016525273,-0.8368335508262637,0.4104716872333679,0.002107381820678711,0
0.9900197982788086,0.395286500453949,0.06928420811891556,-0.39648741483688354,0.3362794494535262,-0.6806484678459477,-0.1443078332251756,-0.21350664044447454,0.38368052302966127,0.5326124267594743,0.27626799101847405,-0.838133995509237,0.4146985233574872,0.0019042491912841797,0
1.000077486038208,0.3990298807621002,0.07103604078292847,-0.4034326672554016,0.33891969116264575,-0.6806162126983635,-0.1477625218455837,-0.22207310936449537,0.39156547717879747,0.5312631724937096,0.27885379960100753,-0.8394268998005037,0.41891147775442433,0.0021555423736572266,0
1.0100231170654297,0.40268173813819885,0.07280541211366653,-0.41027992963790894,0.34150972729732665,-0.680592531454155,-0.15116941691976327,-0.23008586269013304,0.39948178566336506,0.5299166058299883,0.2814043192021486,-0.8407021596010742,0.423077493937149,0.001917123794555664,0
1.020024299621582,0.4097132682800293,0.07640586048364639,-0.4237174093723297,0.34673347594478965,-0.6803864629865839,-0.17266030466965895,-0.24067950120895554,0.3950167503099495,0.5285501705747001,0.2839625277839584,-0.8419812638919791,0.4272667794898981,0.0019333362579345703,0
1.0300548076629639,0.4130953848361969,0.07823826372623444,-0.43030622601509094,0.34938816290095076,-0.6804689595015289,-0.17602279153115702,-0.24446589202772095,0.40286378396885064,0.5271673244818856,0.2865215733563711,-0.8432607866781855,0.43146834887317526,0.0022590160369873047,0
1.0400245189666748,0.4163881540298462,0.0800897479057312,-0.4367964565753937,0.3520241999725841,-0.6805620208739331,-0.17892370494892823,-0.24711031088599486,0.4106854617925995,0.5257805825604374,0.2890584352728822,-0.8445292176364411,0.4356444517785285,0.0033953189849853516,0
1.0501985549926758,0.4195917546749115,0.08196070045232773,-0.4431885778903961,0.35465584888354706,-0.6806983874020722,-0.18151185517828786,-0.2491158392733852,0.41896310044216345,0.5243528344349802,0.2916403693249656,-0.8458201846624828,0.43990614202341416,0.0024852752685546875,0
1.059896469116211,0.42573782801628113,0.08576419949531555,-0.4556800127029419,0.35993675863957303,-0.6807139589715883,-0.20103374149371667,-0.24888128987520067,0.4136956416508675,0.5229800984039009,0.29409491099549157,-0.8470474554977457,0.4439683947921665,0.0020704269409179688,0
1.0703256130218506,0.42868196964263916,0.08769521862268448,-0.4617815613746643,0.36257676022974794,-0.6808868671138035,-0.20186828333139892,-0.24758939831026053,0.4224664283804642,0.5214910359110496,0.29672731499546906,-0.8483636574977345,0.4483369443757917,0.0031828880310058594,0
1.0799765586853027,0.4315415322780609,0.08964457362890244,-0.46778932213783264,0.36525416779775405,-0.6810583193401067,-0.20333705768837337,-0.24526710957748704,0.4294607416615655,0.520101279051261,0.2991565802873844,-0.8495782901436921,0.4523795230419911,0.0025310516357421875,0
1.0900483131408691,0.4343183934688568,0.09161092340946198,-0.4737030565738678,0.36795587116901235,-0.6812858270516496,-0.20318976635006822,-0.2426062332292129,0.4371758495336598,0.5186388582295279,0.3016848268215881,-0.850842413410794,0.45659836968284007,0.0020825862884521484,0
1.0999393463134766,0.43963009119033813,0.09558942914009094,-0.48537516593933105,0.3733863739935356,-0.6813517575986017,-0.21729010956487937,-0.2349050666998853,0.4314952708632961,0.5171907169010983,0.3041607508396307,-0.8520803754198153,0.4607415159697036,0.0020024776458740234,0
1.1098854541778564,0.4421651065349579,0.09760430455207825,-0.4910750687122345,0.37612493824140514,-0.6815486546096161,-0.21681190403897307,-0.23009700084410933,0.43878106968872577,0.5157225935781845,0.3066434517040771,-0.8533217258520385,0.46490773188950996,0.002131938934326172,0
1.1199977397918701,0.44462132453918457,0.09963461011648178,-0.49668559432029724,0.3788833304565907,-0.6817674524023293,-0.21521943980793815,-0.22449308166988594,0.4463012006814936,0.5142177232100065,0.3091603679916253,-0.8545801839958126,0.46914355618230824,0.003312826156616211,0
1.1303012371063232,0.44699975848197937,0.10168097168207169,-0.5022071003913879,0.38164766093021957,-0.6820208757001601,-0.21372841902700543,-0.21867383779280236,0.45420088530572206,0.512671763734831,0.3117172800295447,-0.8558586400147723,0.4734594750448906,0.0029599666595458984,0
1.139955997467041,0.4515249729156494,0.10582217574119568,-0.5129823684692383,0.38727590349437235,-0.6822720447911744,-0.22500041623724082,-0.2067564818067303,0.44697326391744596,0.511211603047306,0.31410618731537854,-0.8570530936576892,0.4775036516077441,0.001953601837158203,0
1.1501975059509277,0.4536747634410858,0.10791679471731186,-0.5182405710220337,0.39012990924047825,-0.6825313531114049,-0.22292829751673027,-0.1988848806969233,0.45429999433702306,0.5096505379571559,0.31663279861691784,-0.8583163993084588,0.4817936046496982,0.0019981861114501953,0
1.1600234508514404,0.45575398206710815,0.11002769321203232,-0.5234143137931824,0.39301284488862415,-0.6828144625668697,-0.22033619018718673,-0.18984934695395927,0.46061730993547273,0.5081410771333933,0.319049597601556,-0.8595247988007779,0.485909486824902,0.0034127235412597656,0
1.1701915264129639,0.4577593505382538,0.11214780062437057,-0.5285587310791016,0.39594857347685486,-0.6830829938612902,-0.216891236174954,-0.18131289719387036,0.4673615496547682,0.5065669925865044,0.3215429707237655,-0.8607714853618826,0.49016868035626576,0.0023119449615478516,0
1.1799607276916504,0.45969629287719727,0.11428326368331909,-0.5336190462112427,0.3988690491939138,-0.6833726167053471,-0.21400941644915158,-0.17262334262852114,0.47336539294048247,0.5050431318958479,0.32393121943528863,-0.8619656097176442,0.49426079381874066,0.002014636993408203,0
1.19002103805542,0.46337148547172546,0.11859767884016037,-0.5434911251068115,0.4047754210369274,-0.6837029942573029,-0.21944271303905863,-0.1542559576616548,0.4654753648866103,0.5034620947887471,0.3263830864351377,-0.8631915432175687,0.49847484676962756,0.0019593238830566406,0
1.2000482082366943,0.4651145935058594,0.12077648937702179,-0.5483046770095825,0.40778283617497924,-0.6840236410048987,-0.21527203728710323,-0.14423859047341267,0.4715590087299057,0.5018744214225611,0.32881919822566547,-0.8644095991128327,0.5026750179933324,0.0018398761749267578,0
1.210050344467163,0.4667956829071045,0.12296868115663528,-0.553037703037262,0.4108191304892716,-0.6843614034758096,-0.20994701851937203,-0.13448505321255635,0.4774234941857653,0.5002789683732709,0.3312415339346438,-0.8656207669673218,0.506864703020245,0.0017161369323730469,0
1.2199885845184326,0.4741491675376892,0.12764540314674377,-0.5664006471633911,0.41679123455340816,-0.6838913835077617,-0.19976620307048565,-0.08875576238877421,0.46890700935185775,0.49868212770408904,0.3336407281920518,-0.8668203640960259,0.5110276232782024,0.0017240047454833984,0
1.2301859855651855,0.4776800274848938,0.12999437749385834,-0.5728890299797058,0.41974705295325054,-0.6838112694987586,-0.18686508911129307,-0.06716193504116286,0.47555922939479645,0.4970316865941661,0.33609448451493323,-0.8680472422574665,0.5152991006400941,0.0027551651000976562,0
1.2399826049804688,0.4811144769191742,0.1323496699333191,-0.5792978405952454,0.42274059028648087,-0.6837427717509283,-0.17465724325757598,-0.04587217410512059,0.48119287125730337,0.4954347400664759,0.33844411405025715,-0.8692220570251286,0.51940269898477,0.002178668975830078,0
1.2500386238098145,0.48445627093315125,0.1347111314535141,-0.5855812430381775,0.42571893068396016,-0.6837184604563197,-0.16199951362702453,-0.024699454797252097,0.48743399418541117,0.4937839567608797,0.3408480659261098,-0.8704240329630548,0.5236149543019211,0.0020880699157714844,0
1.2599139213562012,0.49087274074554443,0.13945549726486206,-0.5977857112884521,0.43183089351073545,-0.6833740099115927,-0.15142388935507498,0.015495251978243857,0.47793879965381575,0.49215148838784745,0.34320097971542335,-0.8716004898577117,0.5277515092650866,0.0019118785858154297,0
1.2701270580291748,0.493953138589859,0.14183999598026276,-0.603710412979126,0.4349620928536096,-0.6833903787484984,-0.1387982820182389,0.035715079287407726,0.483715932712297,0.49045137926502486,0.3456261630389614,-0.8728130815194807,0.5320295779506763,0.0021848678588867188,0
1.2800254821777344,0.49695271253585815,0.14423087239265442,-0.609519362449646,0.4380924501168241,-0.6834223173168383,-0.12561952564910722,0.05508932144016977,0.48882052092329425,0.48879225390795716,0.3479685797878583,-0.8739842898939291,0.536175820162307,0.0018718242645263672,0
1.2901928424835205,0.49987366795539856,0.14662641286849976,-0.6152146458625793,0.4412657045440049,-0.6834613906060674,-0.11207319116265994,0.07355826879942341,0.49425598428446377,0.48707640369911515,0.3503663467850994,-0.8751831733925497,0.5404347140880481,0.0018563270568847656,0
1.2999930381774902,0.5054838061332703,0.15143083035945892,-0.6262757778167725,0.44768521258478006,-0.6832609819482146,-0.10102451141695269,0.1053652096179267,0.48289901470209745,0.4854113832906778,0.3526695180644772,-0.8763347590322386,0.544539810460837,0.0018794536590576172,0
1.3101022243499756,0.5081750154495239,0.1538475602865219,-0.6316859126091003,0.4509436676905726,-0.6833072155836538,-0.08894178962844489,0.12022989597092235,0.4877601457120897,0.4836824557844619,0.3550370149242357,-0.8775185074621178,0.548774336462604,0.0018153190612792969,0
1.3200371265411377,0.5107924342155457,0.15626926720142365,-0.6369905471801758,0.45425437924130024,-0.683395022700183,-0.07772770181346836,0.134011156842661,0.49199423261996766,0.48197208503471656,0.3573554382506134,-0.8786777191253067,0.552935858560989,0.0021538734436035156,0
1.3302476406097412,0.5133386254310608,0.15869483351707458,-0.6421895623207092,0.45763325742664734,-0.6835308122525122,-0.06547579705949225,0.14637514876389024,0.49643482730863087,0.4802026864864012,0.35972959273771604,-0.879864796368858,0.5572128286926291,0.002928495407104492,0
1.339961051940918,0.5182223916053772,0.16355325281620026,-0.6522766947746277,0.46444763826939395,-0.6835722078249082,-0.05783996933508544,0.16580014383121586,0.48279934593817186,0.47850857653298984,0.3619800300905725,-0.8809900150452862,0.5612815729165385,0.0039653778076171875,0
1.3500730991363525,0.5205627679824829,0.16598674654960632,-0.6571682691574097,0.46787453908764703,-0.6837461253835848,-0.04728503360653627,0.17422670697343148,0.48677201564164857,0.47673373674799785,0.3643143481202609,-0.8821571740601304,0.5655172973407959,0.002595663070678711,0
1.3599426746368408,0.52283775806427,0.1684226393699646,-0.6619617938995361,0.4713216036090286,-0.6839095609918985,-0.03735068543057724,0.18187284597357967,0.4901342416369366,0.47499047348902096,0.36658430148422294,-0.8832921507421114,0.5696514554589804,0.002409696578979492,0
1.3704020977020264,0.5250493884086609,0.17085929214954376,-0.6666579842567444,0.4748167916597391,-0.6841325822251833,-0.026265001891864998,0.18756530122755322,0.4944592569629256,0.4731312298766851,0.3689808115815446,-0.8844904057907723,0.574032688347297,0.003576040267944336,0
1.3799703121185303,0.52928227186203,0.1757291704416275,-0.675835371017456,0.4818740181389134,-0.6843685740313273,-0.022304348861713504,0.1934105036809696,0.479207139634015,0.47141981461283905,0.3711648668589154,-0.8855824334294576,0.5780406126298118,0.0028798580169677734,0
1.3901259899139404,0.5313049554824829,0.17816178500652313,-0.6803151369094849,0.4854114203239249,-0.684643978822098,-0.013051060063312275,0.19482051973208622,0.48266850598543426,0.46959229435066185,0.3734743325671543,-0.8867371662835771,0.5822946129970499,0.002090930938720703,0
1.4000334739685059,0.5332668423652649,0.18059271574020386,-0.6846988797187805,0.4889425777128194,-0.6849170797309538,-0.004437731707491791,0.19530546564608123,0.48563984811919386,0.4677985338578755,0.3757186869459943,-0.8878593434729971,0.586444650213234,0.002100229263305664,0
1.4100067615509033,0.5351690649986267,0.1830221712589264,-0.6889890432357788,0.4925073601214744,-0.6851899837013525,0.0033442835387838712,0.19506019470298197,0.48858011428871867,0.4659820260628434,0.37796924661454595,-0.8889846233072729,0.5906222511467004,0.0019545555114746094,0
1.419978141784668,0.5370125770568848,0.18545174598693848,-0.6931870579719543,0.49611242774431863,-0.6854893261658285,0.010503294564370243,0.19382716051215057,0.49131159204367064,0.4641550415233473,0.3802105961548938,-0.8901052980774469,0.5947990531318398,0.002736330032348633,0
1.4301252365112305,0.5405232906341553,0.19030506908893585,-0.7013096213340759,0.5034027296149614,-0.6858860582004999,0.010107481991072063,0.1867703389093189,0.47604079328118515,0.462284795024539,0.38248237644252314,-0.8912411882212615,0.5990494582316063,0.0037479400634765625,0
1.4399316310882568,0.5421924591064453,0.19272685050964355,-0.7052378058433533,0.5070627391721702,-0.6861852626274992,0.016508577823444566,0.18154515953650208,0.47813403971022234,0.4604667784255336,0.3846691383077288,-0.8923345691538643,0.6031571511864581,0.002439737319946289,0
1.450246810913086,0.5438032746315002,0.19514478743076324,-0.7090797424316406,0.5107279222980932,-0.686540119464243,0.02234894175820664,0.17557343297414715,0.48126362058729966,0.45854327546447204,0.38696002962362064,-0.8934800148118103,0.6074779636075434,0.0022437572479248047,0
1.4601786136627197,0.5468449592590332,0.19996745884418488,-0.7165966033935547,0.5181117549060164,-0.6869750717000105,0.017982839567145394,0.16030869573229484,0.46507094028185986,0.45668049155080864,0.3891566890558504,-0.8945783445279252,0.6116381874148972,0.0036020278930664062,0
1.470390796661377,0.5482792258262634,0.20237071812152863,-0.7202278971672058,0.5218151440683748,-0.6873254462974893,0.02309221848353228,0.15128787561304546,0.46778465297407384,0.4547541478165253,0.3914060104848491,-0.8957030052424245,0.6159158566263233,0.0038535594940185547,0
1.4799230098724365,0.5496547818183899,0.20476706326007843,-0.7237774133682251,0.5255379432244346,-0.687648555822815,0.02612257223205326,0.14169733619961944,0.4690015870861655,0.45294607045347635,0.3934969596588446,-0.8967484798294223,0.6199087007591655,0.002369403839111328,0
1.4899089336395264,0.5509734153747559,0.20715908706188202,-0.7272459864616394,0.5292596213920765,-0.6880232000778026,0.029201676002573174,0.1332075779433818,0.4711736913463469,0.4510416222407124,0.39567847427736885,-0.8978392371386844,0.6240915947252984,0.0019397735595703125,0
1.5000770092010498,0.5534409880638123,0.21192725002765656,-0.7339447736740112,0.5367149745723877,-0.6885222805828884,0.020804046034557197,0.11173160882087406,0.45514242343724487,0.4490916396420939,0.3978903105173279,-0.8989451552586639,0.6283507882566621,0.0023801326751708984,0
1.5101847648620605,0.5545883774757385,0.2143004685640335,-0.7371764779090881,0.5404510051156125,-0.6889447715934153,0.02289634215996855,0.09987365500542977,0.4574966605140612,0.4471424747479052,0.4000795011948487,-0.9000397505974242,0.6325847150471838,0.003176450729370117,0
1.5199310779571533,0.5556767582893372,0.21666529774665833,-0.7403299808502197,0.5441857531423727,-0.6893379041914757,0.02458265804593826,0.08761324178446836,0.4591047899766185,0.4452529034155647,0.4021813670472686,-0.9010906835236343,0.6366672411297344,0.002101421356201172,0
1.5301780700683594,0.556708812713623,0.21902252733707428,-0.7434437870979309,0.547922797851674,-0.6897134102078775,0.026140739241720896,0.07594724332673279,0.4617503674866373,0.4432556090412043,0.4043815834747065,-0.9021907917373532,0.6409594911481287,0.002010345458984375,0
1.5399680137634277,0.5585980415344238,0.22371573746204376,-0.7494520545005798,0.5553796006600001,-0.6902237335300642,0.013154767750054386,0.05072465319063955,0.4449843784387545,0.44133724400698754,0.40647439901218463,-0.9032371995060923,0.64506029317366,0.0019683837890625,0
1.5499329566955566,0.559455931186676,0.22604897618293762,-0.7523476481437683,0.5591027289541907,-0.6906227434744941,0.01422828324444676,0.03849477061966484,0.44711915212528464,0.4393744401065986,0.4085952782167373,-0.9042976391083686,0.6492343987081957,0.0020301342010498047,0
1.5599448680877686,0.5602572560310364,0.2283734679222107,-0.7551722526550293,0.562815778921356,-0.691035891069959,0.01435829689388319,0.026622384214175582,0.4494161559626511,0.4373921207531055,0.4107166087500002,-0.9053583043750001,0.6534281783452843,0.00433802604675293,0
1.570448398590088,0.5610013604164124,0.23069000244140625,-0.7579264044761658,0.5665451663713809,-0.6914560771326093,0.01481328051970572,0.014509504232715822,0.4526553378828473,0.43530145502593415,0.4129317658552132,-0.9064658829276065,0.6578278869136633,0.003568410873413086,0
1.5799674987792969,0.5623148083686829,0.23530058562755585,-0.7632306814193726,0.573987481260943,-0.6920248944569286,-0.0027085906962454644,-0.009476863740927412,0.4355041217881742,0.43339704231166726,0.4149301190748858,-0.9074650595374428,0.6618152382767573,0.002389669418334961,0
1.5900254249572754,0.5628826022148132,0.2375928908586502,-0.7657836675643921,0.5776673086055193,-0.6924186719419894,-0.0034430947352891584,-0.021604649419577283,0.438089213464795,0.4313748642464777,0.4170320449274047,-0.9085160224637023,0.6660282925422353,0.0026633739471435547,0
1.600147008895874,0.5633918642997742,0.23987577855587006,-0.7683465480804443,0.5813437351723398,-0.6928192628021035,-0.004412537970192583,-0.03361551008599098,0.4408298269070416,0.42932959672272775,0.41913732520249253,-0.9095686626012462,0.6702680117081279,0.0026268959045410156,0
1.6102118492126465,0.5638420581817627,0.242148756980896,-0.7708432078361511,0.5850429244969213,-0.6932355683214785,-0.006397990951911995,-0.04483507506251141,0.4433604860919686,0.42728560704355867,0.42122085657457364,-0.9106104282872868,0.6744839621612914,0.0016622543334960938,0
1.620126485824585,0.5653396248817444,0.24472472071647644,-0.7754150629043579,0.5887243241458096,-0.6931820588720039,-0.005173160492011682,-0.04866384092158325,0.445652711277726,0.4252622348064424,0.4232635486873754,-0.9116317743436877,0.6786369954337018,0.0034666061401367188,0
1.6301217079162598,0.5680968761444092,0.2498248815536499,-0.7842086553573608,0.5958204315747734,-0.6928540222349708,-0.01621968755835182,-0.055141095180460856,0.43125459354540313,0.4232125322552886,0.4253130053761186,-0.9126565026880593,0.6828237842729289,0.0027129650115966797,0
1.6401023864746094,0.5693581700325012,0.2523479163646698,-0.7884383201599121,0.5993512701477874,-0.6927806451593344,-0.014698374603494834,-0.05816824552902078,0.43445120473778187,0.4211559568588635,0.42734957587705075,-0.9136747879385253,0.6870044811311626,0.0037865638732910156,0
1.6501150131225586,0.5705418586730957,0.2548524737358093,-0.7925608158111572,0.6028454408201999,-0.6927475287406629,-0.013405241046026523,-0.060700297381539904,0.43790807583756236,0.41908295111555177,0.4293826732464644,-0.9146913366232321,0.691198560373874,0.002357959747314453,0
1.6599502563476562,0.5726795196533203,0.2598115801811218,-0.8004905581474304,0.6098241799425524,-0.6924876646522278,-0.025762583150028006,-0.06506645311982998,0.4238270586799148,0.417037115174809,0.4313699625225116,-0.9156849812612557,0.6953183374221721,0.002177715301513672,0
1.6701598167419434,0.573633074760437,0.26227107644081116,-0.8043475151062012,0.6133053849908702,-0.6924678443035628,-0.024629236114307108,-0.06653691869965186,0.42778122111151723,0.414903449468633,0.43342257396105877,-0.9167112869805294,0.6995949080796485,0.0029840469360351562,0
1.6799945831298828,0.5745118260383606,0.2647131681442261,-0.8081043362617493,0.6168322217135538,-0.692496919052072,-0.023828191580558843,-0.06804483628944712,0.43073338608519396,0.41283855713671286,0.43538985489016285,-0.9176949274450814,0.7037144853908649,0.0023033618927001953,0
1.6902384757995605,0.575316846370697,0.2671371102333069,-0.8117616176605225,0.6203318664503199,-0.692550726672436,-0.02246269365064024,-0.06949792220421072,0.434671840610521,0.410677848017621,0.4374285143284738,-0.9187142571642368,0.7080054371182278,0.002104520797729492,0
1.6999099254608154,0.5767062306404114,0.2719334363937378,-0.8187881112098694,0.62733777721636,-0.6924054717967139,-0.036219320802552475,-0.07258824341530931,0.4201678464673715,0.40862864247540936,0.43934341072639754,-0.9196717053631988,0.7120566044789427,0.0018770694732666016,0
1.7099969387054443,0.5772950053215027,0.27430665493011475,-0.8221625685691833,0.6308221559289395,-0.6924914856939366,-0.034428718242939256,-0.07237548055087137,0.4238645663444934,0.40648187487179405,0.4413303585758758,-0.9206651792879379,0.7162818427064079,0.0018360614776611328,0
1.7200579643249512,0.5778161287307739,0.2766636610031128,-0.8254455327987671,0.6342900946979749,-0.6925968464537268,-0.033370589046658745,-0.07210593009468261,0.42760471379014103,0.4043310139765025,0.4433017382514232,-0.9216508691257116,0.7204961952629174,0.0017969608306884766,0
1.7300100326538086,0.5782698392868042,0.27900367975234985,-0.8286385536193848,0.6377487252249338,-0.6927175198154047,-0.03198546141860819,-0.07182185151765258,0.43116252337859534,0.40219403991032915,0.4452414561343188,-0.9226207280671593,0.7246649078962457,0.0016446113586425781,0
1.7399415969848633,0.5789798498153687,0.28362613916397095,-0.8347973227500916,0.6446499711197958,-0.692776881075523,-0.04412293465809495,-0.07164077170502225,0.41773180118997927,0.40005219191343067,0.4471669081509271,-0.9235834540754635,0.7288250318350585,0.0016980171203613281,0
1.7499737739562988,0.5792385935783386,0.2859116792678833,-0.8377651572227478,0.6480414836633294,-0.6929368124434896,-0.04329659453956385,-0.07085294599682172,0.421806177070071,0.39787928761632035,0.4491014055710908,-0.9245507027855453,0.7330273002981218,0.00159454345703125,0
1.7598881721496582,0.5794329047203064,0.28818225860595703,-0.8406480550765991,0.6514114312080559,-0.6931294654654097,-0.04293484733707154,-0.07057663791277267,0.4257486807740521,0.3957227029708597,0.4510028185648475,-0.9255014092824236,0.7371802337019914,0.0016887187957763672,0
1.7703542709350586,0.579562783241272,0.2904389798641205,-0.8434464931488037,0.6547595344839731,-0.6933492589278265,-0.04232565163619835,-0.07000450608036306,0.4309527139352113,0.3934362541502418,0.45299880123486674,-0.9264994006174333,0.7415642629094525,0.00174713134765625,0
1.779984474182129,0.579634964466095,0.29491060972213745,-0.8487988114356995,0.6614313590999397,-0.693553340177839,-0.05543142825740524,-0.06968665211270826,0.4180472143859663,0.39132352227025213,0.4548251322409564,-0.9274125661204782,0.7455981530125956,0.0016973018646240234,0
1.790116310119629,0.5795795917510986,0.297126442193985,-0.8513551950454712,0.6647662784198589,-0.6937842879308138,-0.0548015945100048,-0.06837478724369647,0.4226228821039001,0.38909158843282543,0.45673595852617155,-0.9283679792630857,0.749842166525746,0.0018203258514404297,0
1.8000452518463135,0.5794651508331299,0.2993299961090088,-0.8538349270820618,0.6680883098432788,-0.694002856509957,-0.054731232639194584,-0.06669400818399966,0.4268502979328443,0.3868952976431795,0.4585978943056711,-0.9292989471528355,0.754001191910609,0.001852273941040039,0
1.8100273609161377,0.5792916417121887,0.30152249336242676,-0.856238842010498,0.6714107232410865,-0.6942502078612598,-0.05491032482721946,-0.06510828445517002,0.4311896639756887,0.38467826471331346,0.46045915416804767,-0.9302295770840238,0.7581824879800878,0.00176239013671875,0
1.8200571537017822,0.5787684321403503,0.30586928129196167,-0.8608941435813904,0.6780587797157014,-0.6946020779239553,-0.06626902390472737,-0.06532189441170871,0.4192008019463624,0.38244162307577295,0.4623185102709694,-0.9311592551354846,0.7623837577577424,0.0018496513366699219,0
1.830028772354126,0.5784206986427307,0.30802083015441895,-0.8631091713905334,0.6813610382856155,-0.6948991334180987,-0.0655842633521501,-0.06500801983785791,0.423601007198831,0.3802090450603301,0.4641563120914245,-0.9320781560457122,0.7665606596114226,0.0017430782318115234,0
1.8400049209594727,0.5780162811279297,0.31015926599502563,-0.8652512431144714,0.6846544775777967,-0.6951831960893182,-0.06505645994590788,-0.06431105737697186,0.4280597568981753,0.3779666154812449,0.46598416022613126,-0.9329920801130656,0.7707394589673796,0.0016148090362548828,0
1.8502492904663086,0.5775570869445801,0.31228506565093994,-0.8673222064971924,0.6879530928041767,-0.6954865454954733,-0.06363715358157485,-0.06291014130337093,0.4330467702730451,0.375654751162723,0.4678498775556884,-0.9339249387778441,0.7750306104318243,0.0017185211181640625,0
1.8600046634674072,0.5764775276184082,0.31650158762931824,-0.8712580800056458,0.6945681713195412,-0.6958509146001916,-0.07660103701165005,-0.06233822409734851,0.4206535010458299,0.37344467817427857,0.4696158774395404,-0.9348079387197702,0.7791169315189282,0.0017316341400146484,0
1.8701701164245605,0.5758584141731262,0.3185936510562897,-0.8731265068054199,0.6978702659705861,-0.6961575232381201,-0.07548873458893347,-0.061189367224575096,0.4254576095293957,0.3711328697055874,0.47144500530188616,-0.935722502650943,0.7833750264963423,0.0017735958099365234,0
1.8800294399261475,0.5751884579658508,0.3206770122051239,-0.8749291300773621,0.7011562695975037,-0.6964926476204045,-0.07517809823892176,-0.05957311446000013,0.429712715558421,0.36888212181582436,0.4732081785056713,-0.9366040892528356,0.787504890267269,0.0016658306121826172,0
1.890044927597046,0.5744683742523193,0.32275018095970154,-0.8767390847206116,0.7044515150397401,-0.6968046556770495,-0.07408335347460186,-0.058573553281594685,0.43423893464824903,0.3665871476739729,0.4749882768661357,-0.9374941384330678,0.7917001679324709,0.0015897750854492188,0
1.8999254703521729,0.5728784799575806,0.3268599808216095,-0.8801644444465637,0.711055188108697,-0.6972453320379246,-0.0845527101098123,-0.05890486957961147,0.4221141615964382,0.3643146777327309,0.47673348486182127,-0.9383667424309106,0.7958389200035356,0.0016930103302001953,0
1.9100651741027832,0.5720117092132568,0.3288981020450592,-0.881783664226532,0.7143760309115856,-0.6975496224638034,-0.08308953737386211,-0.05769301816428882,0.4267657534519494,0.36197396466741555,0.47851316481676087,-0.9392565824083804,0.8000862291785351,0.0017690658569335938,0
1.9200379848480225,0.5710985660552979,0.33092615008354187,-0.8833428621292114,0.7176863568889617,-0.697863603271592,-0.08159450042718565,-0.056485243495446195,0.43112220757592334,0.3596632977843765,0.480252342239855,-0.9401261711199275,0.8042636303749197,0.0019795894622802734,0
1.9303739070892334,0.57014000415802,0.33294376730918884,-0.8848421573638916,0.7210141581585746,-0.6982186658763122,-0.079276979033817,-0.05503031755230752,0.43614396123461646,0.35725968186624685,0.48204306831737354,-0.9410215341586867,0.8085931313590615,0.005043745040893555,0
1.9400966167449951,0.5680939555168152,0.33694759011268616,-0.8876647353172302,0.7276551071495099,-0.6986985436248905,-0.08828094567153653,-0.05470097796394316,0.42347363553848283,0.35499052933778313,0.48371657412216146,-0.9418582870610807,0.8126657704560651,0.0030488967895507812,0
1.9502971172332764,0.5670061111450195,0.3389328420162201,-0.888992428779602,0.730959339886148,-0.6990022568524582,-0.08622123761638006,-0.053887248456661804,0.4283279724459307,0.3526014412431682,0.4854608363537069,-0.9427304181768534,0.8169385461089883,0.004991769790649414,0
1.9601876735687256,0.5658761262893677,0.3409089744091034,-0.8903325796127319,0.7342958757241431,-0.6992778043159736,-0.08420215612813427,-0.051702850758336145,0.43238018362948144,0.35027676178205797,0.4871408319526042,-0.9435704159763021,0.8210814926587701,0.005054473876953125,0
1.9703285694122314,0.5647068023681641,0.3428761661052704,-0.8916193842887878,0.7376327728628276,-0.699598216826212,-0.0814170902540119,-0.049804275468883524,0.43694664975623576,0.3478849321213866,0.48885179144900165,-0.9444258957245008,0.8253293011764737,0.00304412841796875,0
1.9799911975860596,0.5622504353523254,0.34678158164024353,-0.8940333724021912,0.7443523662195993,-0.7000584168226538,-0.0901986038540243,-0.048361215169127246,0.4237459560430559,0.34559813046387533,0.49047113291189137,-0.9452355664559456,0.8293767734011761,0.0033745765686035156,0
1.9899952411651611,0.5609645843505859,0.3487209975719452,-0.8951627016067505,0.7476894816332255,-0.7003949690114787,-0.08757499847293372,-0.04679300005359786,0.4280231025421059,0.3432225866790862,0.49213642010454495,-0.9460682100522724,0.8335672573764158,0.002675771713256836,0
1.9999117851257324,0.5596409440040588,0.35065120458602905,-0.8962422609329224,0.751033504658793,-0.7007055798741009,-0.08480668679292687,-0.045649453721809764,0.4320809973806336,0.34085990106418734,0.49377578701928304,-0.9468878935096414,0.8377210895971533,0.0017244815826416016,0
2.010199546813965,0.5582801699638367,0.3525712788105011,-0.8972739577293396,0.7543627254307431,-0.701016225826839,-0.08157522866176468,-0.044580706425906266,0.43698585289557584,0.33840049567495717,0.4954645340757936,-0.9477322670378967,0.8420304171360378,0.002025604248046875,0
2.019961357116699,0.5575948357582092,0.3547786772251129,-0.900356113910675,0.7577052103619899,-0.7008596511816448,-0.07610111895490962,-0.038923376778385775,0.44072087121628967,0.3360590880721311,0.49705561995025027,-0.9485278099751251,0.8461194346737454,0.0028409957885742188,0
2.030059814453125,0.5560846924781799,0.3591423034667969,-0.9062402248382568,0.7642767380620088,-0.7004056629076545,-0.07748648844459556,-0.028827828123265387,0.4291275013098455,0.3336290627862376,0.4986899321867012,-0.9493449660933506,0.8503494665911727,0.00261688232421875,0
2.039918899536133,0.5552621483802795,0.36129996180534363,-0.9090468287467957,0.7675706332894607,-0.700299303600209,-0.07178617571030232,-0.022997836616941467,0.43330707816272124,0.3312489705690247,0.50027404439663,-0.950137022198315,0.8544792304935586,0.00241851806640625,0
2.0500683784484863,0.5543965101242065,0.36344316601753235,-0.9117617607116699,0.7708604715833747,-0.7002062861602245,-0.06577487777745786,-0.016944055458917705,0.43811254062851773,0.3287909176302345,0.501892949227092,-0.950946474613546,0.8587306342787339,0.0030393600463867188,0
2.060288667678833,0.5525380969047546,0.36768534779548645,-0.9169274568557739,0.7774881108220532,-0.6998404270064814,-0.06684587179917574,-0.00813071001887576,0.4264734157056809,0.3263077207571113,0.5035109446420197,-0.9517554723210098,0.8630116990205499,0.0032608509063720703,0
2.0700747966766357,0.5515482425689697,0.36978310346603394,-0.9193829298019409,0.7807863279987767,-0.699789290313199,-0.06074906093408349,-0.003164770380920929,0.4304714905767714,0.3239225479450279,0.5050486936254771,-0.9525243468127385,0.8671109031494271,0.002140522003173828,0
2.0799355506896973,0.5505207180976868,0.3718663454055786,-0.9217544794082642,0.7841003891171071,-0.6997627992241278,-0.05467809689508889,0.0022089450257614033,0.4345459852272803,0.32151185720186487,0.5065867405278267,-0.9532933702639133,0.8712413661315991,0.0019071102142333984,0
2.09033465385437,0.5494558811187744,0.373935729265213,-0.9240445494651794,0.7874332433213325,-0.6997359298727072,-0.04836590675941281,0.0069325377208389015,0.43964922710335796,0.3189616438348806,0.5081962905828326,-0.9540981452914162,0.8755973322790735,0.0018825531005859375,0
2.099971294403076,0.5472097396850586,0.3780395984649658,-0.9284112453460693,0.7941233872867289,-0.6996298722819071,-0.05151413588563767,0.014201937702421036,0.42646923435479356,0.3165912177670179,0.5096763687211686,-0.9548381843605842,0.8796339188328203,0.0017712116241455078,0
2.1100997924804688,0.54603111743927,0.3800716996192932,-0.9304896593093872,0.7974971229581896,-0.6996517667499729,-0.04641048612900637,0.01782537333434822,0.43080528112360406,0.3140924026328328,0.511220072579642,-0.955610036289821,0.8838765341863983,0.0018439292907714844,0
2.1200850009918213,0.5448161959648132,0.38209080696105957,-0.9324925541877747,0.8008463540713536,-0.6996938100917824,-0.042055514904859315,0.021314147347979158,0.43496729681122603,0.3116215703926603,0.5127299453572146,-0.9563649726786072,0.8880591285469086,0.001967191696166992,0
