time,x,y,z,yaw,throttle,roll_rate,pitch_rate,yaw_rate,x_ref,y_ref,z_ref,yaw_ref,mpc_time,metadata
7.152557373046875e-07,0.00037534418515861034,-0.006598777137696743,-0.02170839160680771,-0.0042635318007195515,-0.8216720164206992,0.0779120414333948,-0.7999999999999976,0.008135426995034088,0.5999999999999641,2.0741927720809036e-07,-0.7000001037096386,2.996056226339143e-07,0.003751993179321289,Sim
0.010013818740844727,0.00023309813695959747,-0.006546622142195702,-0.021611683070659637,-0.004231682096467315,-0.8218949620009613,0.08293793577793016,-0.7999999999999976,0.027390492601790557,0.5999929726288546,0.002903927683409495,-0.7014519638417047,0.004194578585415677,0.0024039745330810547,Horizon:3.0
0.02005624771118164,0.00016203842824324965,-0.006523167714476585,-0.02156844362616539,-0.004229303554470787,-0.8221338802639222,0.08838334579291873,-0.7999999999999977,0.04677756438109123,0.5999718103128672,0.005816083725398764,-0.7029080418626993,0.00840114139573671,0.0023949146270751953,Num Steps:20
0.029851198196411133,9.048685024026781e-05,-0.006501827854663134,-0.021506762132048607,-0.004235126587440041,-0.8223806744170976,0.09378410315862976,-0.7999999999999977,0.06568196752520543,0.5999375531855206,0.008656343210077754,-0.7043281716050388,0.012504040660626412,0.002439737319946289,No Pyjoules
0.04001760482788086,1.9050778064411134e-05,-0.0064827618189156055,-0.02144789882004261,-0.0042406338019838966,-0.8226340606484862,0.09947837720614562,-0.7999999999999976,0.08529048105157891,0.5998877767270538,0.011604108473829417,-0.7058020542369147,0.01676253511220399,0.002386331558227539,0
0.04990530014038086,-5.163764944882132e-05,-0.006466661114245653,-0.02139122784137726,-0.0042373853597695455,-0.8229039939962028,0.10532356232754869,-0.7999999999999976,0.10421427845144536,0.5998254714121349,0.014470792832808641,-0.7072353964164043,0.020904283239495225,0.0025360584259033203,0
0.05991768836975098,-0.00018941782764159143,-0.0064436267130076885,-0.021281536668539047,-0.004225166149976456,-0.8231353265719236,0.11115711726302012,-0.7999999999999976,0.12332876962656389,0.5997484212039333,0.01737329166822576,-0.7086866458341128,0.025098262613665635,0.002393484115600586,0
0.07009172439575195,-0.00025089227710850537,-0.006434922106564045,-0.02125665545463562,-0.004222874695079619,-0.8225291887233916,0.1165483052507149,-0.7999999999999962,0.1432010191362164,0.5996557402562792,0.02032223358033534,-0.7101611167901676,0.029359952858551308,0.002413511276245117,0
0.07983517646789551,-0.00028422035393305123,-0.006426739040762186,-0.021327299997210503,-0.004251634745927711,-0.8209280695503653,0.12160978891493877,-0.7999999999999703,0.16273663300939045,0.5995533894471026,0.02314591113978858,-0.7115729555698942,0.033441280518611366,0.0025031566619873047,0
0.0899496078491211,-0.00025196815840899944,-0.0064104641787707806,-0.021940339356660843,-0.004320211065051435,-0.8161018154625016,0.12602188913586065,-0.7999999999730872,0.18463596994191958,0.5994330765368392,0.026076555631062395,-0.7130382778155312,0.03767800362827755,0.002316713333129883,0
0.09992265701293945,-0.00018061489390674978,-0.006405288819223642,-0.02253093384206295,-0.004380862757805531,-0.8139660136712586,0.12731414529137422,-0.7999999999927939,0.20931822743260362,0.5993004192984571,0.028965624949125482,-0.7144828124745627,0.04185550469320309,0.0028192996978759766,0
0.10993409156799316,-8.049558528000489e-05,-0.006398900877684355,-0.023320002481341362,-0.004412547463114861,-0.8113003949072801,0.13160855026594026,-0.7999999999999219,0.2300068684436282,0.5991532467069349,0.031865137070765805,-0.7159325685353829,0.04604908459320999,0.0029211044311523438,0
0.12006139755249023,4.5451175537891686e-05,-0.006392098963260651,-0.024307267740368843,-0.004399619969614836,-0.8086494502934394,0.13481419488128993,-0.7999999999999827,0.2507792602432827,0.598990098060962,0.03479744854036051,-0.7173987242701803,0.050291200604083576,0.0023529529571533203,0
0.13002514839172363,0.00019623700063675642,-0.006389053538441658,-0.025492718443274498,-0.00434549262326329,-0.8060057679499016,0.13691120954935235,-0.7999999999999758,0.2710657505294237,0.5988155790901485,0.03768159018579467,-0.7188407950928973,0.05446480679591489,0.0022270679473876953,0
0.1399824619293213,0.00037250452442094684,-0.0063856481574475765,-0.02687438577413559,-0.0042043427105123545,-0.8033849569265196,0.13696630590115888,-0.79999999999999,0.2912161664678811,0.5986272992434096,0.04056299545819164,-0.7202814977290958,0.05863571653714248,0.0021364688873291016,0
0.1500108242034912,0.0008080198895186186,-0.00637405551970005,-0.03021502122282982,-0.0036640084610232958,-0.7979614359475428,0.1277840435579431,-0.7999999999999999,0.3107480367745308,0.5984236624378472,0.0434640107959856,-0.7217320053979928,0.06283638710355172,0.0021517276763916016,0
0.15994930267333984,0.0010722612496465445,-0.006367173511534929,-0.032166071236133575,-0.0032633424868087724,-0.7954399914592073,0.12549703528014314,-0.8,0.329662055603544,0.5982079806864999,0.046338017253440195,-0.7231690086267201,0.06699940723004996,0.002033233642578125,0
0.1699998378753662,0.0013731415383517742,-0.006359998602420092,-0.03429607301950455,-0.002748728724161678,-0.7929970124939832,0.12221628566214551,-0.8,0.3485287635073739,0.5979758301136624,0.04924334066527579,-0.7246216703326378,0.07120936557076084,0.0019774436950683594,0
0.18006038665771484,0.002100867684930563,-0.006334119010716677,-0.03911685571074486,-0.0014084955177351658,-0.7878716522314814,0.1068957521648354,-0.7999999999999646,0.36492088511439463,0.597729316918181,0.052150394979565556,-0.7260751974897828,0.0754235183901886,0.0022399425506591797,0
0.18987107276916504,0.002535915235057473,-0.0063151088543236256,-0.041774261742830276,-0.0005890794762660158,-0.7855036201645673,0.1021378822969814,-0.8,0.3818803770533533,0.5974753156458357,0.054984063090217264,-0.7274920315451086,0.07953300897877624,0.0017080307006835938,0
0.19998526573181152,0.003028166014701128,-0.006293416488915682,-0.04458758607506752,0.00033020485294284923,-0.7831655360472122,0.09752867372171876,-0.7999999999982198,0.3990717087038765,0.5971993932037089,0.05790409965729464,-0.7289520498286473,0.08376963221990155,0.0019910335540771484,0
0.21025323867797852,0.004192685708403587,-0.006230250000953674,-0.05066292732954025,0.0025477878184667897,-0.7782914826009266,0.0804212079555192,-0.7999999997248346,0.41158000896588454,0.5969046774606194,0.060867117770056836,-0.7304335588850284,0.08807067066989314,0.002886056900024414,0
0.2200467586517334,0.004875105805695057,-0.006187981925904751,-0.05391521006822586,0.003808527295739645,-0.7760660709405728,0.07432326868324185,-0.7999999995679007,0.4266924028873005,0.5966098818127449,0.06369182775978895,-0.7318459138798944,0.09217297072353758,0.0022721290588378906,0
0.23008251190185547,0.005630060099065304,-0.006138163153082132,-0.05730072781443596,0.005182190959694592,-0.7738923688692391,0.06949820669251476,-0.7999999994867278,0.44184964736703225,0.5962939275160238,0.0665849232748298,-0.7332924616374149,0.09637673721471403,0.0019850730895996094,0
0.23985004425048828,0.0064621903002262115,-0.006080063991248608,-0.06081445887684822,0.006658742498014333,-0.7717374281241987,0.06451120019840564,-0.7999999993931615,0.45610987845848666,0.595972945746245,0.06939919263610486,-0.7346995963180524,0.10046815159740277,0.0019745826721191406,0
0.24991488456726074,0.00737803615629673,-0.006012471858412027,-0.06444093585014343,0.008264035206827638,-0.7696409497731631,0.05983435382283075,-0.8,0.4704716684575845,0.5956282991489292,0.07229750516410366,-0.7361487525820518,0.10468410205056633,0.002610445022583008,0
0.2604033946990967,0.008381188847124577,-0.005933885462582111,-0.06818366795778275,0.009981221847596448,-0.7672600108814993,0.05093445911485746,-0.7833805701330252,0.48851404921387737,0.5952541477791945,0.07531599797961194,-0.7376579989898059,0.10907751890087004,0.0035402774810791016,0
0.27011775970458984,0.010672527365386486,-0.005743294954299927,-0.075995072722435,0.013693471458332806,-0.7624503729643558,0.03829451103172586,-0.6306263934991081,0.4904241389716838,0.5948939669277474,0.07810997447809173,-0.7390549872390458,0.11314666259894299,0.0021958351135253906,0
0.2801079750061035,0.011970254592597485,-0.0056298840790987015,-0.08005505055189133,0.015720922547073322,-0.7602397908918059,0.035685750077929144,-0.5516329801929996,0.5014124368149445,0.5945098803782872,0.08098149253128566,-0.7404907462656428,0.11733135419881176,0.002088308334350586,0
0.2900381088256836,0.013370972126722336,-0.00550185376778245,-0.08421023935079575,0.017863763121213676,-0.7580982620907054,0.03324917902467397,-0.47149442747754866,0.5117553786529168,0.5941143679399655,0.08383387028698604,-0.741916935143493,0.12149087892637926,0.0018846988677978516,0
0.3000047206878662,0.016156021505594254,-0.0051302737556397915,-0.09139470010995865,0.022449655035752646,-0.7539884751517844,0.022130933173497812,-0.3089704713509194,0.5103130610136838,0.5937036418683114,0.08669478434314144,-0.7433473921715706,0.1256656835407011,0.0019328594207763672,0
0.3100862503051758,0.017555944621562958,-0.004886007867753506,-0.0944443866610527,0.024881551417563465,-0.7523145624242348,0.021283534823953187,-0.2249091664253992,0.5197569753294302,0.5932741644264959,0.08958663864685998,-0.74479331932343,0.1298886247917261,0.002112865447998047,0
0.3199307918548584,0.019082047045230865,-0.004625370725989342,-0.09761068969964981,0.027434271060074795,-0.7506430759855911,0.020937884940067344,-0.13978726061263883,0.5281696679926233,0.5928411897145773,0.09240846161366693,-0.7462042308068334,0.13401229671311843,0.0020880699157714844,0
0.3299260139465332,0.022521289065480232,-0.004049972631037235,-0.10424000024795532,0.03286217265456558,-0.7471192300232355,0.014087589149283097,0.03524327839414442,0.5228938279364503,0.5923878567117801,0.09527133472573726,-0.7476356673628686,0.13819908555234564,0.0018496513366699219,0
0.34009885787963867,0.02444016933441162,-0.0037329462356865406,-0.10769634693861008,0.03574463119610002,-0.7454916465853315,0.016377492871841152,0.12509915733810384,0.5303601366683864,0.5919122721014964,0.09818279959159816,-0.7490913997957991,0.1424602764545269,0.0018405914306640625,0
0.3498871326446533,0.02649424783885479,-0.0033970533404499292,-0.11124110966920853,0.03871797872564372,-0.7439183462350337,0.020056569037428695,0.2137676348016012,0.5366391552705726,0.5914411581332204,0.10098196109224157,-0.7504909805461207,0.14656037940027203,0.0017676353454589844,0
0.36006641387939453,0.02868625707924366,-0.003040956798940897,-0.1148684173822403,0.0417666441651344,-0.7424080294705533,0.023841479246715733,0.3007113509929532,0.5433865580589633,0.5909371840763183,0.103890540839633,-0.7519452704198164,0.15082426675305702,0.0018296241760253906,0
0.3702731132507324,0.03348302096128464,-0.0022623788099735975,-0.12237762659788132,0.04814631862511976,-0.7391995525632562,0.02495222296338477,0.46261197973547424,0.533996634221001,0.5904174910444698,0.10680443000528271,-0.7534022150026413,0.15509963898804302,0.0017821788787841797,0
0.37992191314697266,0.03608867526054382,-0.0018409311305731535,-0.12625204026699066,0.05145435396182046,-0.7377775731395992,0.03229980136635003,0.5375996949497294,0.5384355583012825,0.5899129926810933,0.10955665687687052,-0.7547783284384352,0.15914131883737448,0.0018646717071533203,0
0.3900611400604248,0.038834087550640106,-0.0013993583852425218,-0.13019052147865295,0.054855396809273566,-0.7364246516367916,0.04121108556159588,0.6085396212061024,0.5434870703343117,0.5893690278717378,0.11244620485157646,-0.7562231024257882,0.16338842827529199,0.0020995140075683594,0
0.3999464511871338,0.04172235354781151,-0.0009354045614600182,-0.13418854773044586,0.05836113727709544,-0.7350993890181791,0.049404843420004264,0.6757822919299208,0.5474532423444382,0.5888250589818641,0.11526079088312814,-0.7576303954415641,0.16752917771717443,0.0024106502532958984,0
0.4099276065826416,0.04475384205579758,-0.00044678617268800735,-0.138243168592453,0.06195007130855213,-0.7337902335969665,0.05830981578534021,0.7379476958457902,0.551204093619799,0.5882621786665684,0.1180999964033123,-0.7590499982016561,0.17171007431248983,0.0021131038665771484,0
0.4200925827026367,0.0512404590845108,0.0006063319160602987,-0.14650961756706238,0.06936040085933318,-0.7303883788742613,0.06579173688288842,0.7999999999998942,0.541719425443538,0.5876748614411289,0.12098866570943735,-0.7604943328547187,0.17596796955282215,0.0020127296447753906,0
0.4298665523529053,0.05469543859362602,0.0011680815368890762,-0.150713250041008,0.07319905335810366,-0.7285657013125362,0.0730844972467904,0.8,0.5490189820657263,0.5870967590075897,0.12376346618766004,-0.76188173309383,0.18006208038611454,0.0018999576568603516,0
0.4400327205657959,0.05828865244984627,0.0017534379148855805,-0.15497197210788727,0.07710817919183083,-0.7268516338061148,0.08231835810000347,0.8,0.5564786882658195,0.5864815586116374,0.12664667942139055,-0.7633233397106952,0.18432047496915127,0.0019636154174804688,0
0.45012688636779785,0.06588686257600784,0.0029966344591230154,-0.1636049896478653,0.08504654566193186,-0.7233949792751853,0.09224381356324468,0.7999999999893459,0.5465585946956425,0.5858567061617534,0.12950644711867002,-0.764753223559335,0.18854870925284284,0.001649618148803711,0
0.45990800857543945,0.06988788396120071,0.0036544979084283113,-0.16797345876693726,0.0890973916510853,-0.7219704369920242,0.10357530093515954,0.8,0.5511411712480299,0.5852379291183489,0.13227458683082818,-0.766137293415414,0.19264581614236162,0.001924753189086914,0
0.4701693058013916,0.07402048259973526,0.004335511475801468,-0.1723731905221939,0.0931963515877194,-0.7206857851562823,0.11660707781108146,0.7999999999999984,0.5562753971751685,0.584574717193444,0.13517544162385758,-0.7675877208119287,0.19694405827320866,0.0018482208251953125,0
0.4799199104309082,0.07828208804130554,0.0050386046059429646,-0.1768009215593338,0.09731571754677217,-0.7194958456843387,0.12983717911470374,0.7999999999999932,0.5597571469745994,0.5839311892831531,0.1379288446350593,-0.7689644223175296,0.20102838198949502,0.0020046234130859375,0
0.4899177551269531,0.08718912303447723,0.006518102716654539,-0.18573133647441864,0.10568390924096471,-0.717147592960305,0.14539236870422362,0.7999999999999997,0.5427965888519379,0.5832578778148201,0.14074888264903723,-0.7703744413245186,0.20521626938267187,0.0018088817596435547,0
0.5000839233398438,0.09182511270046234,0.0072934688068926334,-0.19023030996322632,0.10988587020387486,-0.716278742257996,0.15868291282779382,0.7999999999999997,0.5454256571807586,0.5825592657043585,0.14361302845493729,-0.7718065142274686,0.20947466396570857,0.0020258426666259766,0
0.5098109245300293,0.09657597541809082,0.008091943338513374,-0.19477121531963348,0.11409057062450609,-0.7155252656182056,0.1721695291133865,0.7999999999999997,0.5466676340254767,0.581877666275016,0.14635020153843706,-0.7731751007692185,0.21354910069644806,0.001781463623046875,0
0.520064115524292,0.10143906623125076,0.008913833647966385,-0.19932711124420166,0.11831812899251772,-0.7148585395916013,0.18555777264752263,0.7999999999999996,0.5485646423810978,0.5811452724911547,0.149231941155979,-0.7746159705779895,0.2178439472969052,0.001798391342163086,0
0.5300402641296387,0.11149494349956512,0.010631090961396694,-0.20847457647323608,0.12685532805006894,-0.7134236702431357,0.19920491882131924,0.8,0.5266929524468492,0.5804189694616854,0.15203229883493552,-0.7760161494174678,0.22202274665286217,0.0017962455749511719,0
0.5399162769317627,0.11667989194393158,0.011525018140673637,-0.21306467056274414,0.13112913475679483,-0.7129395684131985,0.21126057683110508,0.7999999999860593,0.5265099140032894,0.5796866651811485,0.15480106656983664,-0.7774005332849183,0.22615960122165038,0.0014796257019042969,0
0.5499672889709473,0.12196264415979385,0.012442290782928467,-0.21766303479671478,0.13541781046733195,-0.7125532752236009,0.2238825419596128,0.7999999999887603,0.5262326333155135,0.5789278239693855,0.15761527411412962,-0.7788076370570648,0.23036975929944303,0.0015103816986083984,0
0.5599822998046875,0.1273420751094818,0.013385036960244179,-0.22226668894290924,0.13972713179912524,-0.7122663041417536,0.23566461588946827,0.7999999999842395,0.5253512792465667,0.5781581120461005,0.16041570208457992,-0.78020785104229,0.2345648372275631,0.0017137527465820312,0
0.5699818134307861,0.13837061822414398,0.015337849035859108,-0.23148131370544434,0.14830138954865532,-0.7115362357001345,0.24396719426831678,0.7999999999651407,0.4997448628002311,0.5773760762601194,0.1632080468680043,-0.7816040234340021,0.2387534237005261,0.0016775131225585938,0
0.5802223682403564,0.14400863647460938,0.016346946358680725,-0.2361222356557846,0.15258502331708446,-0.7114200542162961,0.2541297456510835,0.7999999998920331,0.49823862702807087,0.5765612117049409,0.16606375028081935,-0.7830318751404096,0.24304297726831672,0.0020439624786376953,0
0.590092658996582,0.14972205460071564,0.017377393320202827,-0.24076196551322937,0.156900146917821,-0.7113438895620243,0.2635841324410317,0.8,0.49503927745777265,0.5757624422556342,0.16881235170397776,-0.7844061758519888,0.24717743499212386,0.0036363601684570312,0
0.6000280380249023,0.15550503134727478,0.018429052084684372,-0.24539922177791595,0.16121964824199883,-0.7113242293535613,0.27244396093290635,0.7999999999822476,0.4914168711096135,0.5749451724353875,0.17157519836282462,-0.7857875991814123,0.25133915682759067,0.0026540756225585938,0
0.6101481914520264,0.16726650297641754,0.020596744492650032,-0.25466692447662354,0.16980336690715572,-0.7105258722804673,0.27144597683261923,0.8,0.46634979395698,0.574099073649641,0.17438535957649695,-0.7871926797882485,0.25557827678223793,0.0022153854370117188,0
0.6199212074279785,0.17323511838912964,0.021713661029934883,-0.2592982053756714,0.17413208113768416,-0.710244375962088,0.27651414696829185,0.8,0.46429921077792236,0.5732689606654454,0.17709516858898197,-0.7885475842944909,0.2596719881413669,0.0020477771759033203,0
0.6299514770507812,0.17925119400024414,0.022849438712000847,-0.2639276087284088,0.1784708481393851,-0.7099958239578131,0.28141401451403647,0.8,0.462325359263775,0.5724036969459929,0.1798721983035729,-0.7899360991517864,0.26387345765610315,0.0024251937866210938,0
0.6400165557861328,0.18531331419944763,0.02400890551507473,-0.2685546278953552,0.18273343782658452,-0.7097591423703573,0.28395893382721005,0.8,0.4605669084471467,0.5715219079230208,0.18265461604906155,-0.7913273080245308,0.26808950797780756,0.0028624534606933594,0
0.649848461151123,0.19756227731704712,0.026399318128824234,-0.27781951427459717,0.1912359631900722,-0.7090442349680849,0.27333793659679073,0.8,0.4341695535640253,0.5706474880696851,0.18536840172952498,-0.7926842008647624,0.2722078868665333,0.0016751289367675781,0
0.6598708629608154,0.20373956859111786,0.027626849710941315,-0.2824539840221405,0.19544884708022017,-0.7088931553834863,0.27461029354085875,0.7999999992661486,0.4318999004756364,0.5697428633284041,0.188130459220062,-0.794065229610031,0.27640606071942064,0.002059459686279297,0
0.6700878143310547,0.20994365215301514,0.028875837102532387,-0.2870837152004242,0.1996688540430149,-0.7087321976716594,0.2757155586382696,0.799999998399534,0.4297410572457008,0.5688069179805068,0.19094158807739356,-0.7954707940386967,0.28068572730166436,0.0026895999908447266,0
0.6800944805145264,0.21617138385772705,0.030148331075906754,-0.2917094826698303,0.2038818063897258,-0.7085683125990526,0.27406748795943253,0.8,0.4268656246128783,0.5678767912676664,0.19369034549904435,-0.7968451727495222,0.2848773098308537,0.002445697784423828,0
0.6901195049285889,0.22867617011070251,0.032764967530965805,-0.3009503483772278,0.2121968244935644,-0.7079158372989981,0.2549228965046305,0.7999999999871491,0.40076982808753997,0.5669316383072138,0.1964396026423858,-0.7982198013211929,0.2890765822376906,0.002142667770385742,0
0.6999096870422363,0.23348766565322876,0.03367418795824051,-0.30530306696891785,0.21628447093351147,-0.7077254576313468,0.25384280171895873,0.7999999999447434,0.39936077938672326,0.565995780128828,0.19912000621825876,-0.7995600031091293,0.29317748413176276,0.0017809867858886719,0
0.710052490234375,0.23833031952381134,0.034608472138643265,-0.3096981346607208,0.22032259384833985,-0.7075347054106597,0.2518059802887959,0.7999999999999999,0.39871319897285934,0.5650128491241547,0.20189224929304533,-0.8009461246465226,0.2974260915977934,0.002026081085205078,0
0.7200562953948975,0.24320009350776672,0.03557170182466507,-0.31409138441085815,0.224321111510488,-0.7073337622227002,0.24697389278685442,0.7999999999999999,0.39789520891351565,0.5640300877110159,0.20462174898261337,-0.8023108744913067,0.30161647570449224,0.002124309539794922,0
0.7299139499664307,0.25300419330596924,0.037584614008665085,-0.3228689432144165,0.23220447079018552,-0.7066452554635595,0.2209493047773228,0.7999999999998898,0.37525111529979793,0.5630487856365413,0.2073066930738517,-0.8036533465369258,0.30574564039563285,0.0018625259399414062,0
0.7400836944580078,0.25792738795280457,0.03863167762756348,-0.3272540867328644,0.23613194520153077,-0.7064427095574851,0.215785172904175,0.7999999999990431,0.37482055389961955,0.562023021741256,0.2100717092633553,-0.8050358546316776,0.3100055330067827,0.0023767948150634766,0
0.7500600814819336,0.26285648345947266,0.03970536217093468,-0.33163589239120483,0.24004086821149256,-0.706246448882913,0.20976216932161887,0.7999999999992798,0.37391394017945434,0.5610035670160085,0.2127792231288451,-0.8063896115644225,0.31418443223128056,0.003966569900512695,0
0.7600390911102295,0.2677866220474243,0.040805842727422714,-0.3360140919685364,0.24391734614518665,-0.7060328663970223,0.2026969912452673,0.7999999999232718,0.37306397723652174,0.5599707959466027,0.21548249972312866,-0.8077412498615643,0.318364430009728,0.0026748180389404297,0
0.7702295780181885,0.27271249890327454,0.04193565249443054,-0.34038808941841125,0.2477672282205134,-0.7058345159357586,0.1953161096972468,0.7752831828051624,0.3740164972546472,0.5589026953090697,0.21823789124773274,-0.8091189456238663,0.3226330111839343,0.0019948482513427734,0
0.7799229621887207,0.28253448009490967,0.044275932013988495,-0.34914863109588623,0.25534244804320627,-0.7050244208160965,0.16289445456369217,0.6941498798901968,0.3557903414778268,0.5578741152103385,0.2208539598428833,-0.8104269799214416,0.32669336645040997,0.0019006729125976562,0
0.7900254726409912,0.2874182164669037,0.0454852432012558,-0.3535190522670746,0.2590768323802478,-0.7047875809157168,0.15451895074489017,0.650077325984808,0.3577837406659618,0.5567890912708993,0.22357528450552447,-0.8117876422527622,0.3309250961330323,0.0019099712371826172,0
0.7999353408813477,0.2922779619693756,0.04672061651945114,-0.35788172483444214,0.26276725791400757,-0.7045354330855313,0.14495894140463267,0.6053548509499852,0.35960014515653643,0.5557118598965551,0.2262395384770563,-0.8131197692385281,0.33507613203462516,0.0020127296447753906,0
0.8100497722625732,0.3019058406352997,0.04927197843790054,-0.3665850758552551,0.27008239663438643,-0.7037253673747538,0.1091459360669334,0.5133843062547498,0.34356981302003203,0.5545992461826056,0.22895343660597364,-0.8144767183029867,0.3393128551442913,0.0021321773529052734,0
0.8200967311859131,0.3066641688346863,0.05058576166629791,-0.37092289328575134,0.27371122843325957,-0.7034950540457487,0.09900584012568567,0.4644474731936889,0.34594549818775583,0.5534809332646691,0.2316438138877679,-0.8158219069438839,0.343521315456889,0.0020494461059570312,0
0.8299112319946289,0.311379611492157,0.05192473158240318,-0.37525463104248047,0.2773397644952464,-0.7032555468350509,0.08811589789791623,0.4151244864253458,0.3478412353465763,0.5523758931780869,0.23426666992064993,-0.8171333349603249,0.34763240394213074,0.0019631385803222656,0
0.8400557041168213,0.31604719161987305,0.05329252406954765,-0.3795757293701172,0.2809054032903965,-0.7030202092512671,0.07672534567790835,0.36577730786196133,0.3507494859187728,0.5512206380116018,0.2369721676275142,-0.8184860838137571,0.35188171048794753,0.001990079879760742,0
0.8500974178314209,0.3206663429737091,0.05468509718775749,-0.3838860094547272,0.2844329214006043,-0.7027716845993746,0.06558653271702282,0.31642814583829976,0.3536274337663706,0.5500640343288304,0.23964464971680727,-0.8198223248584036,0.35608797369264594,0.002036571502685547,0
0.8599584102630615,0.32973629236221313,0.05753764510154724,-0.39247822761535645,0.29136804496894625,-0.7018784807946096,0.028083221205976165,0.2158560719797925,0.3390288371282395,0.5489156367277319,0.24226354194510696,-0.8211317709725534,0.36021853654335884,0.0019152164459228516,0
0.8701462745666504,0.33417829871177673,0.05899722874164581,-0.3967585563659668,0.29476995516711835,-0.7016413492635089,0.017300408548771965,0.16570439581738425,0.34284193343425695,0.5477160769290509,0.24496346477270856,-0.8224817323863542,0.36448601916361545,0.0018773078918457031,0
0.8799722194671631,0.3385554552078247,0.06048031151294708,-0.4010254442691803,0.2981684928446564,-0.70141439768529,0.005223799765931667,0.11744887371966287,0.3459826191066481,0.5465465500253985,0.24756184814170074,-0.8237809240708504,0.36860190133881926,0.0019996166229248047,0
0.8899502754211426,0.34286659955978394,0.061986591666936874,-0.4052776098251343,0.3015246599667777,-0.701194955342599,-0.006249534749748611,0.07027995668444705,0.3496530716340597,0.5453463038918571,0.25019474181423196,-0.8250973709071159,0.37278149964310325,0.0018699169158935547,0
0.90010666847229,0.35127007961273193,0.0650625005364418,-0.41377392411231995,0.30808176597114467,-0.7003861162288619,-0.04373946002104974,-0.021963920635622195,0.33784414757616216,0.5441115805327141,0.25286871678835976,-0.8264343583941798,0.37703579961596395,0.0019125938415527344,0
0.9098622798919678,0.3553544878959656,0.06663309037685394,-0.41800057888031006,0.3112980625383812,-0.7001497304877263,-0.05443035281069167,-0.0665634272450653,0.34180331305407624,0.5429132350036001,0.2554314374894477,-0.8277157187447238,0.38112222057160877,0.001859903335571289,0
0.920130729675293,0.3593599796295166,0.0682237446308136,-0.42221057415008545,0.3144514723957675,-0.699937966795598,-0.06490620502324665,-0.10813865635863963,0.34718798457728794,0.5416388561313578,0.25812274120796547,-0.8290613706039827,0.38542345875868217,0.0018661022186279297,0
0.93007493019104,0.367125004529953,0.07146789133548737,-0.4305737018585205,0.3206533084289925,-0.6993254500500579,-0.10280956209599716,-0.1855806158469917,0.33708305941309413,0.5403920024637262,0.2607230018108184,-0.8303615009054092,0.3895888757301615,0.0019729137420654297,0
0.9399182796478271,0.3708805441856384,0.07312147319316864,-0.43472346663475037,0.3236912969625458,-0.6991467569670972,-0.11285376840500386,-0.22110483664417355,0.3422719302747719,0.5391455001132669,0.26329096017071174,-0.8316454800853559,0.39371204830884937,0.0017578601837158203,0
0.950049877166748,0.37455087900161743,0.07479328662157059,-0.43885374069213867,0.3266805430593106,-0.6989783730129641,-0.12133374634937807,-0.2549293234502555,0.34828823856639773,0.5378497518819612,0.2659278932352016,-0.8329639466176008,0.3979559619534588,0.0019021034240722656,0
0.9600427150726318,0.3781343996524811,0.0764821320772171,-0.4429630935192108,0.3296354361393593,-0.698829615791601,-0.13035016124336427,-0.2864361673288848,0.35424664756536034,0.5365591164597673,0.26852246562236426,-0.834261232811182,0.4021417521072772,0.0019495487213134766,0
0.9698927402496338,0.38503503799438477,0.07991709560155869,-0.45118385553359985,0.335422264893634,-0.6982578255237478,-0.16407026764931681,-0.341258514172633,0.34635521035921224,0.53527467700053,0.2710738278808529,-0.8355369139404264,0.4062677210051097,0.0017824172973632812,0
0.9800517559051514,0.38835135102272034,0.08167041838169098,-0.4552573263645172,0.33826706936773376,-0.6981664419137354,-0.1719876683437294,-0.3653931682064295,0.35331570241390986,0.5339372370502317,0.2736987886183729,-0.8368493943091864,0.41052311953192006,0.0018775463104248047,0
0.9899005889892578,0.39157697558403015,0.0834420844912529,-0.4593057632446289,0.34116174215366113,-0.6980360236494438,-0.17988455755179728,-0.38641582218285886,0.3594416787068217,0.5326283434607014,0.2762373033142139,-0.8381186516571069,0.4146485890870482,0.002267599105834961,0
1.0002191066741943,0.3947119414806366,0.08523274958133698,-0.4633299708366394,0.344004590124076,-0.6979412750761883,-0.18679882090160202,-0.40489476175134015,0.36681941492375475,0.5312440841635184,0.2788901630414104,-0.8394450815207052,0.4189707996677059,0.0029501914978027344,0
1.0099737644195557,0.4007101356983185,0.08887099474668503,-0.47129741311073303,0.3495898758751336,-0.697531271980067,-0.2144689117321499,-0.4338735617196214,0.3600177128037549,0.5299233180774894,0.28139167890636707,-0.8406958394531835,0.42305682114918725,0.0022182464599609375,0
1.0199291706085205,0.40357300639152527,0.09071722626686096,-0.47529125213623047,0.35234866016153865,-0.6974682461890386,-0.2203627899414781,-0.44536574958214387,0.3671494961721672,0.5285632260280282,0.2839382258359087,-0.8419691129179543,0.42722693194208783,0.0018813610076904297,0
1.029891014099121,0.4063449203968048,0.09258118271827698,-0.47925636172294617,0.3550675829401492,-0.6973983758814112,-0.22520626163011848,-0.4542843166851509,0.37450432748001655,0.5271900053172263,0.28647983924461934,-0.8432399196223096,0.43139973918559216,0.0017642974853515625,0
1.0399868488311768,0.40902695059776306,0.0944618433713913,-0.48319366574287415,0.3577780217895334,-0.6973259005802116,-0.22897601169443646,-0.46089691577917713,0.38218611038163536,0.5257858453033428,0.2890488624413687,-0.8445244312206843,0.4356286725490698,0.0018534660339355469,0
1.0499017238616943,0.4141167402267456,0.0982794314622879,-0.49098414182662964,0.36311853050441056,-0.6969489687769724,-0.2488321911841911,-0.4675894658564043,0.3770390113962073,0.5243946692242728,0.29156514004449424,-0.8457825700222471,0.43978180569002107,0.002213001251220703,0
1.0601580142974854,0.4165303409099579,0.10021337121725082,-0.4948359727859497,0.3657616058832262,-0.6969173268525118,-0.25146667154281527,-0.46688983910984516,0.38547028278188045,0.5229429175330466,0.29416101883496604,-0.8470805094174829,0.4440779505815097,0.0023064613342285156,0
1.0700197219848633,0.4188578724861145,0.10216453671455383,-0.49865853786468506,0.36839157935430167,-0.6969179729180554,-0.2536713684682635,-0.4649293794527351,0.39314675713354863,0.5215348995206526,0.2966502125095865,-0.8483251062547932,0.4482088130378452,0.002074718475341797,0
1.080146074295044,0.4211007356643677,0.1041310504078865,-0.5024506449699402,0.3710590527012193,-0.6969185479542114,-0.2543147747329911,-0.46051057049605026,0.4011787378386173,0.520076767223212,0.29919919150066715,-0.8495995957503335,0.4524505295745553,0.0024166107177734375,0
1.0901000499725342,0.42534008622169495,0.10811442136764526,-0.5100091695785522,0.3763565008385892,-0.6966034752556115,-0.2686994620894111,-0.4465357187002688,0.3964213901124916,0.5186313142735082,0.3016977955751973,-0.8508488977875986,0.45662004115621063,0.002141714096069336,0
1.0998451709747314,0.42960476875305176,0.10970962047576904,-0.5139996409416199,0.37898968805362254,-0.6965941742754175,-0.2583797156141624,-0.42383600035299207,0.40373596645496257,0.5172045608526818,0.30413720955053236,-0.8520686047752661,0.46070206789605683,0.0018143653869628906,0
1.1101036071777344,0.43375304341316223,0.11132530122995377,-0.5179550051689148,0.38133848401825343,-0.6965820673994845,-0.24695650826880516,-0.39971998695688,0.41354064034311483,0.5156902587986332,0.30669782682666463,-0.8533489134133323,0.46499911160441326,0.002557039260864258,0
1.1200182437896729,0.43778789043426514,0.1129612848162651,-0.5218770503997803,0.38370493859430854,-0.6965511806586298,-0.23549644022211244,-0.37472205548777093,0.4225621327710872,0.5142146593955751,0.30916546389060456,-0.8545827319453022,0.4691521448768237,0.002537965774536133,0
1.1299867630004883,0.4417119026184082,0.1146174892783165,-0.5257652401924133,0.38615963135298087,-0.6965448242520792,-0.2235054285659312,-0.3492674601017171,0.4312641601235784,0.512719136419579,0.31163935430102707,-0.8558196771505135,0.4733277484394726,0.0026149749755859375,0
1.139955759048462,0.44924086332321167,0.1179903894662857,-0.5334410667419434,0.39110431131825785,-0.6962677264265297,-0.2120724980538426,-0.294653392815386,0.42804567936795707,0.5112116392426794,0.31410612840696467,-0.8570530642034823,0.4775035517392032,0.0023450851440429688,0
1.1499319076538086,0.4528532326221466,0.11970683187246323,-0.5372293591499329,0.3936172247562523,-0.6962525078045267,-0.19870858473651515,-0.2662492648273538,0.4364789938505478,0.5096911797474596,0.3165673724306452,-0.8582836862153226,0.48168235109516017,0.002410888671875,0
1.160109043121338,0.4563673734664917,0.12144168466329575,-0.5409752726554871,0.3961664371692466,-0.6962458313722152,-0.1849036742710979,-0.23778796742843036,0.4451506703617316,0.5081278780562251,0.3190706184249469,-0.8595353092124733,0.4859453396310773,0.0024619102478027344,0
1.1702759265899658,0.46311381459236145,0.12496983259916306,-0.5483742356300354,0.4013370661518836,-0.6959650312402331,-0.17086599935602498,-0.17970610939680648,0.44116783177638036,0.5065538756369575,0.32156363456892584,-0.8607818172844629,0.49020403381973654,0.0029981136322021484,0
1.179960012435913,0.4663527011871338,0.12676401436328888,-0.5520275831222534,0.403962286450795,-0.6959550443935785,-0.1576482950666844,-0.15025771524599157,0.4484526639660552,0.5050432438784501,0.323931044842467,-0.8619655224212335,0.494260494213118,0.002414226531982422,0
1.1901724338531494,0.46950554847717285,0.1285780370235443,-0.555651843547821,0.4066083333129291,-0.6959255733012227,-0.14395959779603457,-0.12171073130742438,0.45672129401473943,0.5034382110401731,0.3264199253487295,-0.8632099626743647,0.49853826329308504,0.003295421600341797,0
1.2000327110290527,0.4725746214389801,0.1304101049900055,-0.5592472553253174,0.40930991765329444,-0.6959213064409907,-0.12974556935908685,-0.09295902979956376,0.46396761691622473,0.5018768843104984,0.328815439106479,-0.8644077195532395,0.5026685265381753,0.003364086151123047,0
1.2100248336791992,0.47847995162010193,0.13412436842918396,-0.5663504600524902,0.4148447666063554,-0.695648435603614,-0.11505264626497928,-0.03777996902078031,0.4576772894886052,0.5002830525180828,0.331235365507956,-0.865617682753978,0.5068540170863711,0.002293109893798828,0
1.2201018333435059,0.48132169246673584,0.13600775599479675,-0.5698603987693787,0.4176658630230388,-0.6956273158706436,-0.10154734861738447,-0.011199892671949669,0.4647596534019494,0.4986638649174207,0.33366802337895723,-0.8668340116894786,0.5110750608351194,0.0021746158599853516,0
1.229891300201416,0.4840920865535736,0.13790762424468994,-0.5733464956283569,0.42050685726840986,-0.6956439896063662,-0.08851493373530338,0.014065265149601271,0.4711373619519343,0.49707955078555327,0.3360236899250297,-0.8680118449625148,0.515175663123569,0.0018892288208007812,0
1.239955186843872,0.4867929220199585,0.1398226022720337,-0.5768029689788818,0.4233909964687784,-0.6956795521537341,-0.07500079466635506,0.037539967057827396,0.4778507526162509,0.4954392250123374,0.33843754862481573,-0.8692187743124078,0.519391214102569,0.0017802715301513672,0
1.2499489784240723,0.49200439453125,0.1436961144208908,-0.583626389503479,0.42932866449616647,-0.6955467697072718,-0.06267718043050828,0.08254460619910521,0.46941041262621747,0.49379872442003514,0.3408266711411332,-0.8704133355705665,0.523577403730551,0.0024566650390625,0
1.259990930557251,0.49452072381973267,0.14565548300743103,-0.5869918465614319,0.4323028838569966,-0.6956308442784155,-0.05033050698944129,0.10343412167676777,0.47560699419815494,0.49213871402515846,0.3432192974727139,-0.8716096487363569,0.5277837668037902,0.0018372535705566406,0
1.2701287269592285,0.4969777762889862,0.14762862026691437,-0.5903266668319702,0.4353381942231769,-0.695714272003537,-0.03828066785160974,0.1224612967764126,0.4816870834243722,0.4904511004722528,0.34562655865190123,-0.8728132793259505,0.5320302770304625,0.0017096996307373047,0
1.2798655033111572,0.4993771016597748,0.14961527287960052,-0.5936312675476074,0.4384271015912112,-0.6957895487715018,-0.0271347557647195,0.14025484617169967,0.4866585544857612,0.4888191578287709,0.3479307846965703,-0.8739653923482851,0.5361088083713779,0.0017871856689453125,0
1.2899808883666992,0.5017198920249939,0.15161482989788055,-0.5969060063362122,0.4415601090684449,-0.6958737762014436,-0.015467250809023628,0.1556776038806865,0.49217588215562696,0.48711229339931955,0.35031644782860993,-0.875158223914305,0.5403459309552076,0.0016417503356933594,0
1.2999284267425537,0.5062428116798401,0.15565335750579834,-0.6033720374107361,0.4479026720523862,-0.6957600403546514,-0.008959590545569681,0.18341890288654356,0.48146748981833937,0.48542239626161254,0.3526543594054014,-0.8763271797027007,0.5445127460862592,0.0018601417541503906,0
1.30985689163208,0.5084244012832642,0.15769219398498535,-0.6065650582313538,0.45117300111478426,-0.6958085796107644,0.0005957283598256346,0.19468825888820732,0.4858871324287706,0.48372455078693466,0.3549796599327604,-0.8774898299663801,0.5486715717340406,0.0017497539520263672,0
1.3199388980865479,0.5105535387992859,0.15974318981170654,-0.6097302436828613,0.45446587911034764,-0.6959086731494526,0.009570171288197475,0.20469402763606576,0.4905081731507635,0.4819890502868487,0.3573325557566532,-0.8786662778783265,0.5528947127221473,0.001676321029663086,0
1.330026388168335,0.5146592855453491,0.16388607025146484,-0.615973711013794,0.4611979616492911,-0.6958457354879317,0.011880817587965798,0.21947921618110727,0.47805334867609617,0.48024115184222216,0.35967823964935064,-0.8798391198246753,0.5571201506866943,0.0019440650939941406,0
1.3399686813354492,0.5166386961936951,0.16597522795200348,-0.6190525889396667,0.46463881663398177,-0.6959407168595116,0.019128657866011176,0.22558865121674132,0.48161932142497876,0.478507241745093,0.3619817945663885,-0.8809908972831942,0.5612847687098466,0.0018296241760253906,0
1.3499579429626465,0.5185718536376953,0.16807669401168823,-0.6221045851707458,0.4681486358153718,-0.6960047489416186,0.02588038812464107,0.23053668457030188,0.48492961930081313,0.47675401283761937,0.3642878137451581,-0.882143906872579,0.5654690608355518,0.002177000045776367,0
1.360067367553711,0.5204576849937439,0.17019023001194,-0.6251304745674133,0.4716281115289365,-0.6960864459050776,0.031640225132467434,0.23267688332678407,0.4886349239637151,0.47496837975510003,0.3666129269854175,-0.8833064634927087,0.5697036867058596,0.0023970603942871094,0
1.3701820373535156,0.5240859985351562,0.17445513606071472,-0.6311171054840088,0.47869342527749936,-0.6960205943323302,0.0263127325686263,0.23418588837409943,0.47452024812105503,0.47317047199813156,0.3689304872588675,-0.8844652436294337,0.5739405096840666,0.0028824806213378906,0
1.3801238536834717,0.5258284211158752,0.17660441994667053,-0.6340747475624084,0.4822687106104347,-0.6961556411517457,0.030652746123506734,0.23227644723059732,0.4773796724205586,0.4713922691670163,0.3711998499051033,-0.8855999249525516,0.5781049279701371,0.0024645328521728516,0
1.3898720741271973,0.5275232791900635,0.17876264452934265,-0.6370039582252502,0.4858386588193338,-0.6962569505035772,0.03446825985737572,0.2295880738337798,0.4798559053714638,0.4696381247318289,0.3734166999457456,-0.8867083499728727,0.5821882530010148,0.001994609832763672,0
1.4000370502471924,0.5291703939437866,0.18093173205852509,-0.6399052143096924,0.48946030630736914,-0.6963868401574711,0.03796158018593794,0.2255764326053135,0.48293945411595435,0.46779788442968934,0.3757194955323811,-0.8878597477661905,0.5864461482413471,0.0020830631256103516,0
1.4100558757781982,0.5323208570480347,0.1852940171957016,-0.6456224918365479,0.49681283552875327,-0.6964171810063471,0.029045094912912073,0.21313871513560698,0.46712962360175264,0.46597305370364706,0.377980307981908,-0.8889901539909539,0.5906428240661212,0.002079010009765625,0
1.419973373413086,0.5338241457939148,0.1874886155128479,-0.6484388709068298,0.5005158474267194,-0.6965456811786814,0.030289350618763564,0.206222700587454,0.469285033482236,0.4641559177777484,0.38020952643495937,-0.8901047632174797,0.5947970557610223,0.0020585060119628906,0
1.4300410747528076,0.535280168056488,0.1896923929452896,-0.6512277722358704,0.504253848343926,-0.6966675732089734,0.031645344351277346,0.198202054771104,0.4715699956276892,0.4623003529637322,0.3824635716635097,-0.8912317858317548,0.5990142046366763,0.002207040786743164,0
1.4401051998138428,0.5366882085800171,0.1919035166501999,-0.6539902091026306,0.508001522754255,-0.6967910012611412,0.03318645030425902,0.18934894197872335,0.47379255882807547,0.46043450707503963,0.3847077653161751,-0.8923538826580875,0.6032298554842173,0.002173185348510742,0
1.4499554634094238,0.5380486845970154,0.19411930441856384,-0.6567463278770447,0.5117370089101306,-0.6969025838720827,0.034496863732353465,0.17929951023736693,0.47562418707791176,0.45859776055640544,0.38689545617989596,-0.893447728089948,0.6073559242505906,0.003103017807006836,0
1.460197925567627,0.5406221151351929,0.19856764376163483,-0.6621803641319275,0.5192748848786667,-0.6968706122132334,0.020776131884104314,0.1573103043494274,0.45935727775886803,0.456676859193953,0.3891609516340847,-0.8945804758170424,0.6116462767667082,0.0038766860961914062,0
1.4700512886047363,0.5418307781219482,0.20080198347568512,-0.6648594737052917,0.5230690563605426,-0.6969687446227579,0.020828841559486156,0.1456970325840311,0.46090538872356746,0.45481836816950094,0.3913313838368095,-0.8956656919184047,0.615773643824113,0.002711772918701172,0
1.4800851345062256,0.54298996925354,0.20303992927074432,-0.6675117611885071,0.5268482682159434,-0.697120201693927,0.020352141293608753,0.1333483616296013,0.46291044063041087,0.45291523527330485,0.39353245057723873,-0.8967662252886193,0.6199766113669625,0.002324819564819336,0
1.490044355392456,0.5451543927192688,0.20752449333667755,-0.6727398037910461,0.5344321666135424,-0.6970529027750593,0.0042183007355352155,0.10664983875530586,0.4458499315680593,0.4510157232063186,0.39570799514374405,-0.897853997571872,0.6241483200565171,0.002119302749633789,0
1.4998984336853027,0.5467994213104248,0.20997127890586853,-0.6759056448936462,0.5382169752272481,-0.697039446373214,0.004440682212558756,0.09753028769912468,0.44745570155189524,0.4491259796695263,0.3978515481758092,-0.8989257740879045,0.6282759867195445,0.0020596981048583984,0
1.510084867477417,0.5483818054199219,0.21241578459739685,-0.6790333986282349,0.5419439295339503,-0.6970309118581051,0.0045921283612881105,0.08860049854846122,0.450046393665084,0.44716179110459736,0.40005791152797915,-0.9000289557639896,0.6325428701285559,0.0020928382873535156,0
1.5199267864227295,0.5499013066291809,0.21485911309719086,-0.6821445822715759,0.5456683106906711,-0.697043149117356,0.003872188292843661,0.07946752293431414,0.45194135352084835,0.4452537376162915,0.4021804435060494,-0.9010902217530247,0.6366654434959985,0.0021066665649414062,0
1.5299370288848877,0.5513582229614258,0.21730120480060577,-0.6852174401283264,0.5493814685467588,-0.6970416390867258,0.0031661052916795883,0.07057662736408811,0.4542472178121809,0.4433027166873364,0.4043299412331804,-0.9021649706165902,0.640858524053301,0.002002239227294922,0
1.540083885192871,0.5527520775794983,0.21974073350429535,-0.6882532238960266,0.5531232018715343,-0.697044405542388,0.002746606108074759,0.06100501710444639,0.4566909077163405,0.4413144794458708,0.40649911467482935,-0.9032495573374146,0.6451088292845266,0.0021431446075439453,0
1.5498781204223633,0.5553420782089233,0.2246052622795105,-0.6942130923271179,0.5605242727027268,-0.6968386660141105,-0.012881500165526359,0.040852852775121296,0.44026493407465533,0.4393852691875993,0.4085836330801087,-0.9042918165400543,0.6492114289437937,0.0020241737365722656,0
1.5601463317871094,0.5565435886383057,0.2270316630601883,-0.6971384882926941,0.5641762967769711,-0.696875131751666,-0.013329137312808102,0.03173427373066754,0.4434222133904267,0.43735212645293225,0.4107591964729437,-0.9053795982364718,0.6535125672623262,0.0022759437561035156,0
1.5700416564941406,0.55768221616745,0.22945363819599152,-0.7000272870063782,0.5678169549637654,-0.6969059926588161,-0.013771219815479194,0.0224069243802909,0.4458591519977123,0.43538262378858844,0.4128461831033011,-0.9064230915516505,0.6576575111829255,0.0022194385528564453,0
1.5800414085388184,0.5597701072692871,0.23428207635879517,-0.7057586312294006,0.5751075064679125,-0.6967080901518543,-0.030131171364043686,0.0037285966112730047,0.4304735040505198,0.43338221981477376,0.4149456007098028,-0.9074728003549013,0.6618461975244295,0.0029571056365966797,0
1.5900628566741943,0.5607191324234009,0.2366899698972702,-0.7085723876953125,0.5787218589704721,-0.6967234479625682,-0.030955894500288836,-0.0046628374036123245,0.43332585941437735,0.43136731941132866,0.4170398491078337,-0.9085199245539168,0.6660439719031531,0.0020918846130371094,0
1.5998632907867432,0.561606228351593,0.23909206688404083,-0.7113509178161621,0.5823408757615222,-0.696780862027219,-0.031759380325576105,-0.01293639393019558,0.4356974764708934,0.4293870678091545,0.4190784485012998,-0.9095392242506499,0.6701491681444831,0.0020694732666015625,0
1.6099891662597656,0.563185453414917,0.2438797950744629,-0.7167975902557373,0.5895237892024453,-0.6967000637999096,-0.049023993382318165,-0.03060769802123234,0.4211698298743073,0.42733093954099055,0.42117486642844,-0.91058743321422,0.6743906849441114,0.0019428730010986328,0
1.620072364807129,0.5638790726661682,0.2462671846151352,-0.7194699645042419,0.5930809012412945,-0.6967132978208016,-0.050906726745107156,-0.0380087098880393,0.4244717154912999,0.42527330633616806,0.4232524245859718,-0.9116262122929859,0.6786143252749226,0.0019855499267578125,0
1.6298813819885254,0.5645099878311157,0.24864967167377472,-0.7221102714538574,0.5966533671949196,-0.6967606887266918,-0.05283499834667144,-0.04511885359183066,0.42713071484938847,0.42326193154525016,0.4252638443420555,-0.9126319221710277,0.682723116783724,0.0018360614776611328,0
1.640061855316162,0.5650791525840759,0.2510263919830322,-0.7247427105903625,0.6002217564324536,-0.6968022315647557,-0.053530167160060316,-0.051636538761617376,0.43057309422621015,0.4211643283846222,0.4273413255189931,-0.9136706627594965,0.6869875034792134,0.0019252300262451172,0
1.6499536037445068,0.566032886505127,0.2557600736618042,-0.7299081087112427,0.6072769057515002,-0.6967153566398551,-0.07042046652378262,-0.0661168483013635,0.41624000419871016,0.41911644713970003,0.42934997814952197,-0.914674989074761,0.6911309493716996,0.002620220184326172,0
1.6599714756011963,0.566415011882782,0.2581157684326172,-0.7324400544166565,0.6107939162500272,-0.6967835215761489,-0.07147703126697581,-0.07271661082425865,0.419616322582978,0.4170326911386108,0.4313742395202662,-0.9156871197601331,0.6953272257223102,0.0034668445587158203,0
1.670396327972412,0.5667353272438049,0.2604627013206482,-0.7349392175674438,0.6143122602582507,-0.6968725777102568,-0.07144820738135271,-0.07851663518412888,0.4238262178217975,0.4148539017604981,0.4334699991857464,-0.9167349995928732,0.6996939776721995,0.00657963752746582,0
1.6799790859222412,0.5669928193092346,0.26280292868614197,-0.7374046444892883,0.6178035953342282,-0.6969654651669351,-0.0731725116801693,-0.08411199642269487,0.42644409154209484,0.41284181825634625,0.43538676265912585,-0.9176933813295629,0.7037079939357078,0.004667043685913086,0
1.6901118755340576,0.5673217177391052,0.26746097207069397,-0.7422381639480591,0.62477488577072,-0.6969069724147015,-0.08891669964870498,-0.09526426526088619,0.4130604505243357,0.4107046129251543,0.4374033846714028,-0.9187016923357013,0.7079524069230216,0.003154277801513672,0
1.700289249420166,0.5673944354057312,0.26977911591529846,-0.7446067929267883,0.6282440207906324,-0.6970072095102074,-0.0893969180404393,-0.09969067188926597,0.41702635634085683,0.4085480883230798,0.43941831951746957,-0.9197091597587348,0.7122154953274795,0.0030057430267333984,0
1.709944248199463,0.5674077868461609,0.2720886468887329,-0.7469701766967773,0.631688927755565,-0.6970798965431345,-0.08987109397218242,-0.10353835634309409,0.42002771354744206,0.4064931138698165,0.4413200067710735,-0.9206600033855368,0.7162597717588739,0.0023534297943115234,0
1.7200686931610107,0.5673616528511047,0.2743903696537018,-0.7493007779121399,0.6351121992749099,-0.6972016222791205,-0.09011084980224147,-0.10700608611471953,0.42412076434218976,0.4043287152379131,0.4433038348966299,-0.9216519174483149,0.7205006893472569,0.0019762516021728516,0
1.730053424835205,0.5670900344848633,0.2789679765701294,-0.7538625597953796,0.6418979827340978,-0.6972384783098696,-0.10403593005701664,-0.11532240666307166,0.411361927832815,0.4021847020428209,0.44524989100810275,-0.9226249455040514,0.7246830839706855,0.00189208984375,0
1.739948034286499,0.5668620467185974,0.2812456786632538,-0.7560949325561523,0.6452758868870846,-0.697339736213165,-0.10426171767628417,-0.11733416934819212,0.415215060312934,0.4000508006459411,0.44716815282681016,-0.923584076413405,0.7288277282856622,0.0018684864044189453,0
1.7500407695770264,0.5665776133537292,0.2835157811641693,-0.7582976818084717,0.6486679873694561,-0.6974114625212784,-0.10350747348298084,-0.1189722590995594,0.4194008793864911,0.3978647453004075,0.4491142888475514,-0.9245571444237757,0.7330553633581085,0.0019037723541259766,0
1.7600502967834473,0.5662375688552856,0.2857767939567566,-0.760472297668457,0.6520613814700411,-0.6974879773786712,-0.1024894935229124,-0.12068930595038685,0.4234062752975738,0.3956873618996425,0.45103382537554915,-0.9255169126877745,0.7372481443097884,0.0020411014556884766,0
1.7700471878051758,0.5653913617134094,0.2902695834636688,-0.7647324204444885,0.6588196357322476,-0.6975211767979151,-0.11364538941287979,-0.12427452650016925,0.4107999132453751,0.39350348390597806,0.45294040243044964,-0.9264702012152248,0.7414356322288017,0.0037643909454345703,0
1.7803170680999756,0.5648888349533081,0.29250216484069824,-0.7668472528457642,0.6622064657168222,-0.6976644312580146,-0.1119209333039165,-0.12429607033376999,0.4153849312594553,0.3912504041019171,0.4548880315968827,-0.9274440157984413,0.7457374696271203,0.003934144973754883,0
1.789921522140503,0.564334511756897,0.29472675919532776,-0.7689304947853088,0.66556871269577,-0.6978009674129454,-0.11124450270371113,-0.12339169993733806,0.41872224204516884,0.3891345862546781,0.4566993253557536,-0.9283496626778768,0.7497605739278486,0.002794504165649414,0
1.8002710342407227,0.5637297630310059,0.2969440519809723,-0.7709830403327942,0.6689218821385602,-0.6979386780531444,-0.10929819813248035,-0.12216603974956423,0.4236487219124117,0.3868452505754912,0.4586401117512351,-0.9293200558756175,0.7540957674188203,0.003374814987182617,0
1.8101203441619873,0.5630753040313721,0.29915380477905273,-0.7730051279067993,0.6722630573682158,-0.6980920807892811,-0.10799410253176671,-0.12075860075558083,0.42760094941486765,0.3846575709021198,0.46047644146870387,-0.9302382207343519,0.7582214367110304,0.002467632293701172,0
1.8200254440307617,0.5623727440834045,0.30135577917099,-0.7749964594841003,0.6756088321402094,-0.6982321078904549,-0.10575419646929367,-0.11927258626800616,0.4316374181981573,0.38244870851506596,0.46231264892403506,-0.9311563244620175,0.7623704752418056,0.002027750015258789,0
1.8300690650939941,0.5608221888542175,0.3057326078414917,-0.7788935899734497,0.6822753078709894,-0.6982583942849155,-0.11465029490748121,-0.1174588872038535,0.4195809850825895,0.3802000058385759,0.46416371633330716,-0.9320818581666536,0.766577537394831,0.0019049644470214844,0
1.8400421142578125,0.5599761605262756,0.3079053461551666,-0.7808022499084473,0.6856101820217438,-0.6983639607086087,-0.111292311981574,-0.11621834411149486,0.42380293263960717,0.37795823873170786,0.4659909546062298,-0.9329954773031148,0.7707550384597566,0.002003908157348633,0
1.849971055984497,0.5581493973731995,0.3122211992740631,-0.7845399975776672,0.6922559833028039,-0.6984313042605769,-0.11876102358956375,-0.11242122740461631,0.4115902082893503,0.3757176627349596,0.4677993564649049,-0.9338996782324525,0.7749140638446197,0.0028226375579833984,0
1.8601863384246826,0.5571696162223816,0.314367413520813,-0.7863699793815613,0.6955960997548596,-0.6985548625293082,-0.11508172483386847,-0.10926809345138519,0.41629756666036255,0.37340344094132416,0.4696486668704373,-0.9348243334352186,0.7791930313470772,0.002398252487182617,0
1.8698575496673584,0.5561484098434448,0.31650465726852417,-0.788173496723175,0.698937447806715,-0.6986979755020599,-0.11164921904581358,-0.10558560675982684,0.41986557339211766,0.3712040868433385,0.4713889327411105,-0.9356944663705552,0.7832440988392513,0.001798868179321289,0
1.880000352859497,0.5550866723060608,0.31863340735435486,-0.7899506092071533,0.7022859395371714,-0.6988358544927256,-0.10795168611785924,-0.10218189537981494,0.4243821082905497,0.36888877433759315,0.47320299255996706,-0.9366014962799835,0.7874927063052819,0.0016946792602539062,0
1.8899853229522705,0.5539839267730713,0.3207564949989319,-0.7917014956474304,0.7056179510758079,-0.6989907228426179,-0.1052572916870691,-0.09859984163215135,0.4286631918749377,0.3666008310947794,0.47497771594109234,-0.9374888579705462,0.7916752007972514,0.002822399139404297,0
1.9000203609466553,0.5528401136398315,0.3228724002838135,-0.7934255599975586,0.7089076200583169,-0.6991549935329519,-0.10214442020597007,-0.09488562499105041,0.4332570906382377,0.36429281306152955,0.4767501928177035,-0.9383750964088517,0.7958786676828052,0.0024139881134033203,0
1.9101366996765137,0.5516954064369202,0.3278317153453827,-0.7976458668708801,0.715452890354696,-0.6990769837982213,-0.10639126753836356,-0.07814491226991098,0.42190577915446315,0.36195742230866207,0.4785256779271817,-0.9392628389635909,0.8001161897407983,0.002215862274169922,0
1.9199550151824951,0.551053524017334,0.3302902579307556,-0.7997042536735535,0.7187106361296322,-0.6991303657799461,-0.10150382067369919,-0.06910870271781618,0.4261921790882524,0.35968255612330124,0.4802379189741354,-0.9401189594870677,0.8042288761226941,0.002223968505859375,0
1.9299578666687012,0.5496392846107483,0.335162490606308,-0.8037475943565369,0.725179934142115,-0.6990246120970235,-0.10312586900692239,-0.05217559281126235,0.4149363446135126,0.35735660456975143,0.4819712202718937,-0.9409856101359468,0.8084188607552294,0.0019910335540771484,0
1.9399082660675049,0.5488709211349487,0.33757901191711426,-0.8057223558425903,0.7284360756118368,-0.6990812345572035,-0.09777522432113488,-0.04262255879343822,0.4194979293431888,0.3550345625291853,0.4836842559043141,-0.9418421279521569,0.8125868743087715,0.0018231868743896484,0
1.9498398303985596,0.5480625033378601,0.33998313546180725,-0.8076656460762024,0.731707470657027,-0.6991313665618347,-0.09245186230224753,-0.03337018244839311,0.42394299365665544,0.35270872761297595,0.48538289366811793,-0.9426914468340589,0.8167469982475843,0.0017228126525878906,0
1.9600229263305664,0.5472142100334167,0.3423771262168884,-0.8095790147781372,0.7349588370702114,-0.6991770451410504,-0.08671239662830224,-0.025236842692860622,0.4290092092522694,0.35031554972597184,0.4871129392863529,-0.9435564696431764,0.8210124834970235,0.0017936229705810547,0
1.9701497554779053,0.5453981161117554,0.347121924161911,-0.8133149743080139,0.7415335515527007,-0.6991465868032395,-0.08837876663547675,-0.010890344679447383,0.4174523604712096,0.3479271796909697,0.4888217237728778,-0.9444108618864389,0.8252543997708152,0.0018532276153564453,0
1.979933261871338,0.5444352626800537,0.3494747579097748,-0.8151394128799438,0.74483162020801,-0.6991842322959165,-0.08324414137710677,-0.002460226224158305,0.4214477857318298,0.34561186430604734,0.4904614554181585,-0.9452307277090792,0.8293525053457428,0.001840353012084961,0
1.9900453090667725,0.543437659740448,0.3518149256706238,-0.8169360160827637,0.7481304956820495,-0.6992411883960009,-0.07679173406173749,0.005638406282513443,0.4261156499507611,0.3432106774108636,0.4921447255748822,-0.946072362787441,0.8335882297700001,0.0019254684448242188,0
1.999908447265625,0.542407214641571,0.3541422486305237,-0.8187381625175476,0.7514353378521839,-0.6992734675106477,-0.07100185575092761,0.013282254220159835,0.4302345548158987,0.34086069765298593,0.4937752371226404,-0.9468876185613202,0.837719691437581,0.0019791126251220703,0
2.009859800338745,0.5402514934539795,0.3587574362754822,-0.8222600221633911,0.7580339663450956,-0.6992182293049751,-0.07115841342961908,0.02531006322834841,0.4181422406851347,0.3384818498212598,0.4954089596904542,-0.947704479845227,0.8418881044652866,0.0020303726196289062,0
2.020087480545044,0.5391294956207275,0.36104679107666016,-0.8239803314208984,0.7613213950637514,-0.6992857681984549,-0.06421760130639488,0.03240411847705392,0.4230947203346199,0.3360287878214812,0.4970761045908624,-0.9485380522954312,0.8461722651318698,0.0025801658630371094,0
2.030003309249878,0.537977933883667,0.3633232116699219,-0.8256735801696777,0.7646363446044482,-0.6993656716488299,-0.058304015173882624,0.03832289262472046,0.42726177938809023,0.3336426819860136,0.49868082052268636,-0.9493404102613432,0.8503257977469847,0.0034308433532714844,0
2.040053129196167,0.536798357963562,0.36558762192726135,-0.8273395895957947,0.7678991002680163,-0.6994536022319273,-0.051492191628390235,0.04338263366757795,0.4319622223658796,0.3312165140227088,0.500295533498596,-0.9501477667492979,0.854535456482073,0.0025207996368408203,0
2.0498945713043213,0.5343648195266724,0.37008053064346313,-0.8305938243865967,0.7744083684784546,-0.6994201550680963,-0.05180577796287922,0.05219990500608647,0.4200520028294175,0.3288330778905474,0.501865327438576,-0.950932663719288,0.8586578301124338,0.001918792724609375,0
2.059906005859375,0.5331107974052429,0.37231048941612244,-0.8321849703788757,0.777664658305276,-0.6994733289878768,-0.045907921839339956,0.056172740954233316,0.42470458392258853,0.32640083894867505,0.503450585791298,-0.951725292895649,0.8628514100124407,0.0020449161529541016,0
2.0700933933258057,0.5318305492401123,0.3745279014110565,-0.8337443470954895,0.7809420749752567,-0.6995602501053375,-0.039837986395519484,0.05893311230836546,0.42961800795258176,0.3239180084690941,0.5050516050755763,-0.9525258025377881,0.8671186928956155,0.0018138885498046875,0
2.079796552658081,0.5305243730545044,0.3767331838607788,-0.8352787494659424,0.7842161647395313,-0.699663752242218,-0.035081345122846545,0.06181433612826147,0.4335399361729847,0.3215458893784135,0.5065651399611358,-0.9532825699805678,0.8711831427722673,0.0018138885498046875,0
2.089900016784668,0.5278396606445312,0.38110482692718506,-0.8382768034934998,0.7907437946420888,-0.6996496358957526,-0.03629439040696015,0.06371536204738083,0.4220744480261965,0.31906839340541376,0.5081292752141802,-0.95406463760709,0.875415271929053,0.0016841888427734375,0
2.1000871658325195,0.52646404504776,0.38327205181121826,-0.8397401571273804,0.7940268995978073,-0.6997952308950088,-0.030671313219836866,0.06527145476648383,0.4269535937245099,0.3165626737604782,0.5096940980447164,-0.9548470490223582,0.879682454943687,0.00189208984375,0
2.109886646270752,0.525066077709198,0.3854271173477173,-0.8411786556243896,0.797308950284053,-0.699901475718638,-0.02532036469304434,0.06598058760976659,0.4310271441553916,0.3141450659586942,0.511187712620137,-0.9555938563100684,0.8837872517108534,0.001813650131225586,0
2.1200506687164307,0.5236446261405945,0.38756972551345825,-0.8425942063331604,0.8006005564208045,-0.6999955645305215,-0.020912799701336166,0.06583241332117734,0.43582099469646396,0.3116300783557316,0.5127247743809543,-0.9563623871904772,0.8880447474770222,0.00212860107421875,0
