time,x,y,z,yaw,throttle,roll_rate,pitch_rate,yaw_rate,x_ref,y_ref,z_ref,yaw_ref,mpc_time,metadata
4.76837158203125e-07,0.006608018651604652,-0.014524649828672409,0.05495478957891464,-0.008274375531023106,-0.968063305643846,0.16389400550087518,-0.7999999999999998,-0.06490934194915549,0.5999999999999841,1.3827951813872845e-07,-0.700000069139759,1.9973708175594285e-07,0.006497621536254883,Sim
0.009654998779296875,0.006592753808945417,-0.014475337229669094,0.05503551661968231,-0.008286397284236484,-0.9685534879526126,0.17752895013194442,-0.7999999999999998,-0.04663964757054877,0.5999934672213215,0.002799873521587607,-0.7013999367607937,0.004044276431394331,0.0047266483306884766,Horizon:3.0
0.019858360290527344,0.006574307568371296,-0.014430338516831398,0.05512543395161629,-0.008296262139351546,-0.9690984191887565,0.19372823106367884,-0.7999999999999998,-0.028434930148154496,0.5999723638383359,0.005758700395012582,-0.7028793501975062,0.008318250506807996,0.004812479019165039,Num Steps:20
0.02975773811340332,0.0065301563590765,-0.014352566562592983,0.05528877675533295,-0.008369407122895158,-0.969605978441354,0.20733794993453974,-0.7999999999999998,-0.008868569103145542,0.5999379435918062,0.008629243236504743,-0.7043146216182523,0.012464892192602247,0.004762887954711914,No Pyjoules
0.03981733322143555,0.00650573056191206,-0.014317302033305168,0.055382151156663895,-0.008374980501541304,-0.9701111298059377,0.2215216691290507,-0.7999999999999997,0.010228697441272557,0.5998888971441274,0.01154604188466613,-0.7057730209423331,0.0166786455378665,0.0048334598541259766,0
0.0498354434967041,0.006478542927652597,-0.014282981865108013,0.05548282712697983,-0.008370929777621529,-0.9706346530227108,0.23411002795231897,-0.7999999999999997,0.03005530795928616,0.5998259596512291,0.014450540767809295,-0.7072252703839046,0.020875021757017977,0.004891395568847656,0
0.05971646308898926,0.006448053754866123,-0.014250396750867367,0.05559181049466133,-0.008384917377798467,-0.9711721266042123,0.24863062616652795,-0.7999999999999997,0.048416361870783756,0.5997501080346487,0.017314962097194467,-0.7086574810485972,0.025013973565164625,0.004694223403930664,0
0.06976103782653809,0.006404492538422346,-0.01418970711529255,0.05572765693068504,-0.00840747473889762,-0.9684078253743273,0.2542344660052225,-0.7999999999999999,0.07533870694986017,0.5996589806606593,0.020226391497720927,-0.7101131957488604,0.02922143519235356,0.004694938659667969,0
0.07987093925476074,0.0064135389402508736,-0.01415006723254919,0.055577803403139114,-0.008459049774162957,-0.9644665473468859,0.25854998771279486,-0.7999999999999999,0.10348987752397013,0.5995529892818586,0.023156274380554318,-0.7115781371902771,0.03345626079974306,0.004456520080566406,0
0.08962583541870117,0.006441372912377119,-0.014103821478784084,0.05518036335706711,-0.008506016115891763,-0.959707869930706,0.2594694780535339,-0.8,0.13271910211828028,0.5994371498216378,0.02598275223511534,-0.7129913761175576,0.03754238214976526,0.00422978401184082,0
0.09990072250366211,0.006490538362413645,-0.014051605015993118,0.05448460951447487,-0.008560839681341316,-0.9545478902979583,0.256527117817939,-0.7999999999999776,0.16556140757661855,0.5993007263418166,0.02895927150621913,-0.7144796357531096,0.04184631678744232,0.004090070724487305,0
0.10977339744567871,0.006655781529843807,-0.013933259062469006,0.05212169140577316,-0.008679112081853891,-0.9447842620191396,0.2038954612385342,-0.7999999999999544,0.23196299773886225,0.5991557197693118,0.03181860254187665,-0.7159093012709383,0.045981773196658235,0.0037801265716552734,0
0.11965656280517578,0.006772322114557028,-0.013864943757653236,0.050394460558891296,-0.008721650321492707,-0.9400018476977241,0.1765191611947802,-0.7999999999999989,0.27730727690424517,0.5989968952555517,0.034680246167084705,-0.7173401230835423,0.05012162382167279,0.0030040740966796875,0
0.12984919548034668,0.006914122495800257,-0.013792796060442924,0.048263903707265854,-0.008746585119043018,-0.9321679006461409,0.16348630248860146,-0.7999999999999934,0.3078905648620592,0.5988187814389521,0.03763066563281277,-0.7188153328164063,0.05439110381274695,0.0028519630432128906,0
0.13978362083435059,0.007081539370119572,-0.013711873441934586,0.045711856335401535,-0.008728149446631306,-0.923842430409718,0.14660455403989525,-0.7999999999999129,0.33842656073572747,0.5986311947558028,0.040505464634293255,-0.7202527323171466,0.05855242617405026,0.002928495407104492,0
0.14975905418395996,0.007280425634235144,-0.013620042242109776,0.042730435729026794,-0.008657393862729025,-0.9151887477216502,0.1280649563280416,-0.7999999999999202,0.36899834795238284,0.5984289469678348,0.04339119070696659,-0.7216955953534833,0.06273092592438458,0.0028235912322998047,0
0.1599113941192627,0.007518053986132145,-0.01351708360016346,0.0393194854259491,-0.00854208545496562,-0.9063165487776803,0.11087537579271561,-0.7999999999999405,0.39909461934997054,0.5982088295929189,0.046327056857413666,-0.7231635284287068,0.06698352813205036,0.0027713775634765625,0
0.16970372200012207,0.008134922944009304,-0.013277930207550526,0.031191648915410042,-0.008071173159486732,-0.887576548114328,0.06470708582909587,-0.7999999999995743,0.43199695767326696,0.5979828716619371,0.04915775827825462,-0.7245788791391272,0.0710853288429904,0.002703428268432617,0
0.1799473762512207,0.008522341959178448,-0.01313827931880951,0.0264938622713089,-0.007706900320512514,-0.8784339878944252,0.045937686105890475,-0.8,0.46060028341500353,0.597732164502488,0.05211774668163059,-0.7260588733408152,0.07537618070181246,0.0024976730346679688,0
0.18980979919433594,0.009491793811321259,-0.012807582505047321,0.015928426757454872,-0.006646038015888811,-0.8596596869916385,-0.004379286822225536,-0.7999999999950751,0.4909595898475592,0.5974769437293519,0.05496636891620986,-0.7274831844581049,0.07950734276377061,0.002268552780151367,0
0.19979596138000488,0.010085433721542358,-0.012613099999725819,0.010087627917528152,-0.005884556415009224,-0.8506115863266996,-0.023947631033256603,-0.7999999999972411,0.5166150171086377,0.5972046886366038,0.057849458687675506,-0.7289247293438377,0.08369033659844444,0.002295970916748047,0
0.20991015434265137,0.010759289376437664,-0.012398750521242619,0.0038946676068007946,-0.005001926548381406,-0.8416718484124206,-0.04228389352279977,-0.7999999999977905,0.5415893867751423,0.59691476225119,0.060768138087366266,-0.7303840690436831,0.08792695983956975,0.002337932586669922,0
0.2197880744934082,0.011518863029778004,-0.012164484709501266,-0.0026326291263103485,-0.003971171919199696,-0.8328914806959529,-0.059482262017571626,-0.7999999999975741,0.5650185967744814,0.5966178403943481,0.06361723448236453,-0.7318086172411822,0.09206461335668498,0.0036897659301757812,0
0.22985124588012695,0.013319768011569977,-0.011630691587924957,-0.016621241346001625,-0.0014134675207264922,-0.8151258858778356,-0.10556847792108592,-0.7999999999941062,0.5849017694967644,0.5963013663836452,0.0665182715424697,-0.7332591357712348,0.0962798647300624,0.002735614776611328,0
0.23982977867126465,0.01436789333820343,-0.011330138891935349,-0.02405523508787155,0.00011011472004421738,-0.8068296537853327,-0.1198166992558902,-0.7999999999999999,0.6049545121761076,0.5959736254688135,0.06939335519744283,-0.7346966775987214,0.10045966277142813,0.002137899398803711,0
0.24974894523620605,0.015519565902650356,-0.011007905006408691,-0.031748995184898376,0.0017769133496734091,-0.7986597546297977,-0.13059815588197943,-0.7999999999999984,0.623463743171087,0.5956340956464917,0.07224973427899861,-0.7361248671394993,0.10461459354611526,0.0027201175689697266,0
0.2599465847015381,0.01677827723324299,-0.010661579668521881,-0.03968611732125282,0.0036008598082836146,-0.789858677841646,-0.16575619205664013,-0.7999999998108489,0.6522045506200241,0.5952707620110758,0.07518457218574312,-0.7375922860928715,0.10888617077654784,0.002170085906982422,0
0.2697575092315674,0.01814546063542366,-0.010289634577929974,-0.04784694314002991,0.005601755891530634,-0.7812901269507015,-0.1744593356463802,-0.7269121885674077,0.6669320762715569,0.5949075581813589,0.07800639216559815,-0.7390031960827991,0.11299576123367637,0.0017549991607666016,0
0.2799208164215088,0.0196255873888731,-0.009890265762805939,-0.05621526390314102,0.0077830863376339085,-0.772951958407716,-0.17995545297410911,-0.6503852313755635,0.6811210982942776,0.5945172033577736,0.0809277141135942,-0.7404638570567971,0.11725295739422255,0.0016338825225830078,0
0.2898225784301758,0.02294052205979824,-0.009017039090394974,-0.07350077480077744,0.012662831439872431,-0.7565045725665062,-0.19197629871656138,-0.49518537108128824,0.6789931334188658,0.5941230977385124,0.08377198059968576,-0.7418859902998428,0.12140059776542557,0.0020437240600585938,0
0.2997872829437256,0.024779485538601875,-0.008544573560357094,-0.0823863223195076,0.015344698772199926,-0.7489023317349098,-0.18862330426257448,-0.4074322392513653,0.6892284750145088,0.5937127495556217,0.08663239010383827,-0.7433161950519191,0.12557460343142038,0.0018191337585449219,0
0.3098936080932617,0.02884136326611042,-0.007528933696448803,-0.10059107095003128,0.02118824777607531,-0.7338724729598268,-0.18623262071572474,-0.22562563824164125,0.6808205582275958,0.5932825031063599,0.0895313995637957,-0.7447656997818978,0.1298079310106967,0.002392292022705078,0
0.3200500011444092,0.031068164855241776,-0.006988201756030321,-0.1098780632019043,0.024354531783031562,-0.7270881760896449,-0.17242751995847555,-0.13122988394927965,0.6883380969219655,0.5928358644815889,0.09244261887445189,-0.7462213094372259,0.13406223098355743,0.0027899742126464844,0
0.329822301864624,0.033034469932317734,-0.00631533982232213,-0.11734359711408615,0.027706364652783744,-0.7214341076070098,-0.15843799342604328,-0.035450228959250776,0.6937527364378997,0.5923926315694655,0.09524164037963372,-0.7476208201898168,0.1381556427370637,0.002407550811767578,0
0.34009408950805664,0.03514382988214493,-0.005623414181172848,-0.12493649125099182,0.031232182530320795,-0.7161298028311872,-0.14159291853927172,0.06130918633979145,0.6993779158604541,0.5919124983777615,0.09818143543560795,-0.7490907177178039,0.14245827908370937,0.0029306411743164062,0
0.34976649284362793,0.039787840098142624,-0.004183241166174412,-0.14043638110160828,0.03872279517000545,-0.7058529343778249,-0.11747939553474464,0.24927015910693873,0.6793688336635303,0.5914470451702256,0.10094747525029557,-0.7504737376251478,0.1465098459185878,0.002200603485107422,0
0.3599846363067627,0.04231804609298706,-0.003437794279307127,-0.14831103384494781,0.04269035379838622,-0.7014866079998932,-0.09085417524870422,0.34059754008981874,0.6820375454227053,0.5909412898775117,0.10386718402798173,-0.7519335920139908,0.15079001184353588,0.002017974853515625,0
0.37000226974487305,0.044988278299570084,-0.0026755528524518013,-0.1562497913837433,0.04681885862187667,-0.6973231422707333,-0.0635091504288295,0.43017224638839424,0.6832309146478591,0.5904314671780378,0.10672714071870187,-0.7533635703593509,0.15498618832560562,0.0018739700317382812,0
0.37982654571533203,0.047805339097976685,-0.0018944727489724755,-0.16423967480659485,0.05108681718393687,-0.693418848468516,-0.034983566050969916,0.516355019410908,0.6830577675940552,0.58991804186834,0.10952946579904195,-0.754764732899521,0.1591013714210233,0.0019404888153076172,0
0.3898580074310303,0.053855475038290024,-0.00028659700183197856,-0.18039961159229279,0.05993149755457536,-0.6855833809701821,0.013349407752348968,0.6725900527432821,0.6552896786235459,0.5893800648262398,0.1123883409674566,-0.7561941704837283,0.16330334027846394,0.0019030570983886719,0
0.40001654624938965,0.05708556994795799,0.0005368727724999189,-0.1885116547346115,0.06455274980531822,-0.6823374286751227,0.050679285052253956,0.7484467865938433,0.6537206845767355,0.5888211537833297,0.11528073931610783,-0.7576403696580538,0.16755853906819254,0.002109527587890625,0
0.40969038009643555,0.060452256351709366,0.0013739888090640306,-0.1966308355331421,0.06926368002086432,-0.6782850120200418,0.08403398242579468,0.7999999750250508,0.6521430341439899,0.588275715763625,0.11803254738755165,-0.7590162736937758,0.17161070511431625,0.0020227432250976562,0
0.4200448989868164,0.06395398825407028,0.0022236513905227184,-0.2047489732503891,0.0740703352217693,-0.6709687282360314,0.10930630006785977,0.7999999999671533,0.6581851527886587,0.5876776496607907,0.12097512177786356,-0.7604875608889318,0.17594799584464654,0.0028429031372070312,0
0.4298887252807617,0.07135482877492905,0.00395942572504282,-0.22095081210136414,0.08390896699934972,-0.6568918725125943,0.1460910542059574,0.7999999999998856,0.6381739493413531,0.5870954326425604,0.12376975789846559,-0.7618848789492327,0.18007136816041622,0.0027267932891845703,0
0.43987083435058594,0.07525075227022171,0.004844795912504196,-0.22902068495750427,0.08890236854080116,-0.6508543185046974,0.17917865974317945,0.7999999999998931,0.6423329701680587,0.5864914660528971,0.12660079086294598,-0.763300395431473,0.18425266422989514,0.0024373531341552734,0
0.4498732089996338,0.0792783871293068,0.005739545449614525,-0.23706059157848358,0.09393635288698325,-0.6455662542765405,0.2141912565815244,0.8,0.6466297277158388,0.5858725802638864,0.1294346155204853,-0.7647173077602426,0.18844244912534866,0.002615213394165039,0
0.4598119258880615,0.08342994004487991,0.00664396770298481,-0.24509885907173157,0.09899586813172088,-0.6407951307803836,0.24966286657676945,0.8,0.6510139546326686,0.5852440711698356,0.13224740889921624,-0.7661237044496081,0.1926055691203878,0.002682209014892578,0
0.4697749614715576,0.09209639579057693,0.008484880439937115,-0.2610343396663666,0.10919694092181223,-0.6325741732865393,0.3033652950404531,0.7999999999978407,0.6281543692277,0.5846004703751759,0.13506402199373077,-0.7675320109968653,0.19677887570659647,0.0020580291748046875,0
0.4799666404724121,0.09660344570875168,0.009419428184628487,-0.26891881227493286,0.11432942679344799,-0.6300776408801663,0.34281842160565773,0.7999999999973927,0.6325872624098162,0.58392807392097,0.13794203306804706,-0.7689710165340234,0.2010479562235071,0.0022325515747070312,0
0.48967671394348145,0.1012222021818161,0.010362028144299984,-0.2767336070537567,0.11945233060765435,-0.6283133167967347,0.38216860666858876,0.7999999999974348,0.6355009561332532,0.5832742711710516,0.1406809318631299,-0.7703404659315649,0.20511530228784425,0.0024199485778808594,0
0.4999418258666992,0.10595042258501053,0.011312766000628471,-0.28447040915489197,0.12455339385572327,-0.6273481555745557,0.4216123333258899,0.7999999999979827,0.6396458887022379,0.5825691275048337,0.1435730186290472,-0.7717865093145235,0.2094151423153453,0.002496957778930664,0
0.5098514556884766,0.11571993678808212,0.013242902234196663,-0.2996785342693329,0.13473770880806143,-0.6267834717113163,0.4736314990947106,0.8,0.6109880444975658,0.5818747992216934,0.14636160026015718,-0.7731808001300785,0.21356607834839728,0.0033326148986816406,0
0.5197873115539551,0.12075727432966232,0.014220299199223518,-0.30713537335395813,0.13981249669528645,-0.6277934119404526,0.5084893091959589,0.7999999999947692,0.61166321120266,0.5811652323502527,0.1491541910483132,-0.7745770955241565,0.21772799992094588,0.004311800003051758,0
0.5299160480499268,0.12588933110237122,0.015205600298941135,-0.3145459294319153,0.1448484546160073,-0.6291416126087407,0.5438077454853846,0.799999999999506,0.6131663746005901,0.5804280958810973,0.15199745232024026,-0.7759987261601201,0.2219707151430647,0.0024323463439941406,0
0.5397684574127197,0.13111205399036407,0.01619717665016651,-0.32184216380119324,0.1498956005076548,-0.6310237542673599,0.5759759056532272,0.7999999999997335,0.6122822280013481,0.5796977233737516,0.15475965079855075,-0.7773798253992753,0.226097682726306,0.002236604690551758,0
0.5497407913208008,0.141814187169075,0.018207870423793793,-0.3360738754272461,0.15995711781321423,-0.6371601316987803,0.6046265633220548,0.7999999999802903,0.5663336751319358,0.5789450748470497,0.15755189719690443,-0.7787759485984522,0.23027488418560896,0.0024247169494628906,0
0.5599265098571777,0.14728869497776031,0.019227920100092888,-0.3430064916610718,0.16496959009613008,-0.6390674780797019,0.6286477255276252,0.7999999999999893,0.5669472736068507,0.5781624373660823,0.16040011227836126,-0.7802000561391806,0.23454146798899767,0.002172708511352539,0
0.5697231292724609,0.15284089744091034,0.02025684155523777,-0.3498142659664154,0.169952422415418,-0.6412496204067051,0.649429933131453,0.7999999999999976,0.5656937393641689,0.5773964772790923,0.16313585757182456,-0.7815679287859122,0.23864506633367352,0.0023915767669677734,0
0.580136775970459,0.1584659069776535,0.021294480189681053,-0.3564967215061188,0.1749380275445687,-0.6437344349103793,0.6691710007089555,0.7999999999999999,0.5653310967466776,0.5765680810401841,0.16603989859560767,-0.7830199492978038,0.2430071244621415,0.0033292770385742188,0
0.5897300243377686,0.1699197143316269,0.023404279723763466,-0.36948665976524353,0.18489259670838015,-0.6482820905202139,0.6647321679444231,0.8,0.525668256443863,0.5757920210328645,0.1687114356375681,-0.784355717818784,0.24702553494144847,0.0024824142456054688,0
0.5997521877288818,0.17574186623096466,0.024479176849126816,-0.3758328855037689,0.18983019178495625,-0.6510642262220959,0.6708035745520693,0.8,0.5214456380353774,0.5749680425032625,0.17149854255930716,-0.7857492712796535,0.2512236089257949,0.002030611038208008,0
0.609825611114502,0.1816231906414032,0.02556759864091873,-0.3820595145225525,0.19475507913746506,-0.6539074805222673,0.6749582286096287,0.8,0.5164744706948392,0.5741262551206753,0.1742958495808471,-0.7871479247904235,0.2554431546464301,0.001992940902709961,0
0.6196527481079102,0.18755868077278137,0.026669904589653015,-0.38817092776298523,0.199655403270225,-0.6568085343811908,0.6747316578300407,0.7999999999999359,0.5095975588184369,0.5732919343418135,0.1770207841430542,-0.7885103920715271,0.25955953616433824,0.0019981861114501953,0
0.6297793388366699,0.19354499876499176,0.027788765728473663,-0.3941693603992462,0.2045451210409982,-0.6598136827940091,0.6706179191954785,0.7999999999999775,0.5025988565269338,0.5724186600038509,0.17982457473714683,-0.7899122873685733,0.2638013525695893,0.002379179000854492,0
0.6397995948791504,0.20565353333950043,0.030078120529651642,-0.40583536028862,0.21432424508726403,-0.664790063233754,0.6243367171297549,0.7999999999999995,0.4567945942855564,0.571541058303238,0.18259468413295807,-0.791297342066479,0.2679986276056086,0.001980304718017578,0
0.6497089862823486,0.21176937222480774,0.03125084564089775,-0.4115105867385864,0.21920615566392684,-0.667666060265863,0.6111761383090755,0.799999999999472,0.4480494248165699,0.5706599826915538,0.18532993323927857,-0.7926649666196393,0.2721494637701198,0.0017590522766113281,0
0.6598360538482666,0.21792209148406982,0.03244157135486603,-0.41708457469940186,0.22406446519225368,-0.6705791413908616,0.597565519873148,0.7999999999995291,0.4391031942662705,0.5697460283561304,0.18812087383492407,-0.794060436917462,0.27639147991245244,0.0018188953399658203,0
0.6698768138885498,0.2241063117980957,0.03365209326148033,-0.4225631356239319,0.22888923777275405,-0.673451559978856,0.5802448846285487,0.7999999999419759,0.42879979995492024,0.5688263874643423,0.19088357950401558,-0.7954417897520077,0.28059734364298733,0.0018124580383300781,0
0.6797142028808594,0.23031693696975708,0.034884147346019745,-0.42799872159957886,0.23371122598711333,-0.6767791208511383,0.5562330064776324,0.8,0.4139334949428625,0.5679123812883566,0.19358596844654893,-0.7967929842232744,0.28471801950815334,0.0017561912536621094,0
0.689793586730957,0.24280135333538055,0.03742288425564766,-0.4386003911495209,0.24329508030076352,-0.6799676640564731,0.4768173583941346,0.7999999999999804,0.372639794734568,0.5669625751108597,0.19635029519627092,-0.7981751475981355,0.28894006194231037,0.0017673969268798828,0
0.6998357772827148,0.24906882643699646,0.03873124718666077,-0.4437771737575531,0.24805631098238992,-0.6817803999382998,0.45045574183594655,0.8,0.366269974395549,0.5660028927741484,0.19909978747174947,-0.7995498937358747,0.2931465248840906,0.0019335746765136719,0
0.7098207473754883,0.2553460896015167,0.04006658494472504,-0.44887784123420715,0.2527912295445303,-0.6835421285020824,0.4212061487279313,0.7999999999999996,0.3595284272722828,0.5650354588059292,0.2018289629661041,-0.800914481483052,0.29732901937606004,0.001832723617553711,0
0.7197868824005127,0.2679117023944855,0.042830415070056915,-0.4588609039783478,0.26220040457661337,-0.6860588667258187,0.3250885877164128,0.799999999999996,0.3172595794427194,0.5640567273846071,0.20454830307818989,-0.8022741515390949,0.3015036242533002,0.0017580986022949219,0
0.7297592163085938,0.2729836106300354,0.044163867831230164,-0.4647213816642761,0.26686382902070477,-0.6871222977246944,0.2870434338955463,0.7999999999999942,0.308803948008005,0.5630642877361245,0.20726458423042454,-0.8036322921152123,0.305680825712603,0.0017104148864746094,0
0.7397925853729248,0.2780720591545105,0.045534729957580566,-0.470498651266098,0.27153948175729853,-0.6881348361352384,0.2500489416804995,0.7999999999999107,0.30013074209240487,0.5620525731436529,0.20999263087689213,-0.8049963154384461,0.3098835935183707,0.0018575191497802734,0
0.7498307228088379,0.28317099809646606,0.04694131761789322,-0.4762263298034668,0.27616698796804207,-0.6890838544308799,0.2123088139744596,0.7999999999476143,0.2913311302664285,0.5610271510140811,0.21271703228708183,-0.8063585161435409,0.31408835869495594,0.0017578601837158203,0
0.7598426342010498,0.28827452659606934,0.04838557541370392,-0.4818781018257141,0.280751958565255,-0.6899204673616741,0.17318180063240127,0.7999999999999917,0.2826756767916373,0.5599912539027373,0.21542932844076723,-0.8077146642203836,0.31828213833204466,0.0019538402557373047,0
0.7698631286621094,0.29848217964172363,0.05139663442969322,-0.49296364188194275,0.289803687540174,-0.690745187167678,0.06444828646777273,0.7999999999983585,0.2392216200392335,0.5589413393139094,0.21813889888319563,-0.8090694494415978,0.32247951323660484,0.0015900135040283203,0
0.7798612117767334,0.3035769462585449,0.052961863577365875,-0.49840259552001953,0.29428414333527875,-0.6913266843680969,0.026992708052195353,0.7999999999994043,0.2323527775297247,0.5578807064210418,0.2208373098078296,-0.8104186549039147,0.3266675004983226,0.0023300647735595703,0
0.7899031639099121,0.30865591764450073,0.05456807464361191,-0.503777265548706,0.29868327036781417,-0.6915198460291886,-0.010616431727706405,0.7999999999999984,0.2292415953131597,0.5568023068378507,0.22354236980950148,-0.8117711849047506,0.33087386357156184,0.002974271774291992,0
0.7999105453491211,0.3187447488307953,0.05791096389293671,-0.5143417119979858,0.3072515791698176,-0.6910753457760233,-0.11482592435466442,0.7999999997892752,0.1970024446762778,0.5557145711621605,0.22623287868489844,-0.8131164393424491,0.3350657457063738,0.0022897720336914062,0
0.8097162246704102,0.32374805212020874,0.0596502423286438,-0.5195345878601074,0.3114531088276656,-0.6911252717160739,-0.15156336865075698,0.7999999999999566,0.19463522835936517,0.5546361487587838,0.22886402620338625,-0.8144320131016931,0.33917313905560303,0.0019457340240478516,0
0.8198451995849609,0.3287172019481659,0.061433400958776474,-0.5247141122817993,0.31564506734062053,-0.691143121698131,-0.18460685435166424,0.799999998592019,0.19313325129646652,0.5535090902851019,0.23157652508783994,-0.8157882625439199,0.3434159541462628,0.0018596649169921875,0
0.8298745155334473,0.33852970600128174,0.06512577831745148,-0.5349017977714539,0.3237864179418827,-0.6904645977693282,-0.2747760547375847,0.799999995096079,0.16392282860924412,0.5523800503573305,0.2342568674921463,-0.8171284337460731,0.34761702418683554,0.0016155242919921875,0
0.8398268222808838,0.3433642089366913,0.06703535467386246,-0.5399115085601807,0.327766998860176,-0.6904451931276168,-0.30432211523867064,0.7999999805491014,0.1632342949737111,0.5512468493564653,0.23691118815828524,-0.8184555940791426,0.35178583668870467,0.0022470951080322266,0
0.8500528335571289,0.35286879539489746,0.07097741216421127,-0.5497657656669617,0.3354669512950483,-0.6896411270009322,-0.38255466080811773,0.7999999999879304,0.1376641039724488,0.5500691981978137,0.23963279657428851,-0.8198163982871443,0.35606929827550177,0.0017414093017578125,0
0.8597927093505859,0.35286879539489746,0.07097741216421127,-0.5497657656669617,0.3354669512950483,-0.6903215441905194,-0.35432873657257974,0.7999999999827835,0.16360740474022756,0.5489350371004141,0.24221958022333145,-0.8211097901116657,0.36014912790744863,0.0017833709716796875,0
0.8701205253601074,0.357528954744339,0.0730067640542984,-0.5546125769615173,0.33920455075712946,-0.6902326025951181,-0.37488108566016876,0.7999707336767183,0.16537841089661542,0.5477191254953234,0.24495664834137104,-0.8224783241706854,0.36447523336120063,0.0018968582153320312,0
0.8798539638519287,0.3666419982910156,0.07718127220869064,-0.5641490817070007,0.3463941105475901,-0.6888184024594296,-0.4370977860184505,0.6753284449846096,0.14514253976149882,0.5465606986623431,0.2475306095773436,-0.8237653047886717,0.3685523665425438,0.00160980224609375,0
0.8896405696868896,0.3710881471633911,0.07932238280773163,-0.568865180015564,0.34985391744854144,-0.688460951318475,-0.450292912790955,0.6059148776482994,0.14899963198814425,0.5453837488271284,0.2501131074439478,-0.8250565537219738,0.3726517704085028,0.0014197826385498047,0
0.8999769687652588,0.3754555284976959,0.08149755001068115,-0.5735273957252502,0.3532313345964432,-0.6881895053285828,-0.4586713722904714,0.533798956946421,0.15480328575473784,0.5441274309727805,0.2528346077240256,-0.8264173038620127,0.37698147112972635,0.002427339553833008,0
0.9100489616394043,0.38394156098365784,0.085935577750206,-0.5826849341392517,0.3597391525953518,-0.6870089753927854,-0.4904320649997121,0.3820777163557705,0.13973915603983247,0.5428901858829072,0.25548042209144417,-0.827740211045722,0.3812004176391162,0.0035293102264404297,0
0.9199192523956299,0.38805219531059265,0.08819600194692612,-0.5871813893318176,0.3628594527554382,-0.6867057836732554,-0.4913085088346769,0.3018747312185543,0.14586184074950242,0.5416652364430867,0.25806737807994057,-0.8290336890399702,0.3853348753629234,0.0022232532501220703,0
0.9299006462097168,0.39207008481025696,0.09048360586166382,-0.5916239023208618,0.36588790895594425,-0.6864370248047187,-0.48903972168728765,0.2195721458211584,0.15283965631958035,0.5404139626197721,0.26067748081795533,-0.8303387404089776,0.38951587182677966,0.002027273178100586,0
0.9399099349975586,0.3959922790527344,0.0927940234541893,-0.59601229429245,0.3688296586941739,-0.6861766897104323,-0.48349435728748374,0.13534790996295895,0.16041731937225634,0.5391465620015057,0.26328878571248815,-0.831644392856244,0.3937085529099186,0.001834869384765625,0
0.9500269889831543,0.40714913606643677,0.09982877224683762,-0.6088961362838745,0.3769327574586848,-0.6841004831494221,-0.5091940807164771,-0.12384300310229489,0.13503875785754435,0.537852693639526,0.26592194333056846,-0.8329609716652842,0.3979463745735345,0.0014879703521728516,0
0.9599380493164062,0.40714913606643677,0.09982877224683762,-0.6088961362838745,0.3769327574586848,-0.6847457047781428,-0.48133582786612367,-0.12454408138483422,0.161241006803054,0.536572699588208,0.2684953222248437,-0.8342476611124218,0.4020979098178318,0.0015997886657714844,0
0.9699325561523438,0.414068341255188,0.10458853095769882,-0.617267906665802,0.3818224368107334,-0.6837618635894879,-0.4805713747643599,-0.2931134646957074,0.156235151842422,0.5352694603838868,0.2710841286028059,-0.8355420643014029,0.4062843990514363,0.0015499591827392578,0
0.9798462390899658,0.414068341255188,0.10458853095769882,-0.617267906665802,0.3818224368107334,-0.6844009801736213,-0.4529414623148129,-0.2937201948230186,0.1824288539119833,0.5339644211322411,0.27364575086215154,-0.8368228754310757,0.41043703284968325,0.0015461444854736328,0
0.9898495674133301,0.4173676669597626,0.10698114335536957,-0.6213704347610474,0.3841132980814879,-0.6842237729153309,-0.434412823821784,-0.37690384822485934,0.19412484647172557,0.5326351552684992,0.2762241686965528,-0.8381120843482763,0.4146272172193003,0.0018756389617919922,0
0.999849796295166,0.42363953590393066,0.11177891492843628,-0.629417359828949,0.3884010356998288,-0.6831879049643769,-0.42113676483725165,-0.5313971520779344,0.19303782924028906,0.5312938564262597,0.278795333755271,-0.8393976668776355,0.41881610329788593,0.0021293163299560547,0
1.00978684425354,0.4266125559806824,0.1141810491681099,-0.6333620548248291,0.39036361945840986,-0.6830641167536613,-0.39904050035497096,-0.6022405753763251,0.20672587669443634,0.5299487375759951,0.281343803097934,-0.840671901548967,0.4229785242131389,0.0020194053649902344,0
1.0197060108184814,0.4294733703136444,0.1165887862443924,-0.6372536420822144,0.3922287544058564,-0.6829518872176634,-0.3748134527606508,-0.6680356965298092,0.2210021089522007,0.5285938479695063,0.2838812143992456,-0.8419406071996227,0.42713345498782596,0.0018303394317626953,0
1.0300822257995605,0.4373941719532013,0.12378118932247162,-0.6486226916313171,0.3974077845815746,-0.6817021800960235,-0.3492238804164588,-0.7999993747478713,0.2150500554273842,0.5271635275126924,0.28652855924039194,-0.8432642796201959,0.43147983375537624,0.0018389225006103516,0
1.0398683547973633,0.4373941719532013,0.12378118932247162,-0.6486226916313171,0.3974077845815746,-0.6823063563917262,-0.32290632076148845,-0.7999993890816736,0.2408278290870802,0.5258023984911407,0.28901874980866493,-0.8445093749043324,0.43557903788425345,0.0019674301147460938,0
1.0496923923492432,0.43981099128723145,0.1261613667011261,-0.6523046493530273,0.3989861815534983,-0.6823110751427731,-0.296353247302033,-0.7999999999786476,0.2562279666025326,0.5244241655016705,0.2915120831764552,-0.8457560415882276,0.43969412111113026,0.0019125938415527344,0
1.059922695159912,0.44211670756340027,0.12853005528450012,-0.6559303998947144,0.4005101938141623,-0.6823841081147597,-0.2678089315008981,-0.7999999999999922,0.2731478243069106,0.5229763705258172,0.2941015400701654,-0.8470507700350827,0.4439793803316631,0.002103090286254883,0
1.0707147121429443,0.4464015066623688,0.1332262009382248,-0.6630104184150696,0.4034663525027409,-0.6821460357007356,-0.23708013815387435,-0.7999998091676753,0.2825474031908178,0.5214352241079063,0.29682538142742704,-0.8484126907137135,0.4484999298345045,0.0015034675598144531,0
1.0797889232635498,0.448384553194046,0.13554994761943817,-0.66646409034729,0.4049029531176112,-0.6823092374561777,-0.2108204973904323,-0.7999999032770604,0.29728233540457544,0.5201284069193501,0.2991094119474324,-0.8495547059737162,0.4523009265003201,0.0016782283782958984,0
1.0898325443267822,0.45026281476020813,0.1378592550754547,-0.6698610186576843,0.4063304069466897,-0.6825862803981075,-0.18332143683442198,-0.7999998914767126,0.3146956603924028,0.5186703168537323,0.30163073851126126,-0.8508153692556306,0.4565079886533456,0.003977537155151367,0
1.0998332500457764,0.452039897441864,0.14015017449855804,-0.6732009053230286,0.4077707319471995,-0.6829041596269216,-0.15641872800474801,-0.7999998219727515,0.3320234070057357,0.5172063131752133,0.3041342295955903,-0.8520671147977951,0.4606970744690129,0.001707315444946289,0
1.1101131439208984,0.45678532123565674,0.1469002068042755,-0.6829983592033386,0.4121159031509181,-0.6829533219007186,-0.1305747408607448,-0.7999999999999405,0.33268620659120274,0.5156888451255647,0.3067002038034231,-0.8533501019017116,0.4650031063460484,0.0020656585693359375,0
1.1200776100158691,0.45678532123565674,0.1469002068042755,-0.6829983592033386,0.4121159031509181,-0.6835408008259282,-0.10501131466539282,-0.7999999999999922,0.35872298433572,0.5142057882992431,0.3091802181245655,-0.8545901090622827,0.4691770121435023,0.002816438674926758,0
1.1298797130584717,0.46402475237846375,0.15099304914474487,-0.690596878528595,0.4148663986946492,-0.6835576984598903,-0.054931697052948085,-0.7999999999998119,0.3679322887729344,0.5127352598245895,0.31161282600786955,-0.8558064130039347,0.4732829074646184,0.0017600059509277344,0
1.1399028301239014,0.46402475237846375,0.15099304914474487,-0.690596878528595,0.4148663986946492,-0.684146984719003,-0.029297102062348798,-0.7999999999952797,0.3942266703075141,0.5112196744475589,0.31409305063584564,-0.8570465253179228,0.4774813809231283,0.0017359256744384766,0
1.149965763092041,0.47074446082115173,0.15499593317508698,-0.6979091763496399,0.4174494802708442,-0.684368110012565,0.014439804880318468,-0.7999999998882098,0.4056246834869593,0.5096859996631515,0.3165757125039346,-0.8582878562519672,0.4816965324279648,0.0017807483673095703,0
1.1598811149597168,0.47074446082115173,0.15499593317508698,-0.6979091763496399,0.4174494802708442,-0.6849491886389972,0.03973341771676285,-0.7999999989773744,0.43176002442684147,0.5081630246482038,0.31901463975872485,-0.8595073198793624,0.485849865305998,0.0017590522766113281,0
1.1701505184173584,0.4799332022666931,0.16086329519748688,-0.7083840370178223,0.42181762863933775,-0.6851955943088949,0.082155823707098,-0.7845639554246904,0.43339520456494574,0.5065733654893496,0.32153293047026105,-0.8607664652351305,0.49015150296723475,0.0018658638000488281,0
1.179783582687378,0.4799332022666931,0.16086329519748688,-0.7083840370178223,0.42181762863933775,-0.6857551223084759,0.10668374033313092,-0.7838375340620283,0.4589614586180092,0.5050708644099912,0.3238879774306918,-0.8619439887153458,0.49418659149286825,0.002062082290649414,0
1.189817190170288,0.48277732729911804,0.16278252005577087,-0.7117604613304138,0.4234409188514171,-0.6861667594519415,0.1348677103019952,-0.7332584204771523,0.4754761561908131,0.503494248963483,0.32633348167280973,-0.8631667408364048,0.49838945916717686,0.002035856246948242,0
1.1999459266662598,0.48552000522613525,0.16468343138694763,-0.7150698900222778,0.4251083352359019,-0.68658729793104,0.1611650630081714,-0.6817803392698824,0.4919847622915716,0.5018906759626132,0.32879438769813457,-0.8643971938490672,0.5026321743892957,0.0020339488983154297,0
1.2096889019012451,0.4907177984714508,0.16843539476394653,-0.7214938998222351,0.4286332910791762,-0.6868515315644395,0.18205902462800022,-0.5716597062549474,0.4958979571116803,0.5003368263578523,0.3311541335845776,-0.8655770667922887,0.5067133023122741,0.0020246505737304688,0
1.2199795246124268,0.4931829571723938,0.1702885776758194,-0.7246103882789612,0.4305038676115722,-0.687310483641038,0.20275426901905738,-0.5130552118918766,0.5115999372654453,0.4986835886624804,0.3336385445339162,-0.8668192722669581,0.511023828273649,0.0022797584533691406,0
1.229837417602539,0.4955633282661438,0.172130286693573,-0.7276657819747925,0.4324488144927858,-0.6877311736912695,0.21830512813362907,-0.4518828881399589,0.5257075913052364,0.4970883015618439,0.336010744546006,-0.868005372273003,0.5151530928333306,0.0019421577453613281,0
1.2399921417236328,0.49786388874053955,0.1739668995141983,-0.7306613326072693,0.43447204537193557,-0.6881976698200832,0.23457131772723133,-0.3892401620967266,0.5401123918092594,0.49543318006491266,0.33844639766256607,-0.869223198831283,0.5194066937264051,0.0019366741180419922,0
1.249854326248169,0.5022417902946472,0.17760926485061646,-0.7364909052848816,0.43890876024842523,-0.6884826603429776,0.23190686733161142,-0.26099811350294166,0.5386583695526349,0.4938143158625594,0.3408040807402288,-0.8704020403701144,0.5235377559198224,0.0019500255584716797,0
1.2598941326141357,0.5043281316757202,0.17941856384277344,-0.7393298745155334,0.4412515859823116,-0.6888575712519753,0.24187191195518173,-0.19397223257617108,0.550761323692261,0.49215477085390913,0.3431962725988383,-0.8715981362994191,0.5277432201761938,0.002027750015258789,0
1.2698523998260498,0.5063510537147522,0.1812233328819275,-0.7421165704727173,0.44365941217113763,-0.6892286704227447,0.2467180215712659,-0.12696794974219286,0.5622595888570318,0.49049725624200324,0.34556105338864007,-0.87278052669432,0.5319145293915849,0.0018405914306640625,0
1.27996826171875,0.5083117485046387,0.18302567303180695,-0.7448528409004211,0.4461233195368142,-0.689555509769664,0.2504554779610216,-0.0601077928321277,0.5738311605981372,0.488801877106538,0.3479550616633202,-0.8739775308316601,0.5361518517124964,0.001992940902709961,0
1.289764404296875,0.5120693445205688,0.18662482500076294,-0.7501819133758545,0.4512611051342637,-0.689678399438261,0.22913147439097525,0.07271762927151308,0.5677778614758239,0.48714894486899263,0.3502654786201848,-0.8751327393100924,0.5402552503200904,0.001890420913696289,0
1.2999603748321533,0.513872504234314,0.1884249895811081,-0.7527768015861511,0.4540100322351055,-0.689983177628939,0.22974393529716922,0.136282733494278,0.5777486057379907,0.4854169507927137,0.3526618548739063,-0.8763309274369531,0.544526128470737,0.0020008087158203125,0
1.3098344802856445,0.5156258344650269,0.19022904336452484,-0.7553281188011169,0.4568301350002532,-0.690276581855317,0.22688967818700034,0.19858150742683017,0.5864114843961188,0.48372839586116895,0.3549744202581085,-0.8774872101290542,0.548662184091198,0.0021028518676757812,0
1.3198812007904053,0.5189959406852722,0.19385434687137604,-0.7603248953819275,0.4627391850857813,-0.6903418410234631,0.191383529808234,0.3140132844727905,0.5760729573817228,0.48199901480711915,0.35731911469296807,-0.8786595573464839,0.5528705445352549,0.00193023681640625,0
1.3299107551574707,0.520615816116333,0.19567753374576569,-0.7627692818641663,0.46584704285426576,-0.6907173040225881,0.18387055539453326,0.367105274449613,0.5832990724121506,0.4802612527795591,0.359651399383637,-0.8798256996918185,0.5570717144443686,0.0019659996032714844,0
1.3398659229278564,0.5221946835517883,0.19751091301441193,-0.7651705741882324,0.4690341841978321,-0.6910873001492733,0.17531920174294052,0.41732362593288985,0.5898130190086295,0.4785252191232328,0.36195802886945605,-0.880979014434728,0.5612417253687282,0.001971006393432617,0
1.3498916625976562,0.5237347483634949,0.19935719668865204,-0.7675299644470215,0.4722922906147279,-0.6914542372516023,0.16488324195852522,0.46483973805019174,0.5960548907641716,0.4767656824638645,0.36427254086022653,-0.8821362704301132,0.5654412973811878,0.0018503665924072266,0
1.3600304126739502,0.525236964225769,0.20121917128562927,-0.7698479294776917,0.4756545196768475,-0.6918647471095162,0.15349419384759008,0.5078520831535438,0.601923303872593,0.4749749277911106,0.3666044434671097,-0.8833022217335548,0.5696882070820235,0.0016455650329589844,0
1.3697597980499268,0.5281315445899963,0.20498743653297424,-0.7743610143661499,0.4827102625295816,-0.6921016649909499,0.10395358420276478,0.578127078035117,0.5832472338244139,0.47324575256409224,0.3688339161194995,-0.8844169580597497,0.5737636424981718,0.0015316009521484375,0
1.37992262840271,0.5295245051383972,0.20689937472343445,-0.7765567302703857,0.48638895803859666,-0.6925487381377111,0.09219870047522413,0.607517875742696,0.5871066673121823,0.4714283685707987,0.3711540021428776,-0.8855770010714388,0.5780206389216361,0.0016181468963623047,0
1.3898544311523438,0.5308845043182373,0.20882932841777802,-0.7787131071090698,0.49018420525533124,-0.6929678714565133,0.0789135398779709,0.632892269175475,0.5895861463418933,0.4696413089274366,0.37341269521659815,-0.886706347608299,0.5821808627289898,0.0016446113586425781,0
1.3998637199401855,0.5335032939910889,0.2127491682767868,-0.7829598784446716,0.4980067478875068,-0.6932901885927082,0.0259470810454188,0.6667493966112612,0.566604547953087,0.4678293584414085,0.37568030475432185,-0.8878401523771609,0.5863735438121288,0.0018649101257324219,0
1.4099130630493164,0.5347610116004944,0.21473927795886993,-0.7850249409675598,0.5020344593957987,-0.6937177633371518,0.011406738320866033,0.677760753603505,0.5678539311180922,0.46599914250523655,0.3779481435122869,-0.8889740717561434,0.5905830028101353,0.0020601749420166016,0
1.420046091079712,0.5359836220741272,0.21675336360931396,-0.7870528697967529,0.5061518815030578,-0.6941443569512855,-0.004020775986998311,0.684100331696642,0.5687327101157231,0.4641425546302592,0.3802258394445291,-0.8901129197222645,0.59482751566599,0.003115415573120117,0
1.429854154586792,0.5371705889701843,0.218790203332901,-0.7890431880950928,0.5103312068668288,-0.6946050953363231,-0.018070835775995244,0.6852725558326775,0.5683231423859724,0.46233490383763787,0.38242180467834486,-0.8912109023391723,0.5989359077006279,0.0021605491638183594,0
1.4398934841156006,0.5394352674484253,0.2229316085577011,-0.7929136753082275,0.5189601842738509,-0.6949303850454814,-0.07212214322032602,0.6713073015875142,0.5400688515168921,0.460473870595681,0.3846606484924498,-0.8923303242462248,0.6031411722199176,0.0019223690032958984,0
1.4498419761657715,0.540510892868042,0.22503535449504852,-0.7947964072227478,0.5233494918845837,-0.6953288535695318,-0.08527053678477403,0.6590583224176316,0.5386343563960264,0.4586189814210313,0.38687030110921633,-0.8934351505546081,0.6073083868251326,0.0018110275268554688,0
1.4599721431732178,0.5415468215942383,0.22716045379638672,-0.7966456413269043,0.5277981966112778,-0.6957433045223469,-0.09734180293713343,0.6416182727042448,0.537282190676301,0.45671932389177505,0.38911111418698885,-0.8945555570934944,0.6115517012584969,0.001811981201171875,0
1.4701194763183594,0.5434945225715637,0.23147229850292206,-0.8002744317054749,0.5368424269028046,-0.6961668420283547,-0.14546414553451878,0.5927577096569485,0.506523682208216,0.4548054709633851,0.39134637289972857,-0.8956731864498643,0.6158022062268041,0.0018548965454101562,0
1.4797825813293457,0.5434945225715637,0.23147229850292206,-0.8002744317054749,0.5368424269028046,-0.6966932946173726,-0.11999861299405157,0.5941656705075486,0.5323713824374312,0.4529727769132712,0.39346621630767725,-0.8967331081538386,0.6198498781885884,0.001829385757446289,0
1.4898207187652588,0.54527348279953,0.23585982620716095,-0.8037629127502441,0.5460656706721597,-0.6970480683865041,-0.16527708242742503,0.5323961334849774,0.5001212881882415,0.45105849205128024,0.3956592432237937,-0.8978296216118968,0.6240546433651735,0.0016357898712158203,0
1.4998726844787598,0.5460948944091797,0.2380799800157547,-0.805458128452301,0.5507272778226172,-0.6974454889317142,-0.17254337608166675,0.49556782822940737,0.4971039464450386,0.4491309309595789,0.3978459587018347,-0.8989229793509173,0.6282652009171298,0.0017673969268798828,0
1.5098400115966797,0.5468671917915344,0.24031475186347961,-0.8071230053901672,0.5554003657549502,-0.6978322241612736,-0.17932462321979123,0.4555665399877449,0.4937691539677323,0.4472091325150279,0.40000498971282367,-0.9000024948564118,0.6324403051370743,0.0018508434295654297,0
1.5197992324829102,0.548264741897583,0.24482622742652893,-0.8103600740432739,0.5647304511258517,-0.6980707486757232,-0.21640812102789672,0.3683577959712987,0.4605331492758316,0.4452785310410551,0.40215299301872687,-0.9010764965093634,0.6366120138266288,0.001603841781616211,0
1.5298364162445068,0.5492225885391235,0.24719098210334778,-0.812670886516571,0.5693806688005811,-0.6981115276993481,-0.21687167801932808,0.3276984567230384,0.4575131387617944,0.4433223780397412,0.40430838369886507,-0.9021541918494325,0.6408163795290506,0.001737833023071289,0
1.5399510860443115,0.5501213073730469,0.24956382811069489,-0.8149510622024536,0.5739844541615229,-0.698099836554576,-0.21558729248289554,0.2845299976824199,0.4549800294249574,0.44134056957802165,0.4064707881810788,-0.9032353940905393,0.6450532025072576,0.0018355846405029297,0
1.5498542785644531,0.5509578585624695,0.2519413232803345,-0.8171874284744263,0.5785799875688558,-0.6980757838389868,-0.21396229487175888,0.2383500060611718,0.4519193377080887,0.4393899773874188,0.40857856988770663,-0.9042892849438533,0.6492014420897059,0.001863718032836914,0
1.5598950386047363,0.5524404644966125,0.25671371817588806,-0.8215312361717224,0.5877543211266752,-0.6975334378287833,-0.2359372396967268,0.14610956296640548,0.4198751042075112,0.4374020121947579,0.4107060746178182,-0.905353037308909,0.6534073058202408,0.001707315444946289,0
1.569957971572876,0.5530849099159241,0.2591050863265991,-0.8236406445503235,0.592268703690099,-0.6975374698662808,-0.23150171951717,0.09901878454715998,0.4177560341207487,0.4353993217225489,0.4128285729495287,-0.9064142864747643,0.6576224573250774,0.0016274452209472656,0
1.579916000366211,0.553661048412323,0.2614952325820923,-0.8257090449333191,0.5967467844425414,-0.6975428172339723,-0.22565209629024868,0.04988657136319625,0.4155773039316566,0.4334073699180622,0.4149193315582053,-0.9074596657791026,0.6617936666719276,0.0017654895782470703,0
1.5897960662841797,0.554606556892395,0.2662564516067505,-0.8297257423400879,0.6055501733606383,-0.6970187299865507,-0.23968451615125305,-0.04799391512321948,0.385483506810966,0.4314210912997078,0.4169842227012543,-0.9084921113506271,0.6659322190059107,0.0016067028045654297,0
1.6000127792358398,0.5549734234809875,0.2686300575733185,-0.8316777348518372,0.6098496589897708,-0.6970377853587406,-0.2294157723284995,-0.09370795981324369,0.38514412814036575,0.4293567878312408,0.4191094710731778,-0.9095547355365888,0.6702117857196136,0.001802206039428711,0
1.6097772121429443,0.5552723407745361,0.2709946036338806,-0.8336088061332703,0.6141131759871417,-0.6970956165073803,-0.21913421517399329,-0.13714554427525846,0.3838355933658269,0.42737408332645394,0.4211310875497951,-0.9105655437748975,0.6743019018112709,0.0015044212341308594,0
1.6199967861175537,0.555501401424408,0.2733505070209503,-0.8355014324188232,0.61833673674708,-0.6971425668651231,-0.20867753489342428,-0.1805697589896422,0.38400442107681293,0.4252887669722643,0.4232368895632929,-0.9116184447816464,0.6785826669474643,0.002447843551635742,0
1.6299214363098145,0.5557431578636169,0.278024822473526,-0.8391731381416321,0.62647797004977,-0.696812602164141,-0.210431208509329,-0.2665268986813018,0.3583235243996423,0.4232536987268096,0.42527203824619725,-0.9126360191230986,0.6827398946985915,0.002343893051147461,0
1.6399719715118408,0.5557570457458496,0.2803401052951813,-0.8409520983695984,0.6304650793800348,-0.6969617693018834,-0.1974184213446389,-0.30517758393363115,0.3595735290719801,0.4211828928974561,0.4273230285516216,-0.9136615142758108,0.6869498530393024,0.002004384994506836,0
1.6498608589172363,0.5557001829147339,0.28263917565345764,-0.8426929712295532,0.6344170904331484,-0.6970918621406487,-0.1836048041560622,-0.34093413584658633,0.36062575494852606,0.41913569259349376,0.429331190567576,-0.914665595283788,0.6910921005092981,0.0018665790557861328,0
1.6598596572875977,0.5555707812309265,0.28492340445518494,-0.8443964719772339,0.638264923505728,-0.6972632968761732,-0.16985776560746596,-0.3743916746282086,0.362652901364317,0.41705600382465885,0.4313517006733671,-0.9156758503366835,0.6952803873766384,0.0018362998962402344,0
1.670264482498169,0.5550985932350159,0.28943684697151184,-0.847690999507904,0.6457821703917541,-0.6972257359511961,-0.16549658439264245,-0.43600215303549855,0.34237021762877684,0.41488152327859745,0.4334435622339206,-0.9167217811169602,0.699638750369094,0.0016927719116210938,0
1.67997407913208,0.5550985932350159,0.28943684697151184,-0.847690999507904,0.6457821703917541,-0.6976851958400068,-0.14091241804922627,-0.4341416151688249,0.3681937607001566,0.41284287184389307,0.4353857636254163,-0.9176928818127081,0.7037058966963493,0.0019161701202392578,0
1.689741611480713,0.5543496608734131,0.2938685417175293,-0.8508516550064087,0.6530197616095595,-0.6977118134375613,-0.13562430314497448,-0.4828852827649082,0.3480531178046539,0.4107828826333463,0.43732987930787265,-0.9186649396539363,0.7077973110790382,0.0017981529235839844,0
1.6999928951263428,0.5538734793663025,0.2960505783557892,-0.8523768782615662,0.6565506172233315,-0.6979310589641662,-0.11989624697741016,-0.5024898918530186,0.35284376316332733,0.4086110240102688,0.4393597968149561,-0.919679898407478,0.7120913587311682,0.0019185543060302734,0
1.7098815441131592,0.5533297061920166,0.2982100546360016,-0.853868842124939,0.6600023232174725,-0.6980940522720449,-0.10576022454574457,-0.5182081574701215,0.35719610703156873,0.40650648844247433,0.4413076872819784,-0.9206538436409891,0.716233506332623,0.0018992424011230469,0
1.719871997833252,0.5527200102806091,0.3003464341163635,-0.8553281426429749,0.663396377545578,-0.6983159867288403,-0.0917784446880591,-0.5310114006701548,0.3622028999416778,0.4043708570512019,0.4432653945072595,-0.9216326972536297,0.7204182978010326,0.0017287731170654297,0
1.729794979095459,0.5513126254081726,0.30454736948013306,-0.8581445813179016,0.6700179164683329,-0.6984244950413171,-0.08842190157093942,-0.5481559914169378,0.3465595190842755,0.40224031618114897,0.4451996496387764,-0.9225998248193882,0.7245748264723738,0.0014896392822265625,0
1.739816427230835,0.5505183339118958,0.30661019682884216,-0.8595020771026611,0.6732295027702044,-0.6987300452063181,-0.07360077269081772,-0.5510013705873782,0.3528498438522837,0.4000792435670909,0.44714270525950034,-0.9235713526297501,0.7287726008510975,0.0015835762023925781,0
1.7497148513793945,0.5496648550033569,0.308648943901062,-0.8608406782150269,0.6763738873711407,-0.6990173098483713,-0.0605198903357538,-0.5490152615893532,0.3592646067310935,0.3979354863816192,0.4490516102612529,-0.9245258051306264,0.7329188430627283,0.0015010833740234375,0
1.7599773406982422,0.5487545728683472,0.3106657862663269,-0.86214679479599,0.6794739961339853,-0.6993247469243963,-0.04721210751573213,-0.543522326610483,0.366946834974134,0.3957032656823582,0.4510198726534309,-0.9255099363267154,0.7372175845362797,0.0016946792602539062,0
1.770014762878418,0.5456915497779846,0.3165748715400696,-0.8658807873725891,0.688589437199314,-0.6993207409588597,-0.06076865722533189,-0.5199577182380083,0.3359614201882507,0.39351058219412255,0.4529342355146525,-0.9264671177573263,0.7414220501072423,0.0016016960144042969,0
1.7799959182739258,0.5456915497779846,0.3165748715400696,-0.8658807873725891,0.688589437199314,-0.6997528105869414,-0.036299198031526723,-0.5175559393327094,0.36255345114691373,0.3913210065442611,0.4548272967151228,-0.9274136483575613,0.7456029467025577,0.0018172264099121094,0
1.789853811264038,0.5445650815963745,0.3185010254383087,-0.8670663833618164,0.6915636374484737,-0.7000572380823245,-0.027742773136395463,-0.5009703846014534,0.370009846766804,0.3891495320581196,0.45668659023333114,-0.9283432951166655,0.7497322112622392,0.0018236637115478516,0
1.799903392791748,0.5433911085128784,0.3204101026058197,-0.8682224154472351,0.6944855228464598,-0.700405124785084,-0.018164251236931613,-0.4817013102794056,0.3783154551152467,0.3869267398537866,0.45857136629549833,-0.9292856831477492,0.7539417701287866,0.0017414093017578125,0
1.8099267482757568,0.5409076809883118,0.324168860912323,-0.8704646229743958,0.7003515594103525,-0.7006444731629239,-0.024616802439855676,-0.4417058997885314,0.36792887267612046,0.3847006556030811,0.460440447374641,-0.9302202236873205,0.7581403434558374,0.0019845962524414062,0
1.8200230598449707,0.5396026372909546,0.3260191082954407,-0.8715526461601257,0.703247211962557,-0.7009320121967413,-0.015660152113191203,-0.4165871611693132,0.37653747782266445,0.3824492412512314,0.4623122082168687,-0.9311561041084343,0.7623694765563968,0.0031404495239257812,0
1.8298563957214355,0.5382605791091919,0.32785239815711975,-0.8726143836975098,0.7061158039178232,-0.7012719595149493,-0.00775718088910253,-0.3874361241973383,0.3846258252036857,0.3802477141857304,0.46412463396864323,-0.9320623169843216,0.7664884546563678,0.0019714832305908203,0
1.8400096893310547,0.5354728698730469,0.3314734399318695,-0.8746582865715027,0.7117553170895361,-0.7015360009417688,-0.017466708661096113,-0.32922125468827074,0.37604062371033325,0.3779655415458221,0.4659850313089181,-0.932992515654459,0.7707414563381971,0.0022454261779785156,0
1.8498280048370361,0.534030556678772,0.33326172828674316,-0.8756430149078369,0.7145998765498642,-0.7018462740514918,-0.009698995725890112,-0.29806954699043176,0.38424251131092163,0.3757500053717098,0.46777337831813387,-0.9338866891590669,0.774854142720093,0.001940011978149414,0
1.8599655628204346,0.5325606465339661,0.3350358009338379,-0.8766052722930908,0.7174329061951941,-0.7021095133745562,-0.002447521472590126,-0.2647851351866809,0.3933771364352521,0.3734535530027482,0.4696088199231606,-0.9348044099615802,0.7791005530782242,0.0020551681518554688,0
1.8699610233306885,0.5295416116714478,0.3385530412197113,-0.8785030841827393,0.7230958631142924,-0.7022339861956142,-0.016556865452078313,-0.19671510401478973,0.3842011803326436,0.3711805117036687,0.4714074964734891,-0.9357037482367445,0.7832874417859923,0.002080678939819336,0
1.8797719478607178,0.527996301651001,0.34029871225357056,-0.8794376254081726,0.7259457503545298,-0.7025159184283305,-0.0127487653006882,-0.16028684044805394,0.39235620793775317,0.3689410104580265,0.473162266883371,-0.9365811334416855,0.7873970322431209,0.0021924972534179688,0
1.8898539543151855,0.5264298915863037,0.3420383334159851,-0.8803495168685913,0.7287912784246792,-0.7028481355723206,-0.008625840629771455,-0.12406336246206301,0.40126280204620346,0.36663098827998225,0.47495443827049716,-0.9374772191352485,0.7916201732312276,0.002015829086303711,0
1.8998730182647705,0.5248439908027649,0.34377291798591614,-0.8812402486801147,0.7316315615978403,-0.7030907933093817,-0.004949399287785975,-0.08746991564901369,0.41003440771602695,0.3643267634030304,0.47672424887797804,-0.938362124438989,0.7958169489245426,0.002041339874267578,0
1.9098834991455078,0.5199893712997437,0.34896019101142883,-0.883804976940155,0.7402180010277646,-0.7030091184715122,-0.04455298333578404,0.014298790088197136,0.3822474448821124,0.36201598031378096,0.4784813789453589,-0.9392406894726795,0.800010129350386,0.0017292499542236328,0
1.9199528694152832,0.5199893712997437,0.34896019101142883,-0.883804976940155,0.7402180010277646,-0.7033981667838987,-0.02006843662933251,0.017408797757468456,0.40920769673341223,0.359683054176118,0.48023754594839807,-0.940118772974199,0.8042279773058262,0.0019118785858154297,0
1.9297006130218506,0.5187667012214661,0.3507568836212158,-0.8854795694351196,0.743123615738361,-0.7032361973209008,-0.014824034982702093,0.05571956987867252,0.4168200707419943,0.3574165283416451,0.48192678413655937,-0.9409633920682796,0.8083111025996221,0.001905202865600586,0
1.9399669170379639,0.5175259113311768,0.3525535464286804,-0.8871170282363892,0.7459952365481266,-0.7030314461994827,-0.0076937231360952015,0.0926194202846915,0.4260357401261798,0.3550208512432429,0.4836943199816628,-0.9418471599908314,0.8126114419698277,0.0019845962524414062,0
1.9498896598815918,0.5162685513496399,0.3543507158756256,-0.8887593150138855,0.7488540854132084,-0.7028816092221792,-0.0020006699174716343,0.12922132004779388,0.4344110826698999,0.35269703770306765,0.48539138805244664,-0.9426956940262232,0.8167678707726278,0.0020401477813720703,0
1.9598114490509033,0.5149965882301331,0.356149822473526,-0.8903635740280151,0.7517365448273855,-0.7027584397781186,0.003907716274274106,0.1632729520748477,0.4426288340781309,0.3503653364939899,0.4870771304254114,-0.9435385652127056,0.8209239001012646,0.0019176006317138672,0
1.969998836517334,0.5124122500419617,0.3597525358200073,-0.893462598323822,0.7576330188405928,-0.7021237608010253,-0.006831570258745488,0.22106115528177706,0.43232496070478205,0.3479628346174485,0.48879634381303444,-0.9443981719065172,0.8251911829844394,0.001971006393432617,0
1.9797906875610352,0.5111038684844971,0.3615570366382599,-0.8949607610702515,0.7606047570620132,-0.7019839049607132,-0.00033258285982346226,0.24940933234609822,0.439603483454639,0.3456456608376908,0.4904376383844086,-0.9452188191922043,0.8292927839582978,0.002064228057861328,0
1.9898221492767334,0.5097869634628296,0.3633655309677124,-0.8964259028434753,0.7635799819949649,-0.7018868063628416,0.007055874348963967,0.27572635512952504,0.44749760704641367,0.3432637571721105,0.49210770468677517,-0.9460538523433876,0.8334947528157384,0.002026081085205078,0
2.000004291534424,0.5084621906280518,0.36517763137817383,-0.8978589177131653,0.7665891707878922,-0.7017548450187118,0.014427850811376269,0.2994086296400724,0.4555724193211446,0.3408378238216486,0.4937910265006066,-0.9468955132503032,0.8377598385910139,0.002071380615234375,0
2.0096700191497803,0.5057938098907471,0.36881667375564575,-0.9006324410438538,0.7726539531729473,-0.7012239497296037,-1.4151512199066298e-05,0.3372412184948364,0.44271667439047213,0.3385272899890565,0.495377910218719,-0.9476889551093595,0.8418086091067477,0.001911163330078125,0
2.019951581954956,0.504448652267456,0.37064671516418457,-0.90198814868927,0.7756948877126655,-0.7011874296710027,0.006793943703450668,0.3544875830211263,0.45083423711066895,0.33606143643261055,0.49705403221667,-0.948527016108335,0.8461153400635694,0.0019252300262451172,0
2.029909372329712,0.5017423629760742,0.3743259608745575,-0.9046052694320679,0.7819437349174103,-0.7008633836534726,-0.006377715279023655,0.3785822336652561,0.4375451375177005,0.3336653226366047,0.4986656720387022,-0.949332836019351,0.8502864495418787,0.0019876956939697266,0
2.0398616790771484,0.5003820657730103,0.3761765956878662,-0.9058664441108704,0.7850969397723954,-0.7009344739098957,-0.0012829732528230361,0.3896478095700971,0.44404259980219013,0.3312628059731045,0.5002648832157073,-0.9501324416078536,0.8544552620437479,0.0019197463989257812,0
2.0498905181884766,0.4990170896053314,0.3780352473258972,-0.9070965647697449,0.7882680864614325,-0.7009909488088223,0.0029319155001883363,0.39686913194360424,0.45062216373817787,0.3288340610239381,0.5018646832668193,-0.9509323416334097,0.8586561323472389,0.002019166946411133,0
2.059814453125,0.49764469265937805,0.37990081310272217,-0.908297061920166,0.7914755184963355,-0.7010488521281032,0.006778954282428174,0.40033128856033323,0.4566812055978875,0.32642311603853036,0.5034361422421876,-0.9517180711210937,0.8628130604927435,0.002091646194458008,0
2.0698330402374268,0.4948866367340088,0.38364583253860474,-0.9106117486953735,0.7979773207789574,-0.7008452522452545,-0.007664456723456662,0.3986036482769423,0.4418792842485794,0.32398155875067347,0.5050108410613419,-0.9525054205306709,0.8670096364489768,0.0019292831420898438,0
2.0799458026885986,0.4935001730918884,0.38552573323249817,-0.911725640296936,0.8012428551112661,-0.7010248722106862,-0.002665349680937826,0.39527844122516126,0.44805569488396924,0.3215093470524794,0.5065883336180259,-0.9532941668090129,0.8712456604788569,0.0020232200622558594,0
2.089730739593506,0.49210718274116516,0.3874092400074005,-0.9128418564796448,0.8045188518072194,-0.701123395062379,0.0014521885370249715,0.38731759391151593,0.4532779838741068,0.31910996512802053,0.5081031688112105,-0.9540515844056052,0.8753443652650297,0.0019230842590332031,0
2.0999436378479004,0.49070557951927185,0.3892940282821655,-0.9139288067817688,0.8078307107475995,-0.7013190879424179,0.006746534780855064,0.37702054543452557,0.45941126479282657,0.31659803059299235,0.5096721367944678,-0.9548360683972339,0.8796223340820785,0.0020825862884521484,0
2.110048770904541,0.4878789782524109,0.39306962490081787,-0.9160102605819702,0.8145151332116006,-0.7013997174401326,-0.009440253911582278,0.3487815688827773,0.44362428273799404,0.3141050091463088,0.5112123269534854,-0.9556061634767427,0.8838551623186504,0.004222393035888672,0
2.1197497844696045,0.4864535629749298,0.3949599862098694,-0.9170078039169312,0.8178742375083945,-0.7015886325518271,-0.006012684541785767,0.333116377497497,0.4480701062070026,0.3117046375273065,0.5126794504795081,-0.9563397252397541,0.8879187133784343,0.0016880035400390625,0
2.1299309730529785,0.4850190579891205,0.3968508541584015,-0.9179776906967163,0.821246707022903,-0.7017774731967159,-0.000712007789590087,0.3153933909954685,0.45371021031084596,0.3091780849980464,0.514207070893566,-0.957103535446783,0.8921833996795462,0.0020551681518554688,0
