time,x,y,z,yaw,throttle,roll_rate,pitch_rate,yaw_rate,x_ref,y_ref,z_ref,yaw_ref,mpc_time,metadata
1.1920928955078125e-06,0.200314000248909,0.036241862922906876,0.0704059973359108,-0.0032972713900925044,-0.9750915857681678,-0.36685243774653864,-0.7999999998339193,0.7999999863826747,0.7999999999998579,4.7683715820309684e-07,-1.25,0.0,0.006645679473876953,Sim
0.009514093399047852,0.20054663717746735,0.03612174466252327,0.07072983682155609,-0.0033020209950587183,-0.9750915857766483,-0.3561521323915532,-0.7999999999954248,0.7999999996375029,0.7999909482197493,0.003805623006361192,-1.25,0.0,0.0024809837341308594,Horizon:3.0
0.019646167755126953,0.20078343152999878,0.03599654883146286,0.0710645467042923,-0.0033098711807491017,-0.9750915857652244,-0.3448835267237928,-0.7999999996445504,0.7999999864066342,0.7999614031196159,0.007858340721513144,-1.25,0.0,0.0014824867248535156,Num Steps:20
0.029487133026123047,0.20090804994106293,0.03614695370197296,0.07106911391019821,-0.003306335439781094,-0.9750915857764498,-0.335088143803265,-0.7999999999919539,0.7999999989589986,0.7999130524736091,0.011794425901806878,-1.25,0.0,0.0016798973083496094,No Pyjoules
0.03946352005004883,0.20080329477787018,0.0364132821559906,0.07075574994087219,-0.003291587080464175,-0.9750915857705498,-0.3223246170075924,-0.7999999998793581,0.7999999799816404,0.799844268111376,0.015784383718641198,-1.25,0.0,0.0016222000122070312,0
0.0497586727142334,0.20070956647396088,0.036664027720689774,0.07046584039926529,-0.0032885690167825388,-0.9750915857709729,-0.3004993009978618,-0.7999999997241869,0.7999999963018427,0.7997524202199732,0.019901415836455025,-1.25,0.0,0.0015692710876464844,0
0.059804439544677734,0.20062655210494995,0.0369001179933548,0.07019856572151184,-0.0032930129702157807,-0.9750915856120118,-0.2796522166912073,-0.7999999927063858,0.7998728469561875,0.7996423695499889,0.023918211063519722,-1.25,0.0,0.0014867782592773438,0
0.06950855255126953,0.20049461722373962,0.03733280301094055,0.0696754902601242,-0.0032880655061102715,-0.9750915857714131,-0.26034620404474734,-0.7999999998965064,0.799404408124124,0.7995169047411016,0.027797824253138433,-1.25,0.0,0.0020313262939453125,0
0.10168218612670898,0.20044350624084473,0.03752966970205307,0.06944786757230759,-0.0032754898810090083,-0.9750915857739949,0.40515230789274853,-0.7999999999439695,-0.7999999967056959,0.7989662959925148,0.040655354727283655,-1.25,0.0,0.003565549850463867,0
0.10951828956604004,0.2003300040960312,0.03820045292377472,0.0687498077750206,-0.003241428184101558,-0.9750915857690118,0.41135495490292395,-0.7999999998450719,-0.7999999915249976,0.7988008741079539,0.043785425935680626,-1.25,0.0,0.0015194416046142578,0
0.11960983276367188,0.20032355189323425,0.03833898901939392,0.06861144304275513,-0.003245865982014262,-0.9750915856043451,0.42308406663316567,-0.799999992012974,-0.7999999993689835,0.798569775148725,0.04781541821332182,-1.25,0.0,0.0015277862548828125,0
0.12955045700073242,0.2003261148929596,0.038467682898044586,0.06849265843629837,-0.0032374585733783157,-0.975091585728853,0.43354589386611475,-0.7999999977424477,-0.7999999997381183,0.7983222546600645,0.051783952287086356,-1.25,0.0,0.001651763916015625,0
0.1398022174835205,0.20033738017082214,0.03858691081404686,0.06839285045862198,-0.0032332755025077375,-0.9750915857725331,0.4451672531570149,-0.7999999997915753,-0.7999999999626136,0.7980463296893447,0.05587535833769426,-1.25,0.0,0.0020771026611328125,0
0.14951515197753906,0.20038586854934692,0.03879770636558533,0.06824833899736404,-0.0032460691550468823,-0.9750915857766099,0.45508354172471394,-0.7999999999870626,-0.7999999999433594,0.7977655628561058,0.059750370048065805,-1.25,0.0,0.0016934871673583984,0
0.15978312492370605,0.2004246860742569,0.038891129195690155,0.06820335239171982,-0.003249116742950697,-0.9750915857768007,0.46578399387640473,-0.7999999999965708,-0.7999999998517006,0.7974482929557859,0.06384528222118874,-1.25,0.0,0.002276897430419922,0
0.169708251953125,0.20047247409820557,0.03897843509912491,0.06817474216222763,-0.0032510755958594646,-0.9750915857768419,0.4759134009045076,-0.7999999999986984,-0.7999999999526143,0.7971216386140917,0.06780186762313727,-1.25,0.0,0.0018999576568603516,0
0.1799933910369873,0.2005331814289093,0.039062075316905975,0.06812994927167892,-0.003284988234327546,-0.9750915857768598,0.4853427134660818,-0.799999999999636,-0.7999999999888507,0.7967624240068482,0.07190020647210632,-1.25,0.0,0.0027265548706054688,0
0.1895296573638916,0.20071576535701752,0.039249688386917114,0.0678497850894928,-0.0035929171471709154,-0.9750915857768393,0.48299689428760595,-0.7999999999994933,-0.7999999999791573,0.7964105383298635,0.07569844408663294,-1.25,0.0,0.0022187232971191406,0
0.19968509674072266,0.2008441835641861,0.03936617448925972,0.06751954555511475,-0.003928306315926112,-0.9750915857768584,0.4882566179867464,-0.7999999999995915,-0.7999999999908798,0.796015897502818,0.07974140030613543,-1.25,0.0,0.0016710758209228516,0
0.2096548080444336,0.20099173486232758,0.039494603872299194,0.06703837960958481,-0.004453601122178075,-0.9750915857768564,0.49603404597003703,-0.7999999999995357,-0.7999999999902275,0.7956085097852289,0.08370841748191932,-1.25,0.0,0.0021736621856689453,0
0.2197248935699463,0.2011537402868271,0.039629846811294556,0.066391721367836,-0.00521041602567518,-0.9750915857768512,0.5045517983461717,-0.7999999999993459,-0.7999999999868874,0.7951769511292833,0.08771326235374804,-1.25,0.0,0.0017669200897216797,0
0.22951674461364746,0.20153914391994476,0.03990911692380905,0.06453666090965271,-0.007747999092992064,-0.9750915857768477,0.506196182413815,-0.799999999999223,-0.7999999999873495,0.7947379850339286,0.09160532268493625,-1.25,0.0,0.0015430450439453125,0
0.239593505859375,0.20177392661571503,0.04005178064107895,0.06328032910823822,-0.009617770072970266,-0.975091585775518,0.5078440442845354,-0.799999999961968,-0.7999999994275462,0.7942663572023685,0.09560833549685789,-1.25,0.0,0.0015289783477783203,0
0.24956846237182617,0.20204076170921326,0.04019707441329956,0.061781056225299835,-0.011867980916616006,-0.9750915857461366,0.5067493816611444,-0.7999999979671828,-0.7999996932858119,0.7937796360416179,0.09956851613656101,-1.25,0.0,0.0014693737030029297,0
0.2594473361968994,0.2026822715997696,0.04050029441714287,0.05798357352614403,-0.017556364816115888,-0.9750915857717757,0.48014682708508055,-0.7999999998690601,-0.7999999921338556,0.793278142324778,0.10348810999215959,-1.25,0.0,0.0016438961029052734,0
0.2695126533508301,0.20306597650051117,0.04066399112343788,0.05565556138753891,-0.02090715240553731,-0.9750915856633242,0.46677010963036425,-0.7999999953404292,-0.7999999228468833,0.7927472782836348,0.1074790806338112,-1.25,0.0,0.0013926029205322266,0
0.2797110080718994,0.20349837839603424,0.04083878919482231,0.05302412062883377,-0.024601483355085385,-0.9750915857763814,0.45141360719337986,-0.7999999999892956,-0.7999999993461888,0.7921889194336343,0.11152002477838195,-1.25,0.0,0.0019724369049072266,0
0.2898249626159668,0.20398513972759247,0.0410238616168499,0.0500771664083004,-0.028611868137433216,-0.9750915857751777,0.43602505059460017,-0.7999999999618395,-0.799999997123965,0.79161483829701,0.1155246631157127,-1.25,0.0,0.0022988319396972656,0
0.2997143268585205,0.20453248918056488,0.041222043335437775,0.046804677695035934,-0.03290319860547397,-0.9750915851187728,0.41818755162809873,-0.7999999648739654,-0.799999900016014,0.7910339304638039,0.11943751862369656,-1.25,0.0,0.00177001953125,0
0.30948495864868164,0.20584000647068024,0.04167395457625389,0.03924468904733658,-0.042284763727884034,-0.9750915855256067,0.34712196793474587,-0.7999999992227154,-0.7089800431757383,0.7904410032642786,0.12330052862238955,-1.25,0.0,0.0021457672119140625,0
0.31958794593811035,0.2066144198179245,0.0419304184615612,0.03494662046432495,-0.04730681761782218,-0.9750915857764674,0.25311870986047064,-0.7999998472157077,-0.2262637769106761,0.7898080690239944,0.12729184618265793,-1.25,0.0,0.0017714500427246094,0
0.32949304580688477,0.208434596657753,0.04252084344625473,0.025273986160755157,-0.057940609692371574,-0.9750915857644561,0.15905563301025588,-0.6741984826522228,-0.05373670428942044,0.7891679662886878,0.13120183300463648,-1.25,0.0,0.0012848377227783203,0
0.33960723876953125,0.20949357748031616,0.04286285862326622,0.0198828112334013,-0.06354469611986735,-0.9750915857581612,0.12076193811821359,-0.6007864581781519,-0.002764705368517211,0.788494377630748,0.13519103685044867,-1.25,0.0,0.001373291015625,0
0.34951281547546387,0.21066242456436157,0.04323635995388031,0.014104289934039116,-0.06928699952808781,-0.9750915857663824,0.08204521230660308,-0.5245528720082497,0.05118622697211543,0.7878151368673416,0.1390946085320777,-1.25,0.0,0.0017282962799072266,0
0.3595423698425293,0.2119489312171936,0.043646190315485,0.007910591550171375,-0.07511379668783436,-0.9750915857632387,0.03280792406883172,-0.4461584920998755,0.11506380092492124,0.7871077053587807,0.14304356037527471,-1.25,0.0,0.002592325210571289,0
0.3696436882019043,0.21336103975772858,0.044095952063798904,0.001318343449383974,-0.08093945326954177,-0.9750915833556383,-0.023092691847833007,-0.36346353587822355,0.18519947813952783,0.7863752049529209,0.14701713177467365,-1.25,0.0,0.0017824172973632812,0
0.37993526458740234,0.21657374501228333,0.04510735720396042,-0.01295203436166048,-0.09220677821027445,-0.9750915855553899,-0.15327589588495777,-0.1946413030974913,0.3297407177965438,0.7856082780256851,0.15106168772232711,-1.25,0.0,0.0018563270568847656,0
0.3894624710083008,0.2183735966682434,0.045667991042137146,-0.02056141383945942,-0.09748292057870289,-0.9750915857338116,-0.20556867039634755,-0.10683371828699202,0.394595449406394,0.7848797693450879,0.15480228574798813,-1.25,0.0,0.0015943050384521484,0
0.399855375289917,0.2203049659729004,0.04626624658703804,-0.028440436348319054,-0.10247583743852218,-0.9750915857014265,-0.2533467591991915,-0.01708274135760048,0.45657575177783716,0.7840647532207935,0.1588787674826826,-1.25,0.0,0.003882169723510742,0
0.4097461700439453,0.2223692685365677,0.04689929634332657,-0.03656189143657684,-0.10714805664298721,-0.9750915856659842,-0.29604441272181786,0.08325269838140113,0.5062728259358844,0.7832694498847944,0.16275432060984307,-1.25,0.0,0.0030035972595214844,0
0.4197428226470947,0.22456619143486023,0.047564733773469925,-0.044902365654706955,-0.11145686945257836,-0.9750915854646273,-0.334603343665785,0.18434857272957134,0.5533047383123725,0.7824461697766361,0.16666730753771586,-1.25,0.0,0.0026955604553222656,0
0.4295520782470703,0.226803258061409,0.04931209236383438,-0.06215466186404228,-0.11884951951159373,-0.9640181158324221,-0.41537344051846736,0.3606030290952751,0.6330938768076947,0.7816193209453394,0.17050289476999095,-1.25,0.0,0.0023708343505859375,0
0.4396669864654541,0.2281593680381775,0.05022584646940231,-0.0710022822022438,-0.12188188054064142,-0.9557582639094405,-0.42858708804745804,0.44246405314207654,0.665833923433016,0.7807470180090911,0.1744537012215906,-1.25,0.0,0.0011606216430664062,0
0.44951462745666504,0.2296702265739441,0.051164526492357254,-0.07997900247573853,-0.12446421361554627,-0.9476429874027931,-0.43689897905845676,0.5192655363235579,0.6960286277569029,0.7798785785708646,0.17829582913317893,-1.25,0.0,0.001129150390625,0
0.45963263511657715,0.23133601248264313,0.05212785303592682,-0.08907268196344376,-0.12656483534531168,-0.9398188607784949,-0.4394985147115003,0.5924943888970211,0.7234993367894367,0.7789666032383488,0.18223893941556243,-1.25,0.0,0.0011637210845947266,0
0.4694340229034424,0.2351338118314743,0.05412669479846954,-0.10756517201662064,-0.12928508274898132,-0.9247301593647215,-0.45672014600285876,0.7223792676741787,0.7681074445104203,0.7780641554316097,0.1860542126169038,-1.25,0.0,0.0012936592102050781,0
0.47984743118286133,0.23726113140583038,0.055162880569696426,-0.11695165187120438,-0.12991467670868895,-0.9173556775014698,-0.44293005545179365,0.7803517555638572,0.7862234617890436,0.7770848840240205,0.19010282223411296,-1.25,0.0,0.0015454292297363281,0
0.48973941802978516,0.23953843116760254,0.05622336268424988,-0.12642242014408112,-0.1300724651829226,-0.9084755165792313,-0.42660128650133444,0.7999999587979103,0.799973504431196,0.7761351357125176,0.1939439380659063,-1.25,0.0,0.0015752315521240234,0
0.4996168613433838,0.24196602404117584,0.057307127863168716,-0.1359787881374359,-0.12973588981760953,-0.8987156400135872,-0.4037255230696885,0.7999976002433276,0.7998142414451764,0.7751678391533479,0.1977746726513013,-1.25,0.0,0.0015461444854736328,0
0.5094871520996094,0.24727073311805725,0.05954303592443466,-0.15537534654140472,-0.12767163913284563,-0.879072191509151,-0.37057801786126987,0.7999999996363971,0.7999999820181826,0.7741823565107744,0.2015978146395049,-1.25,0.0,0.00201416015625,0
0.5194828510284424,0.25014728307724,0.060695819556713104,-0.16522938013076782,-0.12598117602295214,-0.8688323545054382,-0.3325329296818288,0.7999999999998396,0.7999999999953056,0.7731651362387963,0.20546452760718453,-1.25,0.0,0.002256631851196289,0
0.5295102596282959,0.25317448377609253,0.06187093257904053,-0.1752028465270996,-0.12386599703696444,-0.858213211068801,-0.29046804981393,0.7999999513160037,0.7999979939181534,0.7721252845741642,0.20933835033568537,-1.25,0.0,0.0022072792053222656,0
0.5397017002105713,0.25635313987731934,0.06306900084018707,-0.18531294167041779,-0.12134392571325936,-0.847109596542212,-0.24626939245064786,0.7999999611154954,0.7999983599573001,0.771048534889254,0.21327014991586385,-1.25,0.0,0.0022780895233154297,0
0.5494625568389893,0.26316794753074646,0.0655379518866539,-0.20605643093585968,-0.11520427726763449,-0.823052687348934,-0.19013084868405425,0.7999999265954708,0.7999960584603654,0.7699985067203671,0.2170306421876989,-1.25,0.0,0.0022313594818115234,0
0.5595138072967529,0.2668057084083557,0.06680820137262344,-0.21671754121780396,-0.11164941969787057,-0.8098633312570361,-0.14338339694625588,0.7999998896352715,0.7999946036269986,0.7688980727702708,0.2208976090639356,-1.25,0.0,0.0020525455474853516,0
0.5696439743041992,0.27059435844421387,0.06810062378644943,-0.2275877147912979,-0.10780160809391814,-0.796519978684056,-0.09565145234707909,0.7999999999996983,0.7999999999874838,0.7677693496724766,0.22478929179011728,-1.25,0.0,0.0033371448516845703,0
0.5798263549804688,0.27452972531318665,0.06941293925046921,-0.23866595327854156,-0.10368348312691777,-0.7832082040636441,-0.04647925421747952,0.7999999999926561,0.7999999996705949,0.7666149591926644,0.22869522151114033,-1.25,0.0,0.002946138381958008,0
0.5896737575531006,0.2828120291233063,0.07209626585245132,-0.26141926646232605,-0.09469538959924151,-0.7574883648820289,0.01017232517252534,0.7999999531390747,0.7999937865743605,0.7654796443450484,0.23246701721615978,-1.25,0.0,0.0022325515747070312,0
0.5996677875518799,0.2871450185775757,0.0734645277261734,-0.2730947434902191,-0.08988476867871764,-0.745088785465823,0.056060892445905675,0.7999999554080135,0.7998862981809035,0.7643084509532522,0.23628921219861107,-1.25,0.0,0.002003192901611328,0
0.6097040176391602,0.29159629344940186,0.07484984397888184,-0.2849324643611908,-0.08489882800517545,-0.7331556243834911,0.10101017536686718,0.7999999999961637,0.7999999991571459,0.7631131062909995,0.240121608787926,-1.25,0.0,0.0029506683349609375,0
0.6197738647460938,0.2961594760417938,0.07624968141317368,-0.2969168424606323,-0.07975011050503644,-0.7218502569297462,0.1439424758395724,0.799999999575206,0.7999998581929502,0.7618944448434326,0.24396076511750353,-1.25,0.0,0.0028367042541503906,0
0.6294615268707275,0.30559131503105164,0.07909001410007477,-0.32124483585357666,-0.0690396546584453,-0.7016419779571333,0.1856444530189403,0.7999999949832611,0.7995981647300007,0.7607038066996856,0.24764837668074346,-1.25,0.0,0.0016427040100097656,0
0.6395483016967773,0.3104429543018341,0.08052746951580048,-0.33354541659355164,-0.06352474987297453,-0.6919571154563509,0.2167110841987287,0.7999999997449696,0.7979656366356703,0.7594451507707629,0.25148173486512543,-1.25,0.0,0.001512289047241211,0
0.6496198177337646,0.3153763711452484,0.08197536319494247,-0.34591037034988403,-0.057925215012545106,-0.6829983547562446,0.24114396491139814,0.7999999999765961,0.7745273264435987,0.7581691256494879,0.25530291207091843,-1.25,0.0,0.0014569759368896484,0
0.6596019268035889,0.3203849196434021,0.08343399316072464,-0.3583206236362457,-0.05222425257604168,-0.6747143655513292,0.26136903253816024,0.7999999422289101,0.7394329638754473,0.7568854569688024,0.2590837799421785,-1.25,0.0,0.0012574195861816406,0
0.669499397277832,0.33060455322265625,0.08637990802526474,-0.38324615359306335,-0.04057394426759142,-0.6604803509558838,0.2706842103902952,0.799999989422939,0.6346141552674727,0.7555940571347749,0.26282621791330213,-1.25,0.0,0.0017876625061035156,0
0.6795289516448975,0.33580178022384644,0.0878656655550003,-0.39570310711860657,-0.0346462581422724,-0.6545964647957808,0.28394126266102976,0.7999999959420049,0.5931934632822281,0.7542665469221183,0.2666120331008787,-1.25,0.0,0.0013344287872314453,0
0.6896066665649414,0.3410482108592987,0.08935988694429398,-0.40813353657722473,-0.028676423238230164,-0.649418053456676,0.2927053425309262,0.7999999971382871,0.5475237865637068,0.752913557149692,0.2704092739907372,-1.25,0.0,0.001300811767578125,0
0.6996276378631592,0.3463395833969116,0.0908639058470726,-0.42052194476127625,-0.02268403221159332,-0.6449582931348902,0.2982781925461954,0.7999999912709305,0.5004605851886852,0.7515492301169919,0.27417832647851087,-1.25,0.0,0.0013148784637451172,0
0.7094743251800537,0.35703688859939575,0.093897245824337,-0.44511982798576355,-0.010622553281721901,-0.6380338992311645,0.27692811451212734,0.7999999994321115,0.3748125816760431,0.7501902529453401,0.27787512372612005,-1.25,0.0,0.0016431808471679688,0
0.7195467948913574,0.36243289709091187,0.09542811661958694,-0.45732608437538147,-0.004586354834604567,-0.6353092286883748,0.275255405246415,0.7999999857559565,0.32397908553023425,0.7487813007118262,0.2816497180973307,-1.25,0.0,0.0012826919555664062,0
0.729534387588501,0.3678533434867859,0.0969681665301323,-0.4694426953792572,0.001474481824604435,-0.6331360732997462,0.27092054808427063,0.7999999912664736,0.2707844696279971,0.7473654686885234,0.28538545199779164,-1.25,0.0,0.0011124610900878906,0
0.739579439163208,0.3732944130897522,0.09851863235235214,-0.48145976662635803,0.007474308390728513,-0.6315177974773747,0.26377562645282565,0.7999998416226493,0.21627483058298289,0.745922692509639,0.2891354990297292,-1.25,0.0,0.0011448860168457031,0
0.7495343685150146,0.3842271566390991,0.1016516163945198,-0.5051679015159607,0.019229779070086186,-0.629702039855059,0.22384161765972105,0.7999999999175189,0.08175534452177913,0.7444742965633013,0.2928447058708384,-1.25,0.0,0.0019485950469970703,0
0.7594616413116455,0.3897099494934082,0.10323092341423035,-0.5168477892875671,0.024984566037887814,-0.6294064053629265,0.2166075094937941,0.7999999999510086,0.028987618510530735,0.7430115568477084,0.29653638291235834,-1.25,0.0,0.0012860298156738281,0
0.7695910930633545,0.39519670605659485,0.10481773316860199,-0.5284048318862915,0.03059751327855789,-0.6289753475952264,0.2101402552043474,0.799999999883254,-0.011101498310610983,0.7415001581360522,0.30029571339632805,-1.25,0.0,0.0013272762298583984,0
0.7797489166259766,0.40068453550338745,0.10641302168369293,-0.5398344397544861,0.036052632243767556,-0.6288394434197102,0.20334412134817223,0.7999999996041491,-0.05105734012101998,0.7399654256508724,0.30405783798699115,-1.25,0.0,0.0012919902801513672,0
0.7894959449768066,0.41164886951446533,0.1096334382891655,-0.5623561143875122,0.04647221127431169,-0.6288612906566364,0.16311934804115322,0.7999999997085516,-0.1408136026961815,0.7384748138391775,0.3076604448498251,-1.25,0.0,0.0011484622955322266,0
0.7995176315307617,0.4171184003353119,0.11126018315553665,-0.5734193921089172,0.05138369857036753,-0.6290705267069838,0.1553118901105062,0.7999999998588146,-0.17987215382550498,0.7369239110222625,0.31135694847498224,-1.25,0.0,0.001497030258178711,0
0.8095114231109619,0.4225728213787079,0.1128976121544838,-0.5843505859375,0.05608258303840354,-0.6293549372201109,0.14669597012076066,0.7999999998249441,-0.2193480266027098,0.7353588991762677,0.3150353780169266,-1.25,0.0,0.0012981891632080078,0
0.8195996284484863,0.4280087649822235,0.11454607546329498,-0.5951489806175232,0.06055636724264015,-0.6297825139736085,0.14051217289217363,0.7999999997104941,-0.2575970607283879,0.7337604802856885,0.31874058036421365,-1.25,0.0,0.0014514923095703125,0
0.829535722732544,0.4386419653892517,0.11838220059871674,-0.6171844601631165,0.06877652459492747,-0.6300249052796816,0.10380838323835995,0.7999999722129917,-0.33891245957317134,0.7321679134370495,0.32238198853725897,-1.25,0.0,0.0012357234954833984,0
0.8395359516143799,0.443835973739624,0.12056026607751846,-0.628404974937439,0.07248255621382274,-0.6300298416163979,0.09415743734721313,0.7999999986889973,-0.3754646194064116,0.7305468208186127,0.32603886668895465,-1.25,0.0,0.0012841224670410156,0
0.8495457172393799,0.4490014612674713,0.12274008244276047,-0.6394742131233215,0.07593573175293523,-0.6300323170723502,0.08523751601887988,0.7999999998633173,-0.4091757963615077,0.7289058916504155,0.32969106921072755,-1.25,0.0,0.0011396408081054688,0
0.8596322536468506,0.4541347026824951,0.12492204457521439,-0.6503940224647522,0.07910030264081261,-0.6301264997147963,0.07745172793661446,0.7999999999960145,-0.4419507563851642,0.7272339085338791,0.33336292877063833,-1.25,0.0,0.0014309883117675781,0
0.8694713115692139,0.46428659558296204,0.129292294383049,-0.6717830896377563,0.08459281643343111,-0.6302613489353867,0.04541560409825805,0.7999999988460672,-0.5051494001155149,0.7255851264119011,0.33693652863681245,-1.25,0.0,0.0011692047119140625,0
0.8797366619110107,0.46929970383644104,0.13148073852062225,-0.6822553277015686,0.08689499286303205,-0.6303950867919318,0.040142697703747385,0.7999976718528132,-0.5338549584853846,0.7238461907355667,0.34065626686971395,-1.25,0.0,0.0011453628540039062,0
0.8896560668945312,0.4742664098739624,0.1336727887392044,-0.6925798654556274,0.08891871223936779,-0.630569790157836,0.03559905119163852,0.7999999999786591,-0.5663509271579144,0.7221477411258522,0.34424212407378213,-1.25,0.0,0.0017254352569580078,0
0.8996167182922363,0.4791821241378784,0.13586771488189697,-0.7027556896209717,0.09065940919992978,-0.6303688135761957,0.03206962838393855,0.7543543602459957,-0.5917019289282233,0.7204243543868203,0.34783437093871755,-1.25,0.0,0.0009679794311523438,0
0.9094827175140381,0.48884710669517517,0.14026758074760437,-0.7226958274841309,0.09320939020185495,-0.6296482638712513,0.012379527895196136,0.6164192496787377,-0.6106597148107307,0.7186997289693303,0.3513839774084913,-1.25,0.0,0.0009322166442871094,0
0.919487714767456,0.4935898780822754,0.1424710601568222,-0.7324452996253967,0.09402335795062935,-0.6295095902647859,0.013986319138081345,0.5484733369328519,-0.619857296410473,0.7169329457274537,0.3549748601387935,-1.25,0.0,0.0007615089416503906,0
0.9294900894165039,0.4982663094997406,0.1446767896413803,-0.7420477271080017,0.09456206297744821,-0.6294582242771273,0.016762138477755352,0.47698345190169517,-0.6277306322813504,0.7151486914571734,0.35855592186867113,-1.25,0.0,0.0008161067962646484,0
0.9398839473724365,0.5028708577156067,0.14688479900360107,-0.7515025734901428,0.09480903506453256,-0.6294448958588198,0.020630667252188352,0.40421650952283167,-0.6339616154861926,0.7132756528128306,0.36226764015632207,-1.25,0.0,0.0007843971252441406,0
0.94952392578125,0.5118626952171326,0.15131060779094696,-0.7699782252311707,0.09439879955080269,-0.6291228408571089,0.010413923346007303,0.24914113356810005,-0.6349600209785189,0.7115212479597677,0.36570139964426573,-1.25,0.0,0.0014867782592773438,0
0.9597012996673584,0.5162457227706909,0.1535278856754303,-0.7790220379829407,0.09374932419424845,-0.6292841406977367,0.01693458846135436,0.17423419790847386,-0.6356297264303252,0.7096511037466225,0.3693173580421051,-1.25,0.0,0.0010492801666259766,0
0.9697039127349854,0.5205479264259338,0.15574638545513153,-0.7879200577735901,0.09282840434425335,-0.6294622959679517,0.02548112200031674,0.0989585975259258,-0.6348802032979507,0.7077951668741125,0.37286190707773753,-1.25,0.0,0.0011851787567138672,0
0.9802758693695068,0.5247658491134644,0.15796560049057007,-0.7966740727424622,0.09163996526379695,-0.6296952008372649,0.03547068312410063,0.023433771210726945,-0.6327437085288562,0.7058143476665466,0.3765980703987307,-1.25,0.0,0.0026111602783203125,0
0.9899237155914307,0.5329416394233704,0.16241027414798737,-0.8137496709823608,0.08844255882370368,-0.6299909439777378,0.034691445068801535,-0.13243345307125665,-0.6160207567028824,0.7039894623603064,0.37999846958329575,-1.25,0.0,0.001531839370727539,0
0.9997704029083252,0.5368971228599548,0.16463860869407654,-0.8220744729042053,0.0864801338351742,-0.6303367698375918,0.04337898611122931,-0.20813607257174369,-0.6071270665441016,0.7021100747697757,0.3834598321946903,-1.25,0.0,0.0016932487487792969,0
1.0096120834350586,0.5407615303993225,0.16687051951885223,-0.8302566409111023,0.0842741499286517,-0.6307804938281864,0.05323009981494111,-0.2887545760841375,-0.5959783374857673,0.7002146371390671,0.38691014710938343,-1.25,0.0,0.0012869834899902344,0
1.0198142528533936,0.5445336699485779,0.16910378634929657,-0.8382951021194458,0.08182360287295445,-0.6313878491656324,0.06593464877983912,-0.36587215749859997,-0.5836180759246278,0.6982318741176643,0.3904769519013053,-1.25,0.0,0.0015969276428222656,0
1.0295205116271973,0.5517957210540771,0.17357346415519714,-0.8540196418762207,0.07631756942121751,-0.6323979307707255,0.07163322478182965,-0.5322006166299748,-0.5473563191590772,0.6963286237220512,0.3938609498101509,-1.25,0.0,0.0013797283172607422,0
1.0397071838378906,0.5552826523780823,0.17581237852573395,-0.8616645336151123,0.07326759359733105,-0.6332240483806827,0.08243634719879221,-0.5998854211607325,-0.5300190987571034,0.6943135341151139,0.39740246142239816,-1.25,0.0,0.0013110637664794922,0
1.0497517585754395,0.5586724281311035,0.17805349826812744,-0.8691650032997131,0.07004283461095119,-0.6341534882287956,0.093793880547083,-0.6643557627423622,-0.5114364403741453,0.6923089166978853,0.4008844769514037,-1.25,0.0,0.0014302730560302734,0
1.0596742630004883,0.5619632601737976,0.1802954375743866,-0.876520574092865,0.06667145679900013,-0.6351663881934175,0.10554319832108883,-0.7249014659945955,-0.4917053553754773,0.6903115156222253,0.4043142483259109,-1.25,0.0,0.001241445541381836,0
1.0697705745697021,0.5682446956634521,0.18478164076805115,-0.8908020257949829,0.059557383447020024,-0.6368452504301058,0.10917082185955247,-0.799999949928062,-0.45184547366202626,0.6882616870915315,0.40779388185935184,-1.25,0.0,0.0010898113250732422,0
1.0796916484832764,0.5712355375289917,0.18702886998653412,-0.8977328538894653,0.055800186078416546,-0.6378385602679952,0.11601779515456989,-0.7999295829931351,-0.43595043087954966,0.686230350780789,0.41120299812534855,-1.25,0.0,0.0015716552734375,0
1.0896646976470947,0.5741271376609802,0.18928024172782898,-0.9045253396034241,0.05195460760082706,-0.6388402692647838,0.12331545850768076,-0.7999534065025355,-0.4183128423888168,0.6841713537323162,0.4146197760986443,-1.25,0.0,0.001165628433227539,0
1.100076675415039,0.576920211315155,0.19153447449207306,-0.9111807346343994,0.04806072657950391,-0.6399170457701573,0.13030340322093834,-0.799964189723296,-0.39882746366354405,0.6820035862423137,0.41817592990585084,-1.25,0.0,0.0014495849609375,0
1.1095998287200928,0.5822122097015381,0.1960519701242447,-0.9240850210189819,0.04006346919453055,-0.6419393456263179,0.12341944061415867,-0.7999999999811177,-0.3505450625097308,0.6800046856351997,0.42141858942644356,-1.25,0.0,0.0015215873718261719,0
1.119934320449829,0.5847134590148926,0.19831568002700806,-0.930334210395813,0.03601397689631749,-0.6432549244487222,0.12712668303531738,-0.7999999999923555,-0.32568482919506336,0.6778180436734558,0.4249266991737389,-1.25,0.0,0.0015878677368164062,0
1.1297168731689453,0.5871196985244751,0.20058394968509674,-0.9364939332008362,0.03193694871679422,-0.6445876246754708,0.1289735480189061,-0.7999999998597441,-0.29923024143636134,0.6757315098015036,0.42823699823973693,-1.25,0.0,0.0015020370483398438,0
1.1398022174835205,0.5894303917884827,0.20285645127296448,-0.94251948595047,0.027855039334853584,-0.646088698448254,0.13110405761751792,-0.7999999997305244,-0.2721206097731681,0.6735634687502322,0.4316390315589578,-1.25,0.0,0.001554250717163086,0
1.1498913764953613,0.5937691330909729,0.20741310715675354,-0.9541724920272827,0.01972923503783999,-0.6488672285040635,0.11418760299378554,-0.7999999990353271,-0.21124409427960758,0.6713774702427067,0.43503136950167587,-1.25,0.0,0.0013871192932128906,0
1.1597099304199219,0.5958000421524048,0.20969821512699127,-0.9598026275634766,0.01569052149979757,-0.6505168460204263,0.11298955686035388,-0.7999999995040621,-0.1814976492994837,0.669233698923187,0.4383220918749012,-1.25,0.0,0.0013294219970703125,0
1.1698226928710938,0.5977420806884766,0.21198709309101105,-0.9653047323226929,0.011660409442588528,-0.6521687534940713,0.11183682851026985,-0.7999999997562465,-0.15083361291905614,0.6670088296433958,0.44170037488975195,-1.25,0.0,0.0013613700866699219,0
1.1801187992095947,0.6013692617416382,0.21658141911029816,-0.9759371280670166,0.003782592251193396,-0.6551924978588624,0.0809254521654009,-0.7999989789232781,-0.08635677219256008,0.6647261040075103,0.4451283035833564,-1.25,0.0,0.0014011859893798828,0
1.1895687580108643,0.6030571460723877,0.2188880443572998,-0.9810978770256042,-4.2104961514688455e-05,-0.6568265277861448,0.07382265753869312,-0.7999984384633841,-0.05538835428615864,0.6626154696339612,0.4482641402139647,-1.25,0.0,0.0010862350463867188,0
1.199756145477295,0.6046637296676636,0.22120051085948944,-0.986140251159668,-0.003803009149896841,-0.6584160997536566,0.06755544269778813,-0.799997037915415,-0.02411559346237498,0.6603235632680852,0.45163347062960163,-1.25,0.0,0.0009167194366455078,0
1.2097642421722412,0.6061932444572449,0.22351962327957153,-0.9910687208175659,-0.007456098527168553,-0.6599171658010327,0.05888211533506965,-0.7999828444182463,0.007403618932150306,0.6580553095788131,0.45493209332287443,-1.25,0.0,0.0010399818420410156,0
1.2197959423065186,0.6076489686965942,0.2258472442626953,-0.9958857893943787,-0.010989841416192192,-0.6614375357782605,0.04932719563593083,-0.7999998673177265,0.038553686677317164,0.6557651700683572,0.45822706350151193,-1.25,0.0,0.0011355876922607422,0
1.2295329570770264,0.6104477047920227,0.23116321861743927,-1.006085991859436,-0.01771454494309399,-0.6635652646664205,-0.014600843771806128,-0.7621197422173808,0.09355571963241706,0.6535265254613468,0.46141421794134135,-1.25,0.0,0.0013074874877929688,0
1.2396948337554932,0.6117958426475525,0.23414002358913422,-1.0114675760269165,-0.020885411393608777,-0.6641428360701627,-0.03434471065870285,-0.7090532286348968,0.11682087927650912,0.651173682677539,0.46472877572641424,-1.25,0.0,0.0008361339569091797,0
1.249708890914917,0.6130793690681458,0.23711371421813965,-1.0167322158813477,-0.023914199760248334,-0.664620156994835,-0.05616962650872206,-0.654004168830631,0.1392350739910572,0.6488386195841915,0.4679833819016236,-1.25,0.0,0.0008170604705810547,0
1.2599685192108154,0.6143028140068054,0.24008458852767944,-1.0218839645385742,-0.026818105628030334,-0.6650756269481277,-0.07484288910675663,-0.5930156887314344,0.16077894174768123,0.6464294252664121,0.4713056313579716,-1.25,0.0,0.0009515285491943359,0
1.269535779953003,0.6165871620178223,0.24601924419403076,-1.0318580865859985,-0.03215670088047151,-0.6659022987271941,-0.1481748431204548,-0.488665128494361,0.20152026436286619,0.6441674857859027,0.47439250653469317,-1.25,0.0,0.0009856224060058594,0
1.279747724533081,0.617652177810669,0.2489842027425766,-1.0366888046264648,-0.034574370272086874,-0.6662033006448671,-0.1691500173524369,-0.42197063519352224,0.21981226433606021,0.641736864306028,0.47767540965666905,-1.25,0.0,0.0006363391876220703,0
1.289646863937378,0.6186698079109192,0.25194913148880005,-1.0414204597473145,-0.03679304701772734,-0.6664994675881009,-0.1898111039463385,-0.3541173507623673,0.23675936954551782,0.6393647255285124,0.4808458669364333,-1.25,0.0,0.0004956722259521484,0
1.2996106147766113,0.6205744743347168,0.2578803598880768,-1.050583004951477,-0.04066646530215223,-0.6669847764709258,-0.25727736768310494,-0.23628086150615826,0.26703877220299554,0.6369612870258745,0.48402512210663357,-1.25,0.0,0.0008504390716552734,0
1.3094580173492432,0.6214693784713745,0.26084885001182556,-1.0550249814987183,-0.04232679769048575,-0.6673140169214024,-0.27481501035145783,-0.1657832245563911,0.28006205234330706,0.6345703806808828,0.48715544948457634,-1.25,0.0,0.0005521774291992188,0
1.3194828033447266,0.6223284006118774,0.263818621635437,-1.0593754053115845,-0.04382304001206317,-0.6676625966997841,-0.2902828445635576,-0.0956817954876818,0.29190376005569857,0.6321206048588413,0.49033003264423114,-1.25,0.0,0.0005214214324951172,0
1.3295724391937256,0.623153805732727,0.2667895257472992,-1.0636370182037354,-0.04510969322935576,-0.6679441597688875,-0.30282264913241835,-0.0275264988124818,0.3022198395770115,0.629638945836575,0.49351271299309674,-1.25,0.0,0.0006449222564697266,0
1.3398046493530273,0.6239478588104248,0.269760400056839,-1.067811131477356,-0.04622017277880585,-0.6683109538892094,-0.3124080421244982,0.040215129009323954,0.31127930488616784,0.6271058537191232,0.4967275392317298,-1.25,0.0,0.000827789306640625,0
1.3496196269989014,0.625458300113678,0.2757047116756439,-1.0759024620056152,-0.04783110394152068,-0.6689185872827401,-0.35532433272238356,0.14876908162289487,0.3248558072886177,0.6246606272369305,0.4997990604032431,-1.25,0.0,0.001043081283569336,0
1.3596034049987793,0.6261793971061707,0.2786780297756195,-1.079836368560791,-0.04834991440332547,-0.6692946509087045,-0.36005960919982005,0.21011074200546637,0.32961125663583674,0.6221579132378857,0.5029110567441121,-1.25,0.0,0.000911712646484375,0
1.3697607517242432,0.6268793344497681,0.28165295720100403,-1.0836875438690186,-0.0486845480163538,-0.669705177810006,-0.3614964945675997,0.2687435497535069,0.3330171412356469,0.6195957796115016,0.5060642942231901,-1.25,0.0,0.0009453296661376953,0
1.3799786567687988,0.6275597214698792,0.2846301198005676,-1.0874559879302979,-0.04883208206830103,-0.6702226441275032,-0.36263857530792193,0.32301892789506537,0.33505034360759595,0.6170022462666518,0.5092231613957736,-1.25,0.0,0.000980377197265625,0
1.3895444869995117,0.6288715600967407,0.2905927896499634,-1.094746708869934,-0.04858625614016487,-0.6712249285444454,-0.38580026314856586,0.3980749669598902,0.3346918811130939,0.614559627053351,0.5121683949601402,-1.25,0.0,0.0008547306060791016,0
1.3996920585632324,0.6295081377029419,0.2935764491558075,-1.0982720851898193,-0.048194691546964645,-0.6717898310672127,-0.3781809660459208,0.44325650339457806,0.33273020993039093,0.6119530951025168,0.5152799330407211,-1.25,0.0,0.0009248256683349609,0
1.4094934463500977,0.6307456493377686,0.29954564571380615,-1.105090856552124,-0.04694205362173864,-0.6730152150028234,-0.3878740411764425,0.49134100604494085,0.3247669937990181,0.6094205274261968,0.5182727281572669,-1.25,0.0,0.0006246566772460938,0
1.4198522567749023,0.6307456493377686,0.29954564571380615,-1.105090856552124,-0.04694205362173864,-0.6730484966778728,-0.35906949446271214,0.5164608371340936,0.325231580466726,0.606728020746438,0.5214221982627034,-1.25,0.0,0.001092672348022461,0
1.4295902252197266,0.6319404244422913,0.3055139482021332,-1.11160147190094,-0.04510119733866835,-0.6743916736646186,-0.35896931535513577,0.5463896990359872,0.3128299788280877,0.6041820424824627,0.5243701550829527,-1.25,0.0,0.0012645721435546875,0
1.439711332321167,0.6325249671936035,0.30849456787109375,-1.1147428750991821,-0.04398196615917227,-0.6750609828464883,-0.3408333203731465,0.5689663787251913,0.3053602997511754,0.601520714264814,0.5274209232769858,-1.25,0.0,0.0016927719116210938,0
1.4502613544464111,0.6331026554107666,0.311472624540329,-1.117809534072876,-0.042731111455379445,-0.6757844963490902,-0.3208167923945032,0.586287896283426,0.29688747423786427,0.5987302071018131,0.5305865990616612,-1.25,0.0,0.0014584064483642578,0
1.4600255489349365,0.633672297000885,0.3144470453262329,-1.1208032369613647,-0.041387183017203455,-0.676418855262099,-0.2993920996490845,0.5913807791660621,0.28752855745974315,0.5961327067036891,0.533503323324357,-1.25,0.0,0.001415252685546875,0
1.4699759483337402,0.6347796320915222,0.32037976384162903,-1.1265783309936523,-0.03844793311534689,-0.6777744870145223,-0.2788634226572503,0.5671085669451407,0.26649897141445716,0.593471054174335,0.53646258756525,-1.25,0.0,0.0028569698333740234,0
1.4798383712768555,0.6353173851966858,0.3233363628387451,-1.1293927431106567,-0.03685618578142691,-0.6784976051534899,-0.2527259836677201,0.556318820013223,0.2551115137535636,0.5908184387721345,0.5393825844489769,-1.25,0.0,0.0014057159423828125,0
1.489734172821045,0.6358431577682495,0.3262847363948822,-1.1321371793746948,-0.03520737617364578,-0.6791687111245168,-0.22545593422981466,0.5413360764340936,0.24325278470593026,0.5881424060439429,0.5422992810366264,-1.25,0.0,0.0007195472717285156,0
1.499932050704956,0.6363561153411865,0.3292235732078552,-1.134814739227295,-0.03349157502078847,-0.6798225649249166,-0.19571545266502477,0.5234671738174724,0.23086098073533853,0.5853696215105119,0.5452911206068187,-1.25,0.0,0.0012264251708984375,0
1.5095350742340088,0.6373394131660461,0.3350698947906494,-1.1399677991867065,-0.029945060345068608,-0.6812675907523333,-0.16402504469295015,0.46390229836265556,0.20514641940779255,0.5827446621466584,0.5480954832322348,-1.25,0.0,0.0011019706726074219,0
1.519761085510254,0.6378083229064941,0.33797717094421387,-1.1424453258514404,-0.028154938479681313,-0.6820362716288975,-0.13426484626008173,0.4377970572133883,0.19211596176257842,0.5799346417814074,0.5510678826259707,-1.25,0.0,0.0012502670288085938,0
1.5296909809112549,0.6382614374160767,0.34087133407592773,-1.1448581218719482,-0.02633920725008121,-0.6827908313938356,-0.10303042283190933,0.4099218887257478,0.17885678974573616,0.5771914819211499,0.5539404238703536,-1.25,0.0,0.0012798309326171875,0
1.5397944450378418,0.6386968493461609,0.3437516391277313,-1.1472200155258179,-0.024498413700584365,-0.6834841352751809,-0.07221151481149797,0.3793456519559867,0.1653712991096689,0.5743857702763305,0.5568491599204102,-1.25,0.0,0.0011103153228759766,0
1.549558401107788,0.6395050883293152,0.3494657278060913,-1.151759147644043,-0.0207937789503454,-0.684822139103914,-0.03599425221809374,0.29893463417514166,0.1384414553651082,0.5716604108493406,0.5596466516182896,-1.25,0.0,0.0011692047119140625,0
1.5600135326385498,0.6398747563362122,0.3522993326187134,-1.1539415121078491,-0.018984547655032102,-0.6853691823095978,-0.006134760178025688,0.2654007496160036,0.1251023233607114,0.568727023506331,0.5626273835618288,-1.25,0.0,0.0027327537536621094,0
1.5696923732757568,0.6402215361595154,0.3551168143749237,-1.1560685634613037,-0.0171711800761174,-0.6860257515846603,0.021815847830062123,0.2307551975800152,0.11174618239452455,0.5659975839651349,0.5653730935812475,-1.25,0.0,0.0010662078857421875,0
1.580068588256836,0.6405426859855652,0.3579155206680298,-1.158138632774353,-0.015370733588521366,-0.6867093210150034,0.053261542852573854,0.19557845921469807,0.09836494475078601,0.5630567634336022,0.5683019278092206,-1.25,0.0,0.0014886856079101562,0
1.5895628929138184,0.6410971283912659,0.36345064640045166,-1.1621520519256592,-0.011899928602892018,-0.6878855209672372,0.08250929770409524,0.10808248879611056,0.07317076056611982,0.5603526133881288,0.5709684305363076,-1.25,0.0,0.0012774467468261719,0
1.5997827053070068,0.6413246393203735,0.3661888837814331,-1.1640989780426025,-0.010235525281802271,-0.6884417392231493,0.10698302485176377,0.0712275889862481,0.060784773001038746,0.5574277152565863,0.5738243130643927,-1.25,0.0,0.001508951187133789,0
1.6095616817474365,0.641671895980835,0.3716045022010803,-1.1678341627120972,-0.007022927622842179,-0.6896197920471506,0.12820554989627797,-0.031337887225937965,0.037634057776709945,0.5546153559913438,0.5765429792292983,-1.25,0.0,0.0007889270782470703,0
1.6199955940246582,0.641671895980835,0.3716045022010803,-1.1678341627120972,-0.007022927622842179,-0.6896763785787913,0.15417389014759467,-0.004124730255724104,0.03675511131040972,0.5516000228366313,0.5794285243294705,-1.25,0.0,0.0015778541564941406,0
1.6295509338378906,0.6418012976646423,0.3774230480194092,-1.172097086906433,-0.003976145926404939,-0.6902551290961172,0.16591591080241985,-0.10545189934579968,0.015098509108735184,0.5488254197096937,0.5820572640904661,-1.25,0.0,0.0010068416595458984,0
1.639784336090088,0.6417750120162964,0.3805347681045532,-1.1745034456253052,-0.002555538582065253,-0.6903423908605978,0.17787506902311268,-0.1388080853702377,0.004772083899165943,0.5458400353642369,0.5848578081838086,-1.25,0.0,0.0009837150573730469,0
1.6497914791107178,0.641708254814148,0.38361555337905884,-1.1768437623977661,-0.0011860481790701982,-0.6903171555793477,0.18784041607303412,-0.1721613366000513,-0.0051216464801944125,0.5429068369712398,0.5875816252827208,-1.25,0.0,0.0009386539459228516,0
1.6600804328918457,0.641599178314209,0.38666602969169617,-1.1791257858276367,0.00014767499094350334,-0.6902893279302386,0.19733015609241336,-0.20244325820882117,-0.01473593440049273,0.5398768660387477,0.590366809294171,-1.25,0.0,0.0011570453643798828,0
1.6697371006011963,0.6412555575370789,0.39267271757125854,-1.183513879776001,0.0026019256887226624,-0.6904073615892284,0.18842060180550457,-0.2834216538803808,-0.03127420449270463,0.5370200960516388,0.5929666233749491,-1.25,0.0,0.0011780261993408203,0
1.6798954010009766,0.6410181522369385,0.3956286311149597,-1.1856225728988647,0.0037335192134959846,-0.6903884420631368,0.1944102978107539,-0.30601946237579597,-0.03931964140632346,0.534001415512756,0.5956865687846026,-1.25,0.0,0.0008754730224609375,0
1.6896965503692627,0.6407372951507568,0.39855316281318665,-1.1876780986785889,0.004783406357242971,-0.6903689687367266,0.1982208980365391,-0.32551382759325653,-0.04669807830915531,0.5310758085005326,0.5982963192478337,-1.25,0.0,0.0007812976837158203,0
1.6999807357788086,0.6400412321090698,0.4043133556842804,-1.1916512250900269,0.006662807063291499,-0.6904643595452004,0.17705457762281568,-0.3835599702852109,-0.05865731620778987,0.5279923058162536,0.6010192384598315,-1.25,0.0,0.0009796619415283203,0
1.7095692157745361,0.6396251916885376,0.4071517884731293,-1.1935678720474243,0.007480229459780464,-0.6905511187021582,0.17328606045055273,-0.3956170684580498,-0.06409989819502204,0.5251048185113221,0.6035436434726088,-1.25,0.0,0.0009038448333740234,0
1.7200736999511719,0.6391637921333313,0.4099649488925934,-1.1954326629638672,0.00824243196429222,-0.6906991084864185,0.1704373847892179,-0.4027274285743952,-0.06919458835473616,0.5219276329929107,0.6062932837483999,-1.25,0.0,0.0016338825225830078,0
1.7298617362976074,0.6386570930480957,0.41275161504745483,-1.1972450017929077,0.008937693064185372,-0.6908840134776604,0.16703905595714463,-0.40802090033131494,-0.07378254406895259,0.5189541840488449,0.6088403360965811,-1.25,0.0,0.000997781753540039,0
1.739966869354248,0.6381064057350159,0.4155113101005554,-1.1990060806274414,0.009581446828589326,-0.6910760561506909,0.16289171455707846,-0.4094422769067363,-0.07796319046497799,0.515871366805722,0.6114546041285456,-1.25,0.0,0.0010256767272949219,0
1.7498693466186523,0.636871337890625,0.42095741629600525,-1.2023752927780151,0.010622523502073624,-0.6915139239064589,0.1259245194374792,-0.430810838044551,-0.08341482042189614,0.5128375982979898,0.6140013011158443,-1.25,0.0,0.0012822151184082031,0
1.760049819946289,0.6361898183822632,0.4236454367637634,-1.2039850950241089,0.011040112258804658,-0.6917684145374244,0.11912384301949476,-0.4222072772928571,-0.08588895916845765,0.5097055559329033,0.6166038000621875,-1.25,0.0,0.0011715888977050781,0
1.7698991298675537,0.6354660391807556,0.42631134390830994,-1.2055631875991821,0.011394992855821929,-0.6919163934851812,0.1105452150889802,-0.41170273847464744,-0.08782737160649043,0.5066628265092622,0.6191064369182777,-1.25,0.0,0.0011594295501708984,0
1.7805969715118408,0.6347000598907471,0.42895662784576416,-1.2070940732955933,0.011693728407463655,-0.692210253003318,0.10289624657157197,-0.39638511751964267,-0.0893941442188004,0.5033440429526709,0.6218076667459641,-1.25,0.0,0.0017366409301757812,0
1.7907943725585938,0.6330488920211792,0.43418774008750916,-1.2100111246109009,0.012065319139402921,-0.692843433365144,0.06093636368034451,-0.38701854439881545,-0.09001459288077537,0.5001671029738028,0.6243659736907461,-1.25,0.0,0.0012831687927246094,0
1.7998085021972656,0.6321655511856079,0.436776727437973,-1.2113984823226929,0.012117980014485741,-0.6932108324600827,0.048209450052768804,-0.3678660606223689,-0.08968830294084597,0.49734797448971513,0.6266139100522568,-1.25,0.0,0.0009562969207763672,0
1.8097643852233887,0.631244957447052,0.43934863805770874,-1.212740182876587,0.012136778756803213,-0.6934925702943765,0.03789989987903026,-0.3448644225023363,-0.08918865957231395,0.49422257787239254,0.6290819052565151,-1.25,0.0,0.0008034706115722656,0
1.8200902938842773,0.6302871704101562,0.44190460443496704,-1.2140384912490845,0.01209256219434376,-0.6938050440412373,0.027542738393401114,-0.31834215953486084,-0.08822431440438731,0.4909680841469497,0.6316251581033436,-1.25,0.0,0.0008847713470458984,0
1.8295915126800537,0.628272533416748,0.44697317481040955,-1.2165342569351196,0.01179482382893251,-0.6943697484950192,-0.01668236147594822,-0.28835432243407255,-0.08426562425635437,0.48796195087677985,0.6339504195885725,-1.25,0.0,0.0008063316345214844,0
1.839749813079834,0.6272197961807251,0.4494873285293579,-1.2177218198776245,0.011567096902844545,-0.6945920859302398,-0.026592230286537958,-0.2554958381712526,-0.08203675596889196,0.4847357411701209,0.6364206637376363,-1.25,0.0,0.0007784366607666016,0
1.8497483730316162,0.62613844871521,0.4519875943660736,-1.2188702821731567,0.011301140665793487,-0.6948789456866317,-0.03517771241230276,-0.2216716036722375,-0.07957007585822905,0.481548051903507,0.6388360303770737,-1.25,0.0,0.0011336803436279297,0
1.8598148822784424,0.6250300407409668,0.45447391271591187,-1.2199782133102417,0.010968680504437134,-0.6952663733737826,-0.042980360392005444,-0.18665158393209944,-0.07665819831855773,0.4783265414038669,0.6412516820941797,-1.25,0.0,0.0009915828704833984,0
1.8698983192443848,0.6227384805679321,0.45940953493118286,-1.2220745086669922,0.010206003395003794,-0.6959051185014248,-0.07976006692931906,-0.1449686831545447,-0.0699053208236234,0.4750874653821815,0.6436551096951959,-1.25,0.0,0.0009129047393798828,0
1.8800067901611328,0.6215575337409973,0.4618598222732544,-1.2230682373046875,0.009794705724930599,-0.6961410364774759,-0.08509362296221078,-0.10786642832985835,-0.06652550143735324,0.47182822664230895,0.6460480822226577,-1.25,0.0,0.0010805130004882812,0
1.8898048400878906,0.6203561425209045,0.4642990529537201,-1.2240359783172607,0.009335433780094849,-0.6964089986557938,-0.09205516529764494,-0.0720666221517111,-0.06279520696433546,0.46865757158768284,0.6483518185318338,-1.25,0.0,0.0009055137634277344,0
1.900024652481079,0.619134783744812,0.46672898530960083,-1.2249689102172852,0.008827984311039283,-0.6967117373551822,-0.09687315326274107,-0.03622284971549571,-0.05879642723852797,0.465338450451619,0.6507381397546068,-1.25,0.0,0.0010559558868408203,0
1.9096016883850098,0.6166391372680664,0.47156262397766113,-1.2267305850982666,0.007760248978969454,-0.6973624409083206,-0.12571999058558392,0.0040887014530913935,-0.050440020028948686,0.462217056023053,0.6529589520952921,-1.25,0.0,0.0008478164672851562,0
1.9199304580688477,0.6153696179389954,0.473966509103775,-1.2275621891021729,0.007211332451628995,-0.6975998964905367,-0.12739592249947965,0.040829447686147616,-0.04626163310819224,0.45883877584605925,0.6553373007696799,-1.25,0.0,0.0009171962738037109,0
1.9296503067016602,0.6140874624252319,0.476362943649292,-1.228362798690796,0.006634683301149269,-0.6979103697978049,-0.12891755374491676,0.07292724511201126,-0.041958727101161476,0.455648480085092,0.6575594745695218,-1.25,0.0,0.0009465217590332031,0
1.939795732498169,0.6127908229827881,0.4787503182888031,-1.229132056236267,0.006075119553209408,-0.6981901701783203,-0.128573996973487,0.10357656881858578,-0.03782850220932188,0.45230702150702595,0.6598623782997807,-1.25,0.0,0.0007658004760742188,0
1.9496212005615234,0.610163688659668,0.4835013747215271,-1.230589747428894,0.004895888287737261,-0.6988059437019332,-0.14763495429490567,0.13452846502177396,-0.02924758777713701,0.44905984799076376,0.6620764706002715,-1.25,0.0,0.0006496906280517578,0
1.9595377445220947,0.6088380217552185,0.4858671724796295,-1.2312740087509155,0.004312392582523717,-0.6991479025448499,-0.14754228859575125,0.1630305325145482,-0.025019061923862093,0.44577158629270025,0.6642948839589914,-1.25,0.0,0.0007071495056152344,0
1.9696893692016602,0.6075042486190796,0.4882277250289917,-1.231930136680603,0.0037018188935536104,-0.6993883532428679,-0.14578530652477897,0.18869696792866464,-0.020684284228482248,0.44239402221354673,0.6665489697762048,-1.25,0.0,0.0008745193481445312,0
1.9801878929138184,0.6061619520187378,0.49058249592781067,-1.2325602769851685,0.0031235174010116004,-0.6996510524903553,-0.14173101250600498,0.213259034253893,-0.016629334334956072,0.4388890531854228,0.6688620179035457,-1.25,0.0,0.0010845661163330078,0
1.989548921585083,0.6034579277038574,0.495271772146225,-1.2337409257888794,0.001999593787827681,-0.7002418086604995,-0.15222750063271404,0.22377265988159714,-0.00897055116345039,0.4357536389430471,0.6709089104698883,-1.25,0.0,0.0009937286376953125,0
1.9997234344482422,0.6020981669425964,0.4976047873497009,-1.234293818473816,0.0014480234758125438,-0.7005306884138462,-0.1454666566930933,0.24178365130477933,-0.0052531392265316845,0.4323349293164042,0.6731170098080866,-1.25,0.0,0.0009946823120117188,0
2.0097079277038574,0.5993651151657104,0.5022501349449158,-1.2352945804595947,0.00037506423036706216,-0.7012146385364348,-0.15162563036138363,0.24151489159670822,0.0018331779283938538,0.42896918972403386,0.6752669355651185,-1.25,0.0,0.0010259151458740234,0
2.019916534423828,0.5993651151657104,0.5022501349449158,-1.2352945804595947,0.00037506423036706216,-0.7012125335205248,-0.13216696066372646,0.2702511586695537,0.0018631801827488268,0.425516849252088,0.6774477182798506,-1.25,0.0,0.0014948844909667969,0
2.029531240463257,0.5962045192718506,0.5071984529495239,-1.236944317817688,-0.0006506176876834857,-0.701358745622779,-0.1382980492059427,0.25724117158788345,0.008448734334522421,0.42225521448755177,0.679485491999698,-1.25,0.0,0.0009515285491943359,0
2.0396387577056885,0.5944206714630127,0.509819746017456,-1.2380906343460083,-0.0011157594591550968,-0.7012101009683187,-0.1316155440224331,0.2578340741228174,0.011324444716480456,0.41881588115367424,0.6816107816734354,-1.25,0.0,0.0008440017700195312,0
2.049717664718628,0.5926393866539001,0.5124242901802063,-1.2391993999481201,-0.0015689297301895166,-0.701042566377122,-0.12519305792656707,0.2555311029832242,0.014087548362567905,0.41537563171694236,0.6837127207941586,-1.25,0.0,0.0015532970428466797,0
2.0600454807281494,0.5908611416816711,0.5150120258331299,-1.2402833700180054,-0.0019987164895058918,-0.7009445202635931,-0.11697796469711962,0.2518893610343848,0.016638496869579834,0.41183947963656753,0.6858485569079237,-1.25,0.0,0.0016396045684814453,0
2.069568395614624,0.5873128771781921,0.5201354026794434,-1.2423393726348877,-0.002760494712713335,-0.7007294086554869,-0.12060959982542169,0.21844911840639422,0.021310462952219496,0.4085691847639846,0.6878017310688401,-1.25,0.0,0.0012388229370117188,0
2.0797629356384277,0.5855398178100586,0.5226709842681885,-1.2433151006698608,-0.003125326631080672,-0.7006188731746086,-0.11151971144618007,0.2101841379315702,0.023386922392055053,0.40505798106411756,0.6898753742352752,-1.25,0.0,0.0010249614715576172,0
2.0897040367126465,0.5837664008140564,0.5251889824867249,-1.2442585229873657,-0.003476363398087212,-0.7004620481772581,-0.10352932846073018,0.20008488386540638,0.025373702403907853,0.4016239310256884,0.6918802049686588,-1.25,0.0,0.0010228157043457031,0
2.0996475219726562,0.5819924473762512,0.5276914238929749,-1.2451696395874023,-0.0038074819829865274,-0.7004082045105102,-0.09652059919824502,0.18909595901052978,0.027231126399969097,0.3981791311818598,0.6938684165540749,-1.25,0.0,0.001062154769897461,0
2.1095094680786133,0.578438401222229,0.5326477885246277,-1.2469054460525513,-0.004407313742900598,-0.7002378738069726,-0.09627271968986455,0.13921249343970965,0.03075864156545521,0.3947528578301376,0.6958233836505778,-1.25,0.0,0.0007348060607910156,0
2.1196703910827637,0.5766569375991821,0.53509920835495,-1.247732162475586,-0.004669646419165563,-0.7001775850166979,-0.08642974963085483,0.12748006586154487,0.03212824943131783,0.39121267463508785,0.6978199217598053,-1.25,0.0,0.0009355545043945312,0
2.1295599937438965,0.5748714804649353,0.5375332236289978,-1.2485283613204956,-0.004887674578514911,-0.7001670413304529,-0.07763656438833583,0.1125921690627614,0.03320652902181247,0.38775732504660015,0.6997458516295079,-1.25,0.0,0.000980377197265625,0
2.139707088470459,0.5730803608894348,0.5399492979049683,-1.2492942810058594,-0.005054666183697876,-0.7001551456617471,-0.06773442037654613,0.0984941999415742,0.03391996899911505,0.38420215595969864,0.7017041423248971,-1.25,0.0,0.0008032321929931641,0
2.1497159004211426,0.5712814927101135,0.542347252368927,-1.2500311136245728,-0.005213978028958177,-0.700112752944388,-0.0582081192903839,0.08261425528127003,0.03457889644160737,0.38068574722985976,0.7036180511158333,-1.25,0.0,0.0013890266418457031,0
2.1596052646636963,0.567659318447113,0.5470879673957825,-1.2514194250106812,-0.00550788898490584,-0.700185197464487,-0.05655162381874343,0.022714010703797815,0.036061258703684075,0.37720193995864115,0.7054918117819922,-1.25,0.0,0.0011043548583984375,0
2.1698789596557617,0.5658366084098816,0.549432098865509,-1.2520697116851807,-0.005626980388826919,-0.7003119607087954,-0.04761585395320842,0.00972935635478812,0.036496015199262224,0.3735729754086971,0.707420124144269,-1.25,0.0,0.0011942386627197266,0
2.1798059940338135,0.5640053153038025,0.5517588257789612,-1.2527261972427368,-0.0057205839165206385,-0.7003914798295835,-0.03916018854340548,-0.003390226819291077,0.03677503420036422,0.37005709612388976,0.7092656382543527,-1.25,0.0,0.0011823177337646484,0
2.189786195755005,0.562163770198822,0.5540686845779419,-1.2533541917800903,-0.0057983717671197255,-0.7004590712086503,-0.03181190778452123,-0.01696249171263893,0.03697611734326063,0.36651319633476626,0.7111034220930689,-1.25,0.0,0.0006430149078369141,0
2.199639081954956,0.5584464073181152,0.5586377382278442,-1.2545222043991089,-0.005914842111177432,-0.7008108637857328,-0.03157977871441541,-0.07305252930043717,0.0374623349536577,0.36300555235838616,0.7129003920303194,-1.25,0.0,0.0006897449493408203,0
2.209726095199585,0.5565707087516785,0.5608947277069092,-1.2550629377365112,-0.005947377154844613,-0.7009340686289738,-0.022445079067135373,-0.08300791798549093,0.037341957678727875,0.35940543288438626,0.7147221381860135,-1.25,0.0,0.0007851123809814453,0
2.219613790512085,0.5527785420417786,0.565351665019989,-1.2560617923736572,-0.005943351956614773,-0.7012621192666154,-0.021392267729913605,-0.13453639335811732,0.0370994336977179,0.35586757769232263,0.7164902421857529,-1.25,0.0,0.0007257461547851562,0
2.2295703887939453,0.5508597493171692,0.5675510168075562,-1.2565572261810303,-0.005929689056591859,-0.7014545337582289,-0.011883813644743016,-0.14358139077144655,0.03667740718888267,0.3522962798622662,0.71825297158815,-1.25,0.0,0.0007646083831787109,0
2.2397050857543945,0.5489237308502197,0.5697308778762817,-1.257023572921753,-0.005914820678558197,-0.7017138125208088,-0.004509818871585736,-0.15205942358477534,0.036315048540629905,0.34865213420881197,0.7200289503288327,-1.25,0.0,0.0007584095001220703,0
2.2496557235717773,0.5469711422920227,0.5718929171562195,-1.2574611902236938,-0.005867027404432346,-0.7019429372761856,0.0025869233419295694,-0.15756532549926866,0.03575453047518596,0.3450654601135844,0.7217546870208744,-1.25,0.0,0.0008268356323242188,0
2.2599496841430664,0.5450030565261841,0.5740358233451843,-1.2578728199005127,-0.005799182763957412,-0.7020604256119511,0.010612673535113316,-0.16002849741577024,0.035043053034095974,0.341346048745839,0.723521164172551,-1.25,0.0,0.0010755062103271484,0
2.270231008529663,0.5430203080177307,0.5761598944664001,-1.2582600116729736,-0.00572598137103153,-0.7022241265916017,0.01751090182274278,-0.15967896083231178,0.03434382314185541,0.3376221769677296,0.7252663411599708,-1.25,0.0,0.00138092041015625,0
2.2798421382904053,0.5390137434005737,0.5803516507148743,-1.2589638233184814,-0.005561893634795201,-0.7025023460752932,0.014229265841763707,-0.18915760695475414,0.03334851315252809,0.33413297750080484,0.7268804257554655,-1.25,0.0,0.0008614063262939453,0
2.2897658348083496,0.536987841129303,0.5824213624000549,-1.2592802047729492,-0.005436829594552606,-0.7027261273735156,0.019070847269895528,-0.1850614855229506,0.03239801890621267,0.3305222087669242,0.7285293882279794,-1.25,0.0,0.000804901123046875,0
2.299926519393921,0.5349478125572205,0.5844725370407104,-1.2595770359039307,-0.005301519063615423,-0.7029808407583212,0.025498051627686355,-0.17793736875280436,0.031344584967638596,0.32681678066577613,0.7301991453536891,-1.25,0.0,0.0008900165557861328,0
2.3097081184387207,0.5308237671852112,0.5885175466537476,-1.2600975036621094,-0.004989898395013625,-0.703484599781089,0.02143182885497693,-0.19447294624326122,0.02947361604207724,0.323241628563945,0.7317888012010902,-1.25,0.0,0.0008785724639892578,0
2.319920301437378,0.5287401676177979,0.5905135869979858,-1.2603230476379395,-0.004824096310827031,-0.7037221852373616,0.02578662949054712,-0.1838102025513047,0.028305915598460487,0.3195008504273465,0.7334297557204796,-1.25,0.0,0.0009703636169433594,0
2.329751491546631,0.5266410112380981,0.5924911499023438,-1.2605278491973877,-0.004656422504349056,-0.7038402421653095,0.029728973577585957,-0.1739809802623306,0.02714594263377372,0.3158917612124638,0.7349914252548038,-1.25,0.0,0.0009682178497314453,0
2.339897871017456,0.5245274305343628,0.5944521427154541,-1.2607131004333496,-0.004496503319206369,-0.7040273179358093,0.03167405427383842,-0.16095241852373332,0.026109346646294173,0.3121589611683162,0.7365845389107198,-1.25,0.0,0.0009605884552001953,0
2.350066900253296,0.5224003791809082,0.5963970422744751,-1.2608784437179565,-0.004326945119085046,-0.7042217626827425,0.03479878474166326,-0.14666359177030888,0.02498619444650711,0.30840976744662985,0.738162187695574,-1.25,0.0,0.0010142326354980469,0
2.359722375869751,0.5181068778038025,0.6002371907234192,-1.2612184286117554,-0.004003113573457728,-0.7045564533136155,0.02331266886423029,-0.1502820171908529,0.023310450424123035,0.30484253373319875,0.7396425012309147,-1.25,0.0,0.0008373260498046875,0
2.369870185852051,0.5159401297569275,0.6021349430084229,-1.2613595724105835,-0.003825578298638721,-0.7047204415652113,0.024983930238543537,-0.13433366918861028,0.022189569501270948,0.301085750054481,0.7411797158005139,-1.25,0.0,0.0008463859558105469,0
2.380117893218994,0.5137611031532288,0.604016125202179,-1.261483073234558,-0.0036608903523829284,-0.7048238076936545,0.027509843608649696,-0.11546327055221223,0.02114762376743737,0.2972841179295034,0.7427126989804855,-1.25,0.0,0.0008456707000732422,0
