time,x,y,z,yaw,throttle,roll_rate,pitch_rate,yaw_rate,x_ref,y_ref,z_ref,yaw_ref,mpc_time,metadata
1.1920928955078125e-06,-0.6826233863830566,-1.067410945892334,1.1574126482009888,-0.2018453095124112,-0.9750915857768673,0.7999999999999988,-0.7999999999999947,0.7999999999999888,0.0,0.0,-0.6,0.0,0.007506608963012695,Sim
0.009476661682128906,-0.6825088858604431,-1.0673377513885498,1.1584919691085815,-0.20187508786087013,-0.9750915857768673,0.7999999999999989,-0.7999999999999948,0.7999999999999892,0.0,0.0,-0.6,0.0,0.0012040138244628906,Horizon:3.0
0.01965165138244629,-0.6823922395706177,-1.0672662258148193,1.15961754322052,-0.20190871915361938,-0.9750915857768673,0.799999999999999,-0.7999999999999955,0.7999999999999904,0.0,0.0,-0.6,0.0,0.0013933181762695312,Num Steps:20
0.029808521270751953,-0.6821569204330444,-1.0671286582946777,1.1620007753372192,-0.20196861588875215,-0.9750915857768673,0.7999999999999989,-0.7999999999999953,0.7999999999999902,0.0,0.0,-0.6,0.0,0.0016884803771972656,No Pyjoules
0.03983807563781738,-0.6820391416549683,-1.0670642852783203,1.1632570028305054,-0.20199502785968654,-0.9750915857768673,0.799999999999999,-0.7999999999999954,0.7999999999999904,0.0,0.0,-0.6,0.0,0.0015974044799804688,0
0.049660682678222656,-0.6819199919700623,-1.067001223564148,1.1645547151565552,-0.2020129033403793,-0.9750915857768673,0.7999999999999992,-0.7999999999999962,0.7999999999999918,0.0,0.0,-0.6,0.0,0.001508474349975586,0
0.059790849685668945,-0.6817543506622314,-1.0669384002685547,1.1658884286880493,-0.20201104612997897,-0.9750915857768673,0.7999999999999994,-0.7999999999999968,0.7999999999999933,0.0,0.0,-0.6,0.0,0.0017740726470947266,0
0.06975674629211426,-0.6814265251159668,-1.066818118095398,1.1686711311340332,-0.2020637666628311,-0.9750915857768673,0.7999999999999994,-0.799999999999997,0.7999999999999936,0.0,0.0,-0.6,0.0,0.0024750232696533203,0
0.07974362373352051,-0.6818350553512573,-1.0666781663894653,1.1664559841156006,-0.20208382234824537,-0.9750915857768673,0.7999999999999992,-0.799999999999996,0.7999999999999917,0.0,0.0,-0.6,0.0,0.0020232200622558594,0
0.0898280143737793,-0.6822302937507629,-1.0665425062179565,1.1643731594085693,-0.20211239689598057,-0.9750915857768673,0.7999999999999988,-0.7999999999999946,0.7999999999999888,0.0,0.0,-0.6,0.0,0.0018019676208496094,0
0.0996403694152832,-0.6826133131980896,-1.0664118528366089,1.1624181270599365,-0.202133070431926,-0.9750915857768673,0.7999999999999983,-0.7999999999999924,0.7999999999999846,0.0,0.0,-0.6,0.0,0.001760721206665039,0
0.1096498966217041,-0.6833450794219971,-1.0661649703979492,1.1589469909667969,-0.20220151819502089,-0.975091585776867,0.7999999999999967,-0.7999999999999855,0.799999999999972,0.0,0.0,-0.6,0.0,0.0017523765563964844,0
0.11986327171325684,-0.6836927533149719,-1.0660475492477417,1.1573885679244995,-0.20224214341390498,-0.975091585776867,0.7999999999999958,-0.7999999999999816,0.7999999999999651,0.0,0.0,-0.6,0.0,0.0019571781158447266,0
0.1296393871307373,-0.6839984655380249,-1.0659353733062744,1.1559392213821411,-0.20226637203105205,-0.975091585776867,0.7999999999999954,-0.7999999999999795,0.7999999999999612,0.0,0.0,-0.6,0.0,0.0017693042755126953,0
0.1398482322692871,-0.6842928528785706,-1.0658248662948608,1.1546010971069336,-0.20230834687298854,-0.975091585776867,0.799999999999994,-0.7999999999999738,0.799999999999951,0.0,0.0,-0.6,0.0,0.0019259452819824219,0
0.1497631072998047,-0.6848480105400085,-1.0656113624572754,1.1522419452667236,-0.20243110107345258,-0.9750915857768668,0.7999999999999895,-0.7999999999999537,0.7999999999999154,0.0,0.0,-0.6,0.0,0.0019702911376953125,0
0.15971612930297852,-0.6851107478141785,-1.065508484840393,1.1512154340744019,-0.20247763279968717,-0.9750915857768666,0.7999999999999858,-0.7999999999999378,0.7999999999998875,0.0,0.0,-0.6,0.0,0.0018846988677978516,0
0.1696934700012207,-0.6853639483451843,-1.0654104948043823,1.1503136157989502,-0.2025141406385056,-0.9750915857768664,0.7999999999999816,-0.7999999999999196,0.7999999999998555,0.0,0.0,-0.6,0.0,0.0022878646850585938,0
0.17990612983703613,-0.6856074333190918,-1.0653166770935059,1.149506688117981,-0.20255625245960773,-0.9750915857768662,0.7999999999999768,-0.7999999999998986,0.7999999999998191,0.0,0.0,-0.6,0.0,0.003277301788330078,0
0.18982195854187012,-0.6858415007591248,-1.0652269124984741,1.148791790008545,-0.20258597369107417,-0.9750915857768659,0.7999999999999724,-0.7999999999998795,0.7999999999997861,0.0,0.0,-0.6,0.0,0.0022363662719726562,0
0.19988608360290527,-0.6862514019012451,-1.0650601387023926,1.1476187705993652,-0.2026615583688993,-0.9750915857768657,0.7999999999999596,-0.7999999999998245,0.799999999999691,0.0,0.0,-0.6,0.0,0.0018129348754882812,0
0.20957016944885254,-0.6864286065101624,-1.0649813413619995,1.1471590995788574,-0.2026992131905107,-0.9750915857768653,0.799999999999953,-0.7999999999997957,0.799999999999641,0.0,0.0,-0.6,0.0,0.0016307830810546875,0
0.2196340560913086,-0.6865997314453125,-1.0649052858352661,1.146783471107483,-0.2027471499560908,-0.9750915857768648,0.7999999999999403,-0.7999999999997414,0.7999999999995483,0.0,0.0,-0.6,0.0,0.0018575191497802734,0
0.22969698905944824,-0.6869248747825623,-1.0647614002227783,1.1462749242782593,-0.2028178580017035,-0.9750915857768636,0.799999999999919,-0.7999999999996497,0.7999999999993913,0.0,0.0,-0.6,0.0,0.0016286373138427734,0
0.23983192443847656,-0.68707674741745,-1.0646940469741821,1.1461470127105713,-0.20284526114052173,-0.9750915857768636,0.7999999999999114,-0.7999999999996178,0.7999999999993365,0.0,0.0,-0.6,0.0,0.0013194084167480469,0
0.24960851669311523,-0.6872221231460571,-1.064630150794983,1.1460943222045898,-0.20288022116253812,-0.9750915857768627,0.7999999999998941,-0.7999999999995435,0.7999999999992103,0.0,0.0,-0.6,0.0,0.0015516281127929688,0
0.2597529888153076,-0.6873602867126465,-1.0645649433135986,1.146113395690918,-0.20290740842121496,-0.9750915857768625,0.7999999999998869,-0.799999999999513,0.7999999999991576,0.0,0.0,-0.6,0.0,0.0016293525695800781,0
0.2697155475616455,-0.6874929070472717,-1.0645021200180054,1.1462029218673706,-0.2029418240387909,-0.9750915857768612,0.7999999999998572,-0.7999999999993852,0.7999999999989417,0.0,0.0,-0.6,0.0,0.00269317626953125,0
0.27990031242370605,-0.6876679062843323,-1.0643905401229858,1.1465814113616943,-0.2030054891776028,-0.9750915857768601,0.7999999999998316,-0.7999999999992763,0.799999999998757,0.0,0.0,-0.6,0.0,0.0017635822296142578,0
0.2894771099090576,-0.6877487301826477,-1.0643378496170044,1.1468702554702759,-0.2030639393891119,-0.9750915857768588,0.7999999999998019,-0.7999999999991486,0.7999999999985429,0.0,0.0,-0.6,0.0,0.0012354850769042969,0
0.29967808723449707,-0.6878258585929871,-1.0642857551574707,1.1472234725952148,-0.20310402563560515,-0.9750915857768584,0.7999999999997911,-0.799999999999103,0.7999999999984658,0.0,0.0,-0.6,0.0,0.001318216323852539,0
0.3095419406890869,-0.6879656314849854,-1.0641855001449585,1.148123860359192,-0.2031941505093311,-0.9750915857768575,0.7999999999997686,-0.7999999999990064,0.7999999999983052,0.0,0.0,-0.6,0.0,0.001247406005859375,0
0.31972312927246094,-0.6880276799201965,-1.064138412475586,1.1486667394638062,-0.20321462812019261,-0.9750915857768566,0.799999999999749,-0.7999999999989234,0.7999999999981657,0.0,0.0,-0.6,0.0,0.0013115406036376953,0
0.3297159671783447,-0.6880860328674316,-1.0640941858291626,1.1492682695388794,-0.2032430320386325,-0.9750915857768562,0.7999999999997386,-0.7999999999988785,0.7999999999980913,0.0,0.0,-0.6,0.0,0.0014066696166992188,0
0.33967018127441406,-0.6881403923034668,-1.0640517473220825,1.1499255895614624,-0.2032651710686483,-0.9750915857768562,0.7999999999997349,-0.7999999999988636,0.7999999999980664,0.0,0.0,-0.6,0.0,0.0015094280242919922,0
0.3496510982513428,-0.6881542205810547,-1.064014196395874,1.1506329774856567,-0.20328851093826855,-0.9750915857768555,0.7999999999997197,-0.799999999998798,0.7999999999979585,0.0,0.0,-0.6,0.0,0.0015213489532470703,0
0.3598160743713379,-0.6881723403930664,-1.0639461278915405,1.1522108316421509,-0.20335068869389492,-0.9750915857768532,0.7999999999996654,-0.7999999999985647,0.7999999999975731,0.0,0.0,-0.6,0.0,0.0019791126251220703,0
0.3696131706237793,-0.6881786584854126,-1.0639160871505737,1.1530956029891968,-0.20339168333365845,-0.9750915857768516,0.7999999999996257,-0.7999999999983929,0.7999999999972921,0.0,0.0,-0.6,0.0,0.0014672279357910156,0
0.3798973560333252,-0.6881812810897827,-1.0638880729675293,1.1540307998657227,-0.2034325989752691,-0.9750915857768505,0.7999999999996026,-0.7999999999982925,0.7999999999971296,0.0,0.0,-0.6,0.0,0.0017461776733398438,0
0.3896973133087158,-0.6881775856018066,-1.063836932182312,1.156048059463501,-0.20347716119891388,-0.9750915857768491,0.7999999999995647,-0.7999999999981284,0.7999999999968637,0.0,0.0,-0.6,0.0,0.0026144981384277344,0
0.39978599548339844,-0.6881709098815918,-1.0638153553009033,1.1571277379989624,-0.20351649365873234,-0.9750915857768486,0.7999999999995567,-0.7999999999980913,0.7999999999968099,0.0,0.0,-0.6,0.0,0.002256631851196289,0
0.40984177589416504,-0.6881600022315979,-1.0637950897216797,1.1582536697387695,-0.2035467673844955,-0.9750915857768501,0.7999999999995822,-0.7999999999982,0.7999999999969931,0.0,0.0,-0.6,0.0,0.0016164779663085938,0
0.4196324348449707,-0.6881091594696045,-1.0637736320495605,1.1594195365905762,-0.20358582594446223,-0.9750915857768498,0.7999999999995776,-0.7999999999981796,0.7999999999969638,0.0,0.0,-0.6,0.0,0.001735687255859375,0
0.42973875999450684,-0.6880571246147156,-1.0637539625167847,1.1606298685073853,-0.20362572645214425,-0.9750915857768475,0.7999999999995221,-0.7999999999979385,0.7999999999965737,0.0,0.0,-0.6,0.0,0.0016546249389648438,0
0.4398524761199951,-0.6879450678825378,-1.0637218952178955,1.1632273197174072,-0.20366364943896914,-0.9750915857768496,0.7999999999995738,-0.7999999999981564,0.7999999999969459,0.0,0.0,-0.6,0.0,0.0015711784362792969,0
0.44963836669921875,-0.6878841519355774,-1.0637084245681763,1.1645869016647339,-0.2036963272825374,-0.9750915857768493,0.799999999999565,-0.7999999999981158,0.7999999999968856,0.0,0.0,-0.6,0.0,0.0013332366943359375,0
0.45980381965637207,-0.6878197193145752,-1.063693881034851,1.1659847497940063,-0.20370391775214153,-0.9750915857768503,0.7999999999995882,-0.7999999999982156,0.7999999999970522,0.0,0.0,-0.6,0.0,0.0015938282012939453,0
0.46962618827819824,-0.6876891255378723,-1.0636711120605469,1.1688902378082275,-0.20374301929050834,-0.9750915857768501,0.799999999999579,-0.799999999998173,0.7999999999969928,0.0,0.0,-0.6,0.0,0.0023331642150878906,0
0.4795570373535156,-0.6879595518112183,-1.063604712486267,1.1667253971099854,-0.20376147917766999,-0.9750915857768441,0.799999999999441,-0.7999999999975823,0.7999999999960136,0.0,0.0,-0.6,0.0,0.0023107528686523438,0
0.4897949695587158,-0.6881909370422363,-1.063542366027832,1.1646872758865356,-0.2037746413120331,-0.9750915857768412,0.7999999999993704,-0.7999999999972843,0.7999999999955095,0.0,0.0,-0.6,0.0,0.0020749568939208984,0
0.49953508377075195,-0.6884142160415649,-1.0634819269180298,1.1627776622772217,-0.20379942017578045,-0.975091585776833,0.7999999999991719,-0.799999999996435,0.7999999999941034,0.0,0.0,-0.6,0.0,0.0017130374908447266,0
0.5096418857574463,-0.688840389251709,-1.0633721351623535,1.1593844890594482,-0.203865574492797,-0.9750915857768032,0.7999999999984599,-0.7999999999933983,0.7999999999890717,0.0,0.0,-0.6,0.0,0.0017697811126708984,0
0.5196242332458496,-0.6890434622764587,-1.0633217096328735,1.1578634977340698,-0.20389167763265184,-0.9750915857767835,0.7999999999979881,-0.7999999999913936,0.7999999999857401,0.0,0.0,-0.6,0.0,0.0017845630645751953,0
0.5295188426971436,-0.6892399191856384,-1.063273310661316,1.1564533710479736,-0.20392074095742227,-0.9750915857767627,0.7999999999974972,-0.7999999999893189,0.7999999999822739,0.0,0.0,-0.6,0.0,0.0015799999237060547,0
0.5396542549133301,-0.6894304156303406,-1.0632274150848389,1.155151128768921,-0.20394124482927484,-0.9750915857767362,0.7999999999968687,-0.7999999999866612,0.7999999999778399,0.0,0.0,-0.6,0.0,0.0019898414611816406,0
0.5496635437011719,-0.6896142363548279,-1.063185214996338,1.1539530754089355,-0.20395273794066082,-0.9750915857767102,0.7999999999962579,-0.7999999999840847,0.7999999999735247,0.0,0.0,-0.6,0.0,0.0016639232635498047,0
0.5595483779907227,-0.6897911429405212,-1.0631458759307861,1.1528571844100952,-0.2039801542468298,-0.9750915857766835,0.7999999999956339,-0.7999999999814604,0.7999999999691132,0.0,0.0,-0.6,0.0,0.0017597675323486328,0
0.5695686340332031,-0.6900620460510254,-1.0630773305892944,1.150958776473999,-0.20407829393938356,-0.9750915857768673,0.8,-0.8,0.8,0.0,0.0,-0.6,0.0,0.001760244369506836,0
0.5795040130615234,-0.6901888251304626,-1.063044786453247,1.1501718759536743,-0.204119317679439,-0.9750915857768673,0.8,-0.8,0.8,0.0,0.0,-0.6,0.0,0.0016090869903564453,0
0.5895650386810303,-0.6904239654541016,-1.0629856586456299,1.1488736867904663,-0.20418274812805898,-0.9750915857768673,0.8,-0.8,0.8,0.0,0.0,-0.6,0.0,0.0019884109497070312,0
0.5997960567474365,-0.6905341148376465,-1.0629597902297974,1.1483585834503174,-0.20422421947238467,-0.9750915857768673,0.8,-0.8,0.7999999999999999,0.0,0.0,-0.6,0.0,0.0018322467803955078,0
0.6096348762512207,-0.6906411051750183,-1.0629353523254395,1.147929310798645,-0.20425479992740164,-0.9750915857768673,0.8,-0.7999999999999999,0.7999999999999998,0.0,0.0,-0.6,0.0,0.0016639232635498047,0
0.6197152137756348,-0.6907443404197693,-1.0629128217697144,1.147583246231079,-0.20429533278706158,-0.9750915857768673,0.8,-0.7999999999999998,0.7999999999999997,0.0,0.0,-0.6,0.0,0.0013873577117919922,0
0.6295721530914307,-0.6909042596817017,-1.0628763437271118,1.1471266746520996,-0.20433129816236062,-0.9750915857768673,0.7999999999999999,-0.7999999999999997,0.7999999999999995,0.0,0.0,-0.6,0.0,0.0016527175903320312,0
0.6397538185119629,-0.6909630298614502,-1.062861680984497,1.1470119953155518,-0.20436866488216468,-0.9750915857768673,0.7999999999999999,-0.7999999999999994,0.7999999999999989,0.0,0.0,-0.6,0.0,0.0017256736755371094,0
0.6496884822845459,-0.6910188794136047,-1.0628498792648315,1.146983027458191,-0.20440926373967375,-0.9750915857768673,0.7999999999999997,-0.7999999999999988,0.7999999999999979,0.0,0.0,-0.6,0.0,0.0015592575073242188,0
0.6596033573150635,-0.6910707950592041,-1.0628385543823242,1.1470261812210083,-0.20444686750454755,-0.9750915857768673,0.7999999999999996,-0.7999999999999984,0.799999999999997,0.0,0.0,-0.6,0.0,0.0016701221466064453,0
0.6696789264678955,-0.6911651492118835,-1.062819242477417,1.1473242044448853,-0.20453436413407305,-0.9750915857768673,0.799999999999999,-0.7999999999999959,0.7999999999999929,0.0,0.0,-0.6,0.0,0.001691579818725586,0
0.6798818111419678,-0.6912084221839905,-1.062812328338623,1.1475775241851807,-0.2045797156690121,-0.9750915857768673,0.7999999999999986,-0.7999999999999942,0.7999999999999899,0.0,0.0,-0.6,0.0,0.0018334388732910156,0
0.6896624565124512,-0.6912487745285034,-1.0628057718276978,1.147896647453308,-0.20461605592664217,-0.9750915857768673,0.7999999999999983,-0.7999999999999927,0.7999999999999875,0.0,0.0,-0.6,0.0,0.0016856193542480469,0
0.6998584270477295,-0.6912873983383179,-1.0627999305725098,1.1482799053192139,-0.20467294727896215,-0.975091585776867,0.7999999999999964,-0.7999999999999846,0.7999999999999737,0.0,0.0,-0.6,0.0,0.0018229484558105469,0
0.709669828414917,-0.6912782192230225,-1.0628055334091187,1.1492242813110352,-0.20476407077311526,-0.9750915857768668,0.7999999999999897,-0.7999999999999565,0.7999999999999265,0.0,0.0,-0.6,0.0,0.0017464160919189453,0
0.7196896076202393,-0.6912705302238464,-1.0628119707107544,1.1498016119003296,-0.20481976526325313,-0.9750915857768666,0.7999999999999832,-0.7999999999999291,0.7999999999998807,0.0,0.0,-0.6,0.0,0.001725912094116211,0
0.7298109531402588,-0.6912612915039062,-1.062819242477417,1.150436520576477,-0.204852250027938,-0.9750915857768662,0.7999999999999765,-0.7999999999999009,0.7999999999998336,0.0,0.0,-0.6,0.0,0.0016698837280273438,0
0.7395224571228027,-0.6912508010864258,-1.062828779220581,1.151127815246582,-0.2048937211286772,-0.9750915857768655,0.7999999999999587,-0.7999999999998262,0.799999999999709,0.0,0.0,-0.6,0.0,0.0019497871398925781,0
0.7495937347412109,-0.6912280917167664,-1.062852144241333,1.152670979499817,-0.20497181966040662,-0.9750915857768646,0.799999999999936,-0.7999999999997306,0.7999999999995503,0.0,0.0,-0.6,0.0,0.0016629695892333984,0
0.7597012519836426,-0.6912145018577576,-1.0628647804260254,1.1535217761993408,-0.20503586373158605,-0.9750915857768623,0.7999999999998846,-0.7999999999995134,0.7999999999991905,0.0,0.0,-0.6,0.0,0.0016722679138183594,0
0.7695198059082031,-0.6911989450454712,-1.0628806352615356,1.1544238328933716,-0.2050788362594288,-0.9750915857768596,0.7999999999998145,-0.7999999999992173,0.7999999999987012,0.0,0.0,-0.6,0.0,0.0015943050384521484,0
0.7795565128326416,-0.6911459565162659,-1.0629024505615234,1.1553727388381958,-0.20509538016805437,-0.9750915857768586,0.7999999999997954,-0.7999999999991362,0.7999999999985685,0.0,0.0,-0.6,0.0,0.0016624927520751953,0
0.7895212173461914,-0.6910924315452576,-1.062926173210144,1.1563720703125,-0.20513944321554403,-0.975091585776856,0.7999999999997265,-0.7999999999988439,0.7999999999980886,0.0,0.0,-0.6,0.0,0.0021088123321533203,0
0.7996211051940918,-0.6909831166267395,-1.062978744506836,1.158521056175232,-0.20523418513277591,-0.9750915857768455,0.7999999999994772,-0.7999999999977847,0.7999999999963547,0.0,0.0,-0.6,0.0,0.0018658638000488281,0
0.8096740245819092,-0.6909278631210327,-1.0630061626434326,1.1596648693084717,-0.20529464430720934,-0.9750915857768347,0.7999999999992223,-0.7999999999967013,0.7999999999945835,0.0,0.0,-0.6,0.0,0.0016350746154785156,0
0.8194870948791504,-0.6908713579177856,-1.063034176826477,1.160853624343872,-0.2053402485253722,-0.9750915857768286,0.7999999999990725,-0.799999999996062,0.799999999993545,0.0,0.0,-0.6,0.0,0.0017123222351074219,0
0.8296301364898682,-0.6907556653022766,-1.063092589378357,1.163359522819519,-0.20540401731725866,-0.975091585776815,0.7999999999987392,-0.7999999999946366,0.799999999991234,0.0,0.0,-0.6,0.0,0.0018529891967773438,0
0.8396079540252686,-0.6906974911689758,-1.0631234645843506,1.164676308631897,-0.20544923871163429,-0.9750915857767966,0.7999999999982905,-0.7999999999927215,0.799999999988127,0.0,0.0,-0.6,0.0,0.002177000045776367,0
0.8494994640350342,-0.6906061768531799,-1.0631585121154785,1.1660295724868774,-0.20548930613747837,-0.9750915857767882,0.7999999999980861,-0.7999999999918442,0.7999999999867151,0.0,0.0,-0.6,0.0,0.0014967918395996094,0
0.8596854209899902,-0.6905129551887512,-1.0631906986236572,1.1674213409423828,-0.20551323717909806,-0.9750915857767943,0.7999999999982288,-0.7999999999924428,0.7999999999877074,0.0,0.0,-0.6,0.0,0.0019478797912597656,0
0.869617223739624,-0.6903268694877625,-1.0632574558258057,1.1703221797943115,-0.20558922683552278,-0.9750915857767694,0.7999999999976184,-0.7999999999898073,0.7999999999834966,0.0,0.0,-0.6,0.0,0.0017409324645996094,0
0.8796083927154541,-0.6905248761177063,-1.0632163286209106,1.1682746410369873,-0.20561365023339767,-0.9750915857767143,0.7999999999962857,-0.7999999999841303,0.7999999999742697,0.0,0.0,-0.6,0.0,0.0021581649780273438,0
0.8896124362945557,-0.690716028213501,-1.0631773471832275,1.1663545370101929,-0.2056569228161825,-0.9750915857765952,0.7999999999934159,-0.7999999999719235,0.7999999999544094,0.0,0.0,-0.6,0.0,0.0017483234405517578,0
0.8996231555938721,-0.6909012198448181,-1.063141107559204,1.164557933807373,-0.20566318514183643,-0.9750915857764862,0.7999999999908016,-0.7999999999608288,0.7999999999363105,0.0,0.0,-0.6,0.0,0.0019211769104003906,0
0.9098446369171143,-0.6912497878074646,-1.0630788803100586,1.1613234281539917,-0.20570881223065138,-0.975091585776867,0.7999999999999937,-0.7999999999999733,0.7999999999999562,0.0,0.0,-0.6,0.0,0.002667665481567383,0
0.9196884632110596,-0.6913914084434509,-1.0630518198013306,1.1599092483520508,-0.2057383892468295,-0.9750915857768659,0.799999999999968,-0.7999999999998642,0.7999999999997777,0.0,0.0,-0.6,0.0,0.002000093460083008,0
0.9296350479125977,-0.6915290355682373,-1.0630273818969727,1.1586048603057861,-0.20577686910626858,-0.9750915857768607,0.7999999999998432,-0.7999999999993358,0.7999999999989134,0.0,0.0,-0.6,0.0,0.0019159317016601562,0
0.9397733211517334,-0.6916614174842834,-1.0630074739456177,1.1574077606201172,-0.2058034570498596,-0.9750915857768438,0.7999999999994443,-0.7999999999976484,0.799999999996152,0.0,0.0,-0.6,0.0,0.0020263195037841797,0
0.9495546817779541,-0.6919106245040894,-1.062975287437439,1.155318021774292,-0.20587335249951041,-0.9750915857767543,0.7999999999973125,-0.7999999999886421,0.7999999999814071,0.0,0.0,-0.6,0.0,0.0019245147705078125,0
0.9598267078399658,-0.6920284032821655,-1.0629603862762451,1.154422640800476,-0.20591439391077487,-0.9750915857766788,0.7999999999955163,-0.7999999999810744,0.7999999999689885,0.0,0.0,-0.6,0.0,0.001674652099609375,0
0.9697437286376953,-0.6921423673629761,-1.0629456043243408,1.1536229848861694,-0.20595332632354202,-0.9750915857766108,0.7999999999939071,-0.7999999999743119,0.799999999957868,0.0,0.0,-0.6,0.0,0.0016384124755859375,0
0.9795830249786377,-0.6922518014907837,-1.0629318952560425,1.1529170274734497,-0.20596778751450726,-0.9750915857765661,0.7999999999928483,-0.7999999999698555,0.7999999999505497,0.0,0.0,-0.6,0.0,0.001636505126953125,0
0.9897775650024414,-0.6923564076423645,-1.062921404838562,1.1523181200027466,-0.20597853031208924,-0.9750915857765399,0.799999999992234,-0.7999999999672838,0.7999999999462977,0.0,0.0,-0.6,0.0,0.0016014575958251953,0
0.9996809959411621,-0.6924968361854553,-1.062903642654419,1.151374101638794,-0.20606372717983812,-0.9750915857766124,0.7999999999939628,-0.7999999999746044,0.7999999999582563,0.0,0.0,-0.6,0.0,0.0016880035400390625,0
1.0306141376495361,-0.6925626397132874,-1.0628962516784668,1.151029348373413,-0.20608678621437787,-0.9750915857766522,0.7999999999949055,-0.799999999978594,0.7999999999647724,0.0,0.0,-0.6,0.0,0.0016524791717529297,0
1.0395588874816895,-0.6928043961524963,-1.0628771781921387,1.1504524946212769,-0.20619599744185974,-0.975091585776828,0.7999999999990711,-0.7999999999961037,0.799999999993578,0.0,0.0,-0.6,0.0,0.002107858657836914,0
1.0496954917907715,-0.6928600668907166,-1.0628762245178223,1.150498628616333,-0.20621866544622708,-0.9750915857768448,0.799999999999467,-0.7999999999977659,0.7999999999963144,0.0,0.0,-0.6,0.0,0.0014469623565673828,0
1.0597124099731445,-0.6929123997688293,-1.0628749132156372,1.1506450176239014,-0.20626036504118322,-0.9750915857768588,0.7999999999997993,-0.7999999999991587,0.7999999999986118,0.0,0.0,-0.6,0.0,0.002261638641357422,0
1.0698003768920898,-0.6929430365562439,-1.0628825426101685,1.1511346101760864,-0.20632074696177524,-0.9750915857768648,0.7999999999999398,-0.7999999999997474,0.7999999999995827,0.0,0.0,-0.6,0.0,0.0023047924041748047,0
1.079838752746582,-0.692957878112793,-1.0628879070281982,1.1514793634414673,-0.206360484405375,-0.9750915857768659,0.7999999999999688,-0.7999999999998693,0.799999999999784,0.0,0.0,-0.6,0.0,0.002396106719970703,0
1.089569091796875,-0.692970871925354,-1.0628937482833862,1.1518886089324951,-0.20640480555959864,-0.9750915857768666,0.7999999999999848,-0.7999999999999361,0.7999999999998945,0.0,0.0,-0.6,0.0,0.0021560192108154297,0
1.0995848178863525,-0.6929798126220703,-1.0629020929336548,1.152354121208191,-0.20642194906027692,-0.9750915857768668,0.7999999999999907,-0.799999999999961,0.7999999999999355,0.0,0.0,-0.6,0.0,0.0018491744995117188,0
1.109644889831543,-0.692977786064148,-1.0629162788391113,1.152848720550537,-0.20637570284672255,-0.9750915857768648,0.7999999999999425,-0.7999999999997577,0.7999999999996024,0.0,0.0,-0.6,0.0,0.0020856857299804688,0
1.11954665184021,-0.6929046511650085,-1.06294846534729,1.1538097858428955,-0.20599858659926784,-0.9750915857768668,0.79999999999999,-0.7999999999999575,0.7999999999999302,0.0,0.0,-0.6,0.0,0.002344369888305664,0
1.1295716762542725,-0.6928250193595886,-1.0629628896713257,1.1542603969573975,-0.2056488340949498,-0.9750915857768659,0.7999999999999681,-0.7999999999998647,0.7999999999997749,0.0,0.0,-0.6,0.0,0.001926422119140625,0
1.1395022869110107,-0.6926702260971069,-1.0629794597625732,1.1546661853790283,-0.20516778977082117,-0.9750915857767957,0.7999999999983252,-0.7999999999929214,0.7999999999881878,0.0,0.0,-0.6,0.0,0.00202178955078125,0
1.1495933532714844,-0.692481279373169,-1.062995433807373,1.155029058456421,-0.20461048817768618,-0.975091585776867,0.7999999999999943,-0.7999999999999758,0.799999999999957,0.0,0.0,-0.6,0.0,0.0017116069793701172,0
1.1596052646636963,-0.6919949650764465,-1.0630227327346802,1.1556090116500854,-0.20315056295897632,-0.9750915857767846,0.7999999999980464,-0.7999999999918208,0.7999999999862486,0.0,0.0,-0.6,0.0,0.0021059513092041016,0
1.169529914855957,-0.6916976571083069,-1.063036322593689,1.1558167934417725,-0.20230239973985903,-0.9750915857768673,0.7999999999999997,-0.7999999999999986,0.7999999999999976,0.0,0.0,-0.6,0.0,0.0020542144775390625,0
1.179577112197876,-0.6913605332374573,-1.063048243522644,1.1559630632400513,-0.20137867802525095,-0.9750915857768673,0.7999999999999986,-0.7999999999999946,0.7999999999999905,0.0,0.0,-0.6,0.0,0.0017261505126953125,0
1.1895694732666016,-0.6905642151832581,-1.0630563497543335,1.1560399532318115,-0.19933878111783798,-0.9750915857768668,0.7999999999999894,-0.7999999999999656,0.7999999999999399,0.0,0.0,-0.6,0.0,0.0020177364349365234,0
1.1996099948883057,-0.6901013851165771,-1.063046932220459,1.1559667587280273,-0.19826032535100147,-0.9750915857768673,0.8,-0.8,0.7999999999999999,0.0,0.0,-0.6,0.0,0.0020203590393066406,0
1.209648609161377,-0.6895538568496704,-1.0630273818969727,1.1558074951171875,-0.19711242655285363,-0.9750915857768673,0.7999999999999999,-0.7999999999999997,0.7999999999999995,0.0,0.0,-0.6,0.0,0.001726388931274414,0
1.219487190246582,-0.6889616847038269,-1.0629940032958984,1.1555601358413696,-0.19596015657997376,-0.9750915857768644,0.7999999999999229,-0.7999999999996801,0.7999999999994608,0.0,0.0,-0.6,0.0,0.0020160675048828125,0
1.2295567989349365,-0.6876388788223267,-1.0628737211227417,1.1547749042510986,-0.19363135313167149,-0.975091585776867,0.7999999999999939,-0.7999999999999738,0.7999999999999584,0.0,0.0,-0.6,0.0,0.0021588802337646484,0
1.2395665645599365,-0.6869035363197327,-1.0627801418304443,1.15422785282135,-0.1924756918069734,-0.975091585776864,0.7999999999999126,-0.799999999999613,0.7999999999994154,0.0,0.0,-0.6,0.0,0.0022826194763183594,0
1.249527931213379,-0.6861122846603394,-1.0626589059829712,1.1535711288452148,-0.19133417177220344,-0.9750915857727428,0.7999999997165453,-0.7999999996496734,0.7999999993588977,0.0,0.0,-0.6,0.0,0.0016717910766601562,0
1.2595417499542236,-0.6852632761001587,-1.0625059604644775,1.1527949571609497,-0.19021319355625185,-0.9750915857718212,0.7999999996194297,-0.7999999995719904,0.7999999991759634,0.0,0.0,-0.6,0.0,0.0018067359924316406,0
1.2695276737213135,-0.6833499670028687,-1.0620911121368408,1.1508538722991943,-0.18798105624997355,-0.9750915857768673,0.7999999999999997,-0.7999999999999988,0.799999999999999,0.0,0.0,-0.6,0.0,0.0021910667419433594,0
1.27955961227417,-0.68260657787323,-1.0617313385009766,1.1460416316986084,-0.18680913051739675,-0.9750915857768664,0.7999999999999724,-0.7999999827882579,0.7999999999998975,0.0,0.0,-0.6,0.0,0.0015740394592285156,0
1.28957200050354,-0.6817939281463623,-1.061313271522522,1.1411734819412231,-0.1855385577110132,-0.9750915857768673,0.8,-0.7426173241432542,0.8,0.0,0.0,-0.6,0.0,0.001859426498413086,0
1.2995507717132568,-0.6809118986129761,-1.0608224868774414,1.1362391710281372,-0.18409357845648205,-0.9750915857768673,0.8,-0.6776346134447897,0.8,0.0,0.0,-0.6,0.0,0.0019025802612304688,0
1.3095688819885254,-0.6789193153381348,-1.0595815181732178,1.1261100769042969,-0.18056000941017808,-0.9750915857768673,0.7562594426575138,-0.5339876877617699,0.7999999999999922,0.0,0.0,-0.6,0.0,0.0015060901641845703,0
1.3195912837982178,-0.6777915954589844,-1.0588165521621704,1.120894432067871,-0.17847937418576576,-0.975091585776867,0.679436653817085,-0.4560892673982078,0.799999999999932,0.0,0.0,-0.6,0.0,0.0018415451049804688,0
1.3295207023620605,-0.6765672564506531,-1.0579460859298706,1.11552894115448,-0.17622606855198392,-0.975091585776867,0.6016477355313303,-0.375084082721577,0.7999999999998284,0.0,0.0,-0.6,0.0,0.0014896392822265625,0
1.3397340774536133,-0.6752374172210693,-1.0569602251052856,1.1099882125854492,-0.17374003414170666,-0.9750915857768673,0.5226580032643667,-0.2911537512156331,0.7999999999999516,0.0,0.0,-0.6,0.0,0.001982450485229492,0
1.349642276763916,-0.6721637845039368,-1.054602861404419,1.0983023643493652,-0.16819339066108882,-0.9750915857768673,0.36115185969755265,-0.11707740085179026,0.8,0.0,0.0,-0.6,0.0,0.0022668838500976562,0
1.3596704006195068,-0.6704387664794922,-1.0532163381576538,1.092146635055542,-0.16513296246672632,-0.9750915857768673,0.2795013804529033,-0.024941781614718345,0.7999999999999611,0.0,0.0,-0.6,0.0,0.002424001693725586,0
1.3696730136871338,-0.6685811281204224,-1.0516806840896606,1.0857819318771362,-0.16183875928026603,-0.9750915857768644,0.19697987084312632,0.06677721658688351,0.7999999999992928,0.0,0.0,-0.6,0.0,0.0019068717956542969,0
1.3795194625854492,-0.6665841937065125,-1.0499919652938843,1.079213261604309,-0.158366837873955,-0.9750915857760567,0.12153798911133956,0.15135333000210616,0.799999999798082,0.0,0.0,-0.6,0.0,0.0027463436126708984,0
1.389733076095581,-0.6644443273544312,-1.0481477975845337,1.0724469423294067,-0.1546908681596332,-0.97509158577683,0.05133737267606113,0.23479613575888408,0.7999999999844399,0.0,0.0,-0.6,0.0,0.0023832321166992188,0
1.399780035018921,-0.6597190499305725,-1.0439833402633667,1.0583549737930298,-0.14660836315815323,-0.9750915857768646,-0.09284987612519723,0.3966640688157722,0.7999999999991683,0.0,0.0,-0.6,0.0,0.0018682479858398438,0
1.4095211029052734,-0.6571029424667358,-1.0416594743728638,1.0510363578796387,-0.14224614265620072,-0.9750915857768668,-0.16372989864232323,0.47504869039836767,0.7999999999998854,0.0,0.0,-0.6,0.0,0.0025980472564697266,0
1.4196984767913818,-0.6543315052986145,-1.0391730070114136,1.0435457229614258,-0.1376680312106816,-0.9750915857766791,-0.23102235765918186,0.5503816110691765,0.7999999999309624,0.0,0.0,-0.6,0.0,0.0017235279083251953,0
1.4295880794525146,-0.6514033675193787,-1.0365206003189087,1.0358879566192627,-0.13283713682982465,-0.9750915857768063,-0.2944364086800064,0.6222698631068231,0.799999999975028,0.0,0.0,-0.6,0.0,0.0021843910217285156,0
1.439709186553955,-0.6483153104782104,-1.0336979627609253,1.0280647277832031,-0.12778845455857837,-0.975091585776858,-0.35443217267635596,0.6913621598962502,0.7999999999840913,0.0,0.0,-0.6,0.0,0.0021927356719970703,0
1.449761152267456,-0.6416471600532532,-1.0275357961654663,1.0119249820709229,-0.11700560573413633,-0.9750915857768373,-0.4597374752888549,0.7999999993362393,0.7999999996161339,0.0,0.0,-0.6,0.0,0.0016181468963623047,0
1.459517002105713,-0.6386770009994507,-1.025136113166809,1.003602147102356,-0.11126166027536759,-0.9750915857768673,-0.49818017756909544,0.7999999999999975,0.7999999999998889,0.0,0.0,-0.6,0.0,0.0013828277587890625,0
1.4696671962738037,-0.6322181820869446,-1.0197701454162598,0.9864502549171448,-0.09908212561197617,-0.9750915857768673,-0.5611748520972843,0.7999999999999997,0.7999999999999964,0.0,0.0,-0.6,0.0,0.0019104480743408203,0
1.4796862602233887,-0.6287105679512024,-1.0168038606643677,0.9776132106781006,-0.09266138989417733,-0.9750915857761459,-0.5866323418292345,0.799999999979202,0.7999999998169485,0.0,0.0,-0.6,0.0,0.0021386146545410156,0
1.4895753860473633,-0.6250296831130981,-1.0136452913284302,0.9685943722724915,-0.08604046817572347,-0.975091585776352,-0.6076005902186751,0.7999999999899658,0.799999999935123,0.0,0.0,-0.6,0.0,0.002165555953979492,0
1.4996576309204102,-0.6211757659912109,-1.0102956295013428,0.9593857526779175,-0.07923018183009933,-0.9750915857721061,-0.624404268864247,0.7999999999209191,0.7999999996026662,0.0,0.0,-0.6,0.0,0.001924276351928711,0
1.5095405578613281,-0.6129469275474548,-1.0030291080474854,0.9403729438781738,-0.06511941433447545,-0.975091585776867,-0.6461540772967783,0.7999999999999997,0.7999999999999942,0.0,0.0,-0.6,0.0,0.0018932819366455078,0
1.5196294784545898,-0.6085746884346008,-0.9991130828857422,0.9305528402328491,-0.05784517460691608,-0.975091585776718,-0.6516116534690496,0.7999999999996336,0.7999999999940485,0.0,0.0,-0.6,0.0,0.0021347999572753906,0
1.5296998023986816,-0.6040295362472534,-0.995007336139679,0.9204979538917542,-0.05046243147822711,-0.9750915857766322,-0.653796886951189,0.7999999999995505,0.7999999999920735,0.0,0.0,-0.6,0.0,0.00202178955078125,0
1.5395419597625732,-0.5993111729621887,-0.9907113313674927,0.9101938605308533,-0.043018002285655145,-0.975091585776867,-0.6537074154838336,0.7999999999999998,0.7999999999999952,0.0,0.0,-0.6,0.0,0.002134084701538086,0
1.5495600700378418,-0.5893457531929016,-0.9815619587898254,0.8887734413146973,-0.028006558508501162,-0.9750915857768673,-0.6452281410657185,0.8,0.8,0.0,0.0,-0.6,0.0,0.0019233226776123047,0
1.5595595836639404,-0.584111213684082,-0.9767060279846191,0.8776341080665588,-0.020467410632614612,-0.975091585776865,-0.6382474066734596,0.7999999999999994,0.7999999999999833,0.0,0.0,-0.6,0.0,0.0019698143005371094,0
1.5695128440856934,-0.5787131786346436,-0.9716672897338867,0.8661945462226868,-0.01294348804627009,-0.9659005243378358,-0.6158518712544961,0.7999999999461573,0.7999999988906369,0.0,0.0,-0.6,0.0,0.0020051002502441406,0
1.579671859741211,-0.5731550455093384,-0.966451108455658,0.8544443249702454,-0.00540119010339102,-0.9529797232833216,-0.5871701322501244,0.7999999999999999,0.7999999999999389,0.0,0.0,-0.6,0.0,0.0018503665924072266,0
1.5895352363586426,-0.5615792870521545,-0.9555037021636963,0.8299940228462219,0.00965014926657171,-0.9266697505871911,-0.5396975808876024,0.7999999999950755,0.7999999992624044,0.0,0.0,-0.6,0.0,0.0021843910217285156,0
1.5995397567749023,-0.5555712580680847,-0.9497865438461304,0.8172797560691833,0.01715061710924721,-0.9129793260239218,-0.5146829633061527,0.7999999999986311,0.7552948983994805,0.0,0.0,-0.6,0.0,0.002506256103515625,0
1.6098332405090332,-0.5494269728660583,-0.943916380405426,0.8042327165603638,0.024626550020405594,-0.8989000799544283,-0.4886678492379389,0.7999999999999952,0.6602264865640516,0.0,0.0,-0.6,0.0,0.002736330032348633,0
1.6195621490478516,-0.54314786195755,-0.9379084706306458,0.7908521890640259,0.03208599976487797,-0.8847230313428875,-0.4625898841208565,0.799999999751917,0.5662727345672616,0.0,0.0,-0.6,0.0,0.003122568130493164,0
1.6298341751098633,-0.5302183628082275,-0.9254816770553589,0.7631250023841858,0.046891194101582365,-0.8566717442207501,-0.4081990537878863,0.7999999995726951,0.37878268121920905,0.0,0.0,-0.6,0.0,0.003308534622192383,0
1.639697790145874,-0.523585319519043,-0.9190803170204163,0.7487999796867371,0.05424323148627814,-0.843099770469857,-0.38145159275858703,0.7999999996423899,0.28513204046531965,0.0,0.0,-0.6,0.0,0.002066373825073242,0
1.6495285034179688,-0.5168507099151611,-0.9125648736953735,0.7341901659965515,0.06154006897071531,-0.8298149697816796,-0.3552773410200943,0.8,0.193835919567293,0.0,0.0,-0.6,0.0,0.0022194385528564453,0
1.6596169471740723,-0.5112266540527344,-0.9070481657981873,0.7192724347114563,0.06877702180615398,-0.8175625784185164,-0.3232519860408606,0.7999999999999993,0.10140676539677516,0.0,0.0,-0.6,0.0,0.003243684768676758,0
1.6695756912231445,-0.499686062335968,-0.8957090377807617,0.6887085437774658,0.08306519293062876,-0.7939000643680774,-0.2568375890772966,0.8,-0.07333800526134648,0.0,0.0,-0.6,0.0,0.002499818801879883,0
1.6795945167541504,-0.49734410643577576,-0.8908501267433167,0.6704748868942261,0.09001603872435401,-0.7829852337307398,-0.22153853942257765,0.7999999999999997,-0.16682539373427793,0.0,0.0,-0.6,0.0,0.002142667770385742,0
1.689568042755127,-0.49483510851860046,-0.8859037756919861,0.6521208882331848,0.09683701249892121,-0.7731678377611394,-0.18668436223316415,0.7999999999997754,-0.26265268069149755,0.0,0.0,-0.6,0.0,0.002133607864379883,0
1.6994946002960205,-0.4921852648258209,-0.8808689713478088,0.6336671710014343,0.10339626366704131,-0.7644042186246339,-0.15254031503729173,0.799999999999814,-0.3585898210882846,0.0,0.0,-0.6,0.0,0.0021598339080810547,0
1.709547758102417,-0.48651108145713806,-0.8705660104751587,0.5965322256088257,0.1157069365705602,-0.7438322231400409,-0.08201632795922123,0.7999999999997252,-0.5000017859289868,0.0,0.0,-0.6,0.0,0.0017230510711669922,0
1.7198362350463867,-0.48350220918655396,-0.8653133511543274,0.5778816938400269,0.1213380098230361,-0.7341377768888729,-0.046977794860614645,0.7999999999999952,-0.5646247681890328,0.0,0.0,-0.6,0.0,0.0017058849334716797,0
1.7296149730682373,-0.4803875982761383,-0.8600022792816162,0.5592116713523865,0.12662347415606517,-0.7248789338657423,-0.012841548354867602,0.7999999999999207,-0.6253551766733723,0.0,0.0,-0.6,0.0,0.0016865730285644531,0
1.7398200035095215,-0.4771742522716522,-0.8546380400657654,0.5405219793319702,0.13148498500275116,-0.7157757365206928,0.020577330855699745,0.799999999999999,-0.6806536991196629,0.0,0.0,-0.6,0.0,0.001878499984741211,0
1.7496554851531982,-0.4704814553260803,-0.8437787890434265,0.5031315684318542,0.1399207698071381,-0.6984699491975405,0.08649727000034452,0.7999999999998082,-0.777881128111885,0.0,0.0,-0.6,0.0,0.0017812252044677734,0
1.7597548961639404,-0.46698811650276184,-0.8383040428161621,0.4844517409801483,0.14344538615185598,-0.6904157228556962,0.11840780970540567,0.7999999999917876,-0.7999922750816632,0.0,0.0,-0.6,0.0,0.0016117095947265625,0
1.7697856426239014,-0.46342363953590393,-0.8327997326850891,0.46580109000205994,0.1464653811900862,-0.6828072299912822,0.14959597733020613,0.8,-0.7999999999999996,0.0,0.0,-0.6,0.0,0.0021467208862304688,0
1.7798357009887695,-0.4597952663898468,-0.8272719383239746,0.44719141721725464,0.14898909556228637,-0.6753343351697882,0.18016136120735482,0.7999999999978342,-0.7999999999037531,0.0,0.0,-0.6,0.0,0.0031659603118896484,0
1.7898473739624023,-0.4523763358592987,-0.816165566444397,0.4101368188858032,0.15253680939103992,-0.6619703744445764,0.23708299961405094,0.7999999999999967,-0.7999999999999933,0.0,0.0,-0.6,0.0,0.002465963363647461,0
1.7997899055480957,-0.4485980272293091,-0.810593843460083,0.39171844720840454,0.15353711776902204,-0.6545890584727633,0.2628730335608491,0.7999999999971317,-0.7999999999925016,0.0,0.0,-0.6,0.0,0.0018546581268310547,0
1.8097386360168457,-0.44478192925453186,-0.8050154447555542,0.37338319420814514,0.15405809633084405,-0.647552627489709,0.2867988094509125,0.7999999998921931,-0.7999999996918525,0.0,0.0,-0.6,0.0,0.0020132064819335938,0
1.8198370933532715,-0.4409325122833252,-0.799433708190918,0.35514184832572937,0.1541125546098302,-0.6406760274690059,0.30954638231181436,0.799999999999995,-0.7999999999999892,0.0,0.0,-0.6,0.0,0.0018579959869384766,0
1.8297336101531982,-0.4331192672252655,-0.788276195526123,0.3189745247364044,0.15285961001762172,-0.6279774594887372,0.3471107220618352,0.7999999994142184,-0.7999999994290419,0.0,0.0,-0.6,0.0,0.002126932144165039,0
1.8397343158721924,-0.429166704416275,-0.7827037572860718,0.3010694980621338,0.15162962881270323,-0.6222409542808015,0.3627438162288522,0.7999999996605686,-0.7999999998496029,0.0,0.0,-0.6,0.0,0.001972198486328125,0
1.8497800827026367,-0.4252011179924011,-0.7771367430686951,0.28330060839653015,0.1500217458829463,-0.6167624615395715,0.37592849114851523,0.7923164020748248,-0.7999999999930788,0.0,0.0,-0.6,0.0,0.002209186553955078,0
1.8596856594085693,-0.4212246537208557,-0.7715755701065063,0.26567721366882324,0.14803736212429133,-0.6110444207936255,0.3852344924162195,0.7354994967908939,-0.7999999999608838,0.0,0.0,-0.6,0.0,0.0017120838165283203,0
1.8697307109832764,-0.41325902938842773,-0.7604677677154541,0.23091909289360046,0.14310808166064956,-0.600851211693972,0.3929387727125972,0.6143763198789723,-0.7999999256582208,0.0,0.0,-0.6,0.0,0.001912832260131836,0
1.8800091743469238,-0.4092766046524048,-0.7549253106117249,0.2138029932975769,0.14021993656002646,-0.5964206887602542,0.39469171086373306,0.5519546495227727,-0.7999999678447292,0.0,0.0,-0.6,0.0,0.003075838088989258,0
1.8897731304168701,-0.40529879927635193,-0.7493922710418701,0.19687138497829437,0.1370847916911292,-0.5924109999972235,0.3936210892661824,0.4847853139514302,-0.7999999320019557,0.0,0.0,-0.6,0.0,0.0019893646240234375,0
1.8997561931610107,-0.4013324975967407,-0.7438687086105347,0.18013237416744232,0.13369118410988048,-0.5887676998986002,0.38951700142191575,0.4156334638130182,-0.7999994057096036,0.0,0.0,-0.6,0.0,0.0018429756164550781,0
1.909642219543457,-0.397319495677948,-0.7383599281311035,0.16358506679534912,0.1300985434278714,-0.5855877542937176,0.38169328355990906,0.3470401884095109,-0.7999999999998522,0.0,0.0,-0.6,0.0,0.0019223690032958984,0
1.9197545051574707,-0.3893479108810425,-0.7273703813552856,0.13112203776836395,0.12234419104822872,-0.5802743552456071,0.36172711954631614,0.2049046589469268,-0.7999999998217389,0.0,0.0,-0.6,0.0,0.0020380020141601562,0
1.9297986030578613,-0.3853934109210968,-0.7218897342681885,0.11521923542022705,0.11824397314706411,-0.5781330704326714,0.34844345752320055,0.13204282058645556,-0.7897695744367136,0.0,0.0,-0.6,0.0,0.0019335746765136719,0
1.9396264553070068,-0.38146305084228516,-0.7164151072502136,0.09954414516687393,0.11403739243863435,-0.5763837154038955,0.3335608907286546,0.056619838968388465,-0.7619906677023558,0.0,0.0,-0.6,0.0,0.0017333030700683594,0
1.9497525691986084,-0.3736831545829773,-0.7054865956306458,0.06892342865467072,0.1052051246792992,-0.573695149038873,0.2986957906956036,-0.0940165303216738,-0.7036303987653095,0.0,0.0,-0.6,0.0,0.0017812252044677734,0
1.959852695465088,-0.3698394298553467,-0.7000353932380676,0.053968749940395355,0.10059529555176862,-0.5727842718404834,0.28003872883850167,-0.16641470568675829,-0.6732261339102847,0.0,0.0,-0.6,0.0,0.0017266273498535156,0
1.9695258140563965,-0.36602479219436646,-0.6945910453796387,0.039255816489458084,0.09586845591605322,-0.5721364951197295,0.25950721315157604,-0.23488876516299115,-0.6420449449259478,0.0,0.0,-0.6,0.0,0.0014100074768066406,0
1.9797999858856201,-0.36215415596961975,-0.6891525983810425,0.02477646991610527,0.09105432625915386,-0.5718011370436157,0.23652653702762083,-0.3001683822057458,-0.6103602276889125,0.0,0.0,-0.6,0.0,0.0017857551574707031,0
1.9895703792572021,-0.35452190041542053,-0.6782850623130798,-0.003432766068726778,0.0812672842890495,-0.5717345130042689,0.17710113091389254,-0.4277936068021892,-0.5461891218119783,0.0,0.0,-0.6,0.0,0.0015614032745361328,0
1.9996869564056396,-0.3507659137248993,-0.6728543043136597,-0.01716175675392151,0.07624058549564036,-0.5719742135134749,0.14656023175461638,-0.48781492331801435,-0.513177658632523,0.0,0.0,-0.6,0.0,0.0020515918731689453,0
2.010223865509033,-0.3470515310764313,-0.6674253940582275,-0.030639944598078728,0.07115321586972707,-0.5723585883395355,0.1155814727827879,-0.5433951950130276,-0.4797471476678023,0.0,0.0,-0.6,0.0,0.0022602081298828125,0
2.0197832584381104,-0.34337931871414185,-0.661997377872467,-0.04388441517949104,0.06603332428215664,-0.5728715219989954,0.08472383495949956,-0.5944497374128356,-0.4460829802462681,0.0,0.0,-0.6,0.0,0.0017702579498291016,0
2.029752016067505,-0.3361688554286957,-0.6511393189430237,-0.0696209967136383,0.05564558232300831,-0.574466405608376,0.019565508969302186,-0.6874018844138743,-0.3776123822266431,0.0,0.0,-0.6,0.0,0.0016162395477294922,0
2.0398590564727783,-0.33263468742370605,-0.6457063555717468,-0.08211229741573334,0.050446929595189774,-0.5754343254418246,-0.013239642063356434,-0.7283612298895755,-0.34329856752390336,0.0,0.0,-0.6,0.0,0.0017161369323730469,0
2.049696207046509,-0.3290688395500183,-0.6402766108512878,-0.09436503052711487,0.0452519195522633,-0.5765447286690536,-0.04522585509742258,-0.7628505486224099,-0.30904490591567546,0.0,0.0,-0.6,0.0,0.0016350746154785156,0
2.0598273277282715,-0.32555288076400757,-0.634843647480011,-0.10636855661869049,0.04009340401824446,-0.5777894064029594,-0.07760641443567835,-0.7925051381650566,-0.2750028806736679,0.0,0.0,-0.6,0.0,0.0019488334655761719,0
2.069761276245117,-0.31866946816444397,-0.6239634156227112,-0.12962810695171356,0.029809983689263082,-0.5806088338425892,-0.14141384168683718,-0.7999880417479075,-0.20853981576178554,0.0,0.0,-0.6,0.0,0.0038826465606689453,0
2.080129861831665,-0.318578839302063,-0.6147469282150269,-0.1445080041885376,0.0247300241693748,-0.57972939625565,-0.1932023931681501,-0.7999999998668696,-0.1757571687118184,0.0,0.0,-0.6,0.0,0.0024001598358154297,0
2.0901360511779785,-0.3184734880924225,-0.6055969595909119,-0.15905281901359558,0.01999120579173951,-0.5790154893899109,-0.2448981734582423,-0.7999969670565485,-0.14486405458521429,0.0,0.0,-0.6,0.0,0.002560138702392578,0
2.099838972091675,-0.31835445761680603,-0.5965095162391663,-0.17326760292053223,0.01528185792502368,-0.5784165633339033,-0.29534206906583826,-0.7999998634990393,-0.1139260462608782,0.0,0.0,-0.6,0.0,0.0022652149200439453,0
2.1099135875701904,-0.3180854618549347,-0.5785140991210938,-0.20072747766971588,0.006074302483696257,-0.5776907216794498,-0.3896046315499604,-0.7999999950503278,-0.053004404766156435,0.0,0.0,-0.6,0.0,0.0018718242645263672,0
2.1199324131011963,-0.3178783655166626,-0.569612979888916,-0.21399128437042236,0.0016123533937711875,-0.5775086493576491,-0.4337802336976982,-0.7999999999999998,-0.023287260481490837,0.0,0.0,-0.6,0.0,0.0022542476654052734,0
2.1296639442443848,-0.3176628649234772,-0.5607661604881287,-0.22694481909275055,-0.0027142635101033907,-0.5775214540505225,-0.47637026939225247,-0.79999999999967,0.005614061407204393,0.0,0.0,-0.6,0.0,0.0016050338745117188,0
2.13993239402771,-0.31743887066841125,-0.5519717335700989,-0.2395962029695511,-0.00691889406850814,-0.5777569565488979,-0.5205934775981028,-0.7999999999988581,0.0337684714994061,0.0,0.0,-0.6,0.0,0.0019757747650146484,0
2.1496694087982178,-0.31697091460227966,-0.5345339775085449,-0.2639882266521454,-0.014935535571471658,-0.578848006699419,-0.6352513251564067,-0.7999999999748229,0.08813559611234141,0.0,0.0,-0.6,0.0,0.0016527175903320312,0
2.1597490310668945,-0.31672850251197815,-0.52588951587677,-0.2757347822189331,-0.018703463061468143,-0.5796623312969706,-0.6868380024756922,-0.7999999999883969,0.11374995937959487,0.0,0.0,-0.6,0.0,0.00141143798828125,0
2.1696360111236572,-0.3164815902709961,-0.5172922611236572,-0.287185937166214,-0.02232499582496361,-0.5806899557862261,-0.7354558668181882,-0.7999999945777593,0.13838501391123326,0.0,0.0,-0.6,0.0,0.0015094280242919922,0
2.1795175075531006,-0.31622812151908875,-0.508740246295929,-0.2983453869819641,-0.025781024664352392,-0.581853158123857,-0.7812064283575016,-0.7999999999498197,0.16187654985370847,0.0,0.0,-0.6,0.0,0.0015308856964111328,0
2.189586639404297,-0.3156387209892273,-0.49177807569503784,-0.31980738043785095,-0.03218603705425331,-0.5838093264715843,-0.7999999994126904,-0.7999999999995782,0.20200007250707908,0.0,0.0,-0.6,0.0,0.001588582992553711,0
2.199594020843506,-0.31530311703681946,-0.48336705565452576,-0.33011505007743835,-0.0351384938595671,-0.5849844737427589,-0.7999999999996679,-0.7999999999999998,0.2195819295004609,0.0,0.0,-0.6,0.0,0.0017986297607421875,0
2.2096612453460693,-0.31495922803878784,-0.4749999940395355,-0.34014028310775757,-0.03789247169413387,-0.5862724434475927,-0.7999999999999494,-0.7999999999999998,0.23562307642499863,0.0,0.0,-0.6,0.0,0.0015401840209960938,0
2.21966814994812,-0.314603328704834,-0.46667593717575073,-0.34989050030708313,-0.04044629500724725,-0.5877699295590626,-0.7999999999996801,-0.7999999999998283,0.25016417950199815,0.0,0.0,-0.6,0.0,0.0019266605377197266,0
2.2296011447906494,-0.31423455476760864,-0.458393931388855,-0.35936933755874634,-0.04280132397996039,-0.5893833219827329,-0.7999999999997156,-0.7999999999998406,0.263177760449237,0.0,0.0,-0.6,0.0,0.001558065414428711,0
2.2396433353424072,-0.3134537637233734,-0.4419579803943634,-0.3775242865085602,-0.04688607552847206,-0.5932366462373025,-0.7999999999993394,-0.7971572069667403,0.28224713072524243,0.0,0.0,-0.6,0.0,0.0022182464599609375,0
2.2496142387390137,-0.31303948163986206,-0.4338076710700989,-0.3862064480781555,-0.04863538642624782,-0.5952802422555359,-0.7999999999999667,-0.7573986951261258,0.29222131351227365,0.0,0.0,-0.6,0.0,0.0016186237335205078,0
2.2596397399902344,-0.3126063346862793,-0.42570364475250244,-0.3946312665939331,-0.050177178537445404,-0.5974698715613271,-0.7999999999999999,-0.7153893644543562,0.30122680236305865,0.0,0.0,-0.6,0.0,0.0016906261444091797,0
2.2698426246643066,-0.3115508258342743,-0.40966370701789856,-0.4107343852519989,-0.052678137104862285,-0.602178393620878,-0.7999999859873128,-0.6200646117958137,0.316569024734731,0.0,0.0,-0.6,0.0,0.0023298263549804688,0
2.279951810836792,-0.3109865188598633,-0.40171629190444946,-0.41843438148498535,-0.05363317585034835,-0.6046734490498998,-0.7999999798390252,-0.5687567671682696,0.322783377080343,0.0,0.0,-0.6,0.0,0.0022780895233154297,0
2.2896203994750977,-0.31039613485336304,-0.39381730556488037,-0.42589157819747925,-0.05436774491093216,-0.607267633358587,-0.7999999869105684,-0.5154726851252086,0.3278350648177617,0.0,0.0,-0.6,0.0,0.0018236637115478516,0
2.299926996231079,-0.3097764253616333,-0.38596677780151367,-0.43310898542404175,-0.054912265625876824,-0.6099605854633414,-0.7999999883774753,-0.4595317581410877,0.3320471187877263,0.0,0.0,-0.6,0.0,0.001687765121459961,0
2.3096888065338135,-0.3084399104118347,-0.37042295932769775,-0.4468397796154022,-0.05539955842470655,-0.6156010417424141,-0.7999999678097109,-0.342354209475322,0.33769632630835345,0.0,0.0,-0.6,0.0,0.001451253890991211,0
2.3196494579315186,-0.30771756172180176,-0.3627350330352783,-0.45336148142814636,-0.05534406738111899,-0.6184998155971806,-0.7999997438267314,-0.28037455786171883,0.33923830575671615,0.0,0.0,-0.6,0.0,0.0015947818756103516,0
2.3296241760253906,-0.3069589138031006,-0.3551059067249298,-0.4596620202064514,-0.05511025657600597,-0.6213550567989414,-0.7999999999813979,-0.21913219339225423,0.3398814303139584,0.0,0.0,-0.6,0.0,0.0015099048614501953,0
2.3395392894744873,-0.30610451102256775,-0.34754303097724915,-0.4657505452632904,-0.05469335958946903,-0.6242347232283438,-0.7999999998855317,-0.15618812915726354,0.33942682343480984,0.0,0.0,-0.6,0.0,0.0017251968383789062,0
2.3496196269989014,-0.30427271127700806,-0.3325972557067871,-0.4772814214229584,-0.05334006591246172,-0.6295588015345355,-0.7999998430952748,-0.032995490878030484,0.3322083358038665,0.0,0.0,-0.6,0.0,0.0014591217041015625,0
2.3597514629364014,-0.30329447984695435,-0.32522425055503845,-0.4827335476875305,-0.052413863323366755,-0.6321111932158999,-0.7999999992187359,0.027375657605078225,0.3270696076484118,0.0,0.0,-0.6,0.0,0.001241922378540039,0
2.3695614337921143,-0.302273154258728,-0.3179225027561188,-0.4879896938800812,-0.0513515570255508,-0.6345669079639096,-0.7999999981013705,0.08615156811701842,0.3211239082892993,0.0,0.0,-0.6,0.0,0.0012333393096923828,0
2.379626512527466,-0.3012060523033142,-0.31069111824035645,-0.49305686354637146,-0.05012946036918785,-0.6369297136024354,-0.799999997360424,0.1445558624606236,0.31414264205137016,0.0,0.0,-0.6,0.0,0.0011010169982910156,0
2.389547824859619,-0.3000907897949219,-0.30353009700775146,-0.4979402720928192,-0.048749339278994275,-0.6392409608867593,-0.7999999972252642,0.19988574706920487,0.30618978562330557,0.0,0.0,-0.6,0.0,0.0015530586242675781,0
2.399681806564331,-0.29892686009407043,-0.2964440882205963,-0.5026454329490662,-0.04726019683059656,-0.6414926383878699,-0.7999999958504806,0.2526085999238691,0.29762225761199773,0.0,0.0,-0.6,0.0,0.0021774768829345703,0
2.410163640975952,-0.29639124870300293,-0.2825208008289337,-0.5115390419960022,-0.04395656392066509,-0.6459012406380574,-0.7999999256418708,0.3506806518119646,0.2786802821374119,0.0,0.0,-0.6,0.0,0.001644134521484375,0
2.4197142124176025,-0.29501885175704956,-0.2756884694099426,-0.5157369375228882,-0.04218163533111588,-0.6480424046329731,-0.7999987886872382,0.395615795638666,0.2684883966281809,0.0,0.0,-0.6,0.0,0.0013759136199951172,0
2.4298737049102783,-0.2921088635921478,-0.26228633522987366,-0.5237180590629578,-0.03842856146939833,-0.6521820997367176,-0.7999997382636808,0.4789558603277165,0.24674218708834345,0.0,0.0,-0.6,0.0,0.0018498897552490234,0
2.439889430999756,-0.2905685007572174,-0.2557235062122345,-0.5274713635444641,-0.036472753546550565,-0.6540405826228297,-0.7563332216900451,0.5155892208490881,0.23430256809295597,0.0,0.0,-0.6,0.0,0.0014636516571044922,0
2.449751377105713,-0.2889712154865265,-0.2492574006319046,-0.5310710072517395,-0.034490084626967836,-0.6558113607564621,-0.6975694109119475,0.5485525118269203,0.2214430045185927,0.0,0.0,-0.6,0.0,0.0011348724365234375,0
2.459698438644409,-0.2873172163963318,-0.24289274215698242,-0.5345219373703003,-0.03248999769837613,-0.6574803898536321,-0.633899193012696,0.5784187482570371,0.20849088806401284,0.0,0.0,-0.6,0.0,0.0011601448059082031,0
2.469613552093506,-0.28560590744018555,-0.2366316169500351,-0.5378276705741882,-0.03051372322921828,-0.6591569440742773,-0.5690239540574458,0.6052541468847559,0.19569297444389058,0.0,0.0,-0.6,0.0,0.0014660358428955078,0
2.479949474334717,-0.2838369607925415,-0.230474591255188,-0.5409916043281555,-0.02852399114149556,-0.660769663690705,-0.5016405818235702,0.6288172377734157,0.18281832925765262,0.0,0.0,-0.6,0.0,0.0017573833465576172,0
2.4897642135620117,-0.2861703038215637,-0.2127833366394043,-0.5552132725715637,-0.024559400188506005,-0.6604178803305494,-0.42686346029303895,0.6160099231084378,0.15794262764162273,0.0,0.0,-0.6,0.0,0.0016906261444091797,0
2.4996755123138428,-0.2871590256690979,-0.20419937372207642,-0.5619447231292725,-0.022600153919176833,-0.6602227237987622,-0.38494618050490087,0.6045397724506062,0.1457125846528434,0.0,0.0,-0.6,0.0,0.002048969268798828,0
2.510021924972534,-0.28803303837776184,-0.19578993320465088,-0.5684497952461243,-0.02071377176735229,-0.6600571070537617,-0.34116832497893346,0.5897665109227392,0.13398554279043443,0.0,0.0,-0.6,0.0,0.0011799335479736328,0
2.5196263790130615,-0.28879621624946594,-0.18755415081977844,-0.5747324228286743,-0.018877429675394578,-0.6599946885393672,-0.2959976049626702,0.5715826456764294,0.12261244019970759,0.0,0.0,-0.6,0.0,0.0013897418975830078,0
2.529567003250122,-0.2899998724460602,-0.17160601913928986,-0.5866500735282898,-0.015467344696847995,-0.659853564766833,-0.19937454566300758,0.5271520991573697,0.10162599758002779,0.0,0.0,-0.6,0.0,0.001264810562133789,0
2.539640188217163,-0.29044434428215027,-0.16389627754688263,-0.5922954678535461,-0.013882265147490642,-0.6598309087843364,-0.1488008293420245,0.5018247309351251,0.09192141387975306,0.0,0.0,-0.6,0.0,0.001415252685546875,0
2.5497069358825684,-0.2909930348396301,-0.14900894463062286,-0.6029857993125916,-0.01098443924615412,-0.6598833263777413,-0.04567872802919121,0.4445354130226831,0.07429241841292143,0.0,0.0,-0.6,0.0,0.0014643669128417969,0
2.559659242630005,-0.2911060154438019,-0.14183233678340912,-0.6080372929573059,-0.009653554718131957,-0.6600568141697074,0.007379615864578956,0.4128033934544471,0.0662568108932092,0.0,0.0,-0.6,0.0,0.0012390613555908203,0
2.569615602493286,-0.29112881422042847,-0.13483639061450958,-0.612875759601593,-0.008412202733515589,-0.6602741756371816,0.06155368746265768,0.38084354687920613,0.05877375460156358,0.0,0.0,-0.6,0.0,0.0013668537139892578,0
2.579672336578369,-0.2910642921924591,-0.12802092730998993,-0.6175248622894287,-0.007270338607386482,-0.6605238572518128,0.11475194348451435,0.3473643034394476,0.051931158065931377,0.0,0.0,-0.6,0.0,0.001237630844116211,0
2.58961820602417,-0.2906869649887085,-0.11493153125047684,-0.6262664198875427,-0.005180760487693726,-0.6612932947981919,0.219741170530771,0.28051807506098364,0.03941190733251896,0.0,0.0,-0.6,0.0,0.0012264251708984375,0
2.5997745990753174,-0.2903795838356018,-0.10865645110607147,-0.6303632259368896,-0.004247817259232426,-0.6618064814273427,0.27208069391729667,0.24680797747476332,0.033845154285309126,0.0,0.0,-0.6,0.0,0.0014278888702392578,0
2.609705686569214,-0.2899978458881378,-0.10256309062242508,-0.6342794895172119,-0.0033674354709780203,-0.6624172297325813,0.3234652437066523,0.21389355178819958,0.02857851440603159,0.0,0.0,-0.6,0.0,0.0011548995971679688,0
2.6196224689483643,-0.28954508900642395,-0.09664852172136307,-0.6380180716514587,-0.0025223214961247534,-0.6630865310700059,0.3710877196931497,0.18131843708242415,0.023508959279965217,0.0,0.0,-0.6,0.0,0.0013043880462646484,0
2.629657745361328,-0.288350909948349,-0.08533696830272675,-0.6449801921844482,-0.0009508629904475554,-0.6646559492638807,0.4647912986526036,0.11857219627948835,0.014025788206008116,0.0,0.0,-0.6,0.0,0.001142263412475586,0
2.6396546363830566,-0.28766170144081116,-0.07994859665632248,-0.6482042670249939,-0.00022113779266592326,-0.6655173207588863,0.5081723852427447,0.08842954200339857,0.009596807731986212,0.0,0.0,-0.6,0.0,0.0011782646179199219,0
2.6496903896331787,-0.28691551089286804,-0.07473774254322052,-0.6512619256973267,0.0004830520315430882,-0.666367500278844,0.5499291858836749,0.05958630106575972,0.005290148382532066,0.0,0.0,-0.6,0.0,0.0012664794921875,0
2.659667491912842,-0.28611478209495544,-0.0697033479809761,-0.6541564464569092,0.0011769867876537143,-0.6673071280124871,0.588228751148875,0.03169583950981365,0.0010180935472350956,0.0,0.0,-0.6,0.0,0.0011444091796875,0
2.6695826053619385,-0.284359335899353,-0.060157664120197296,-0.659460723400116,0.002508625855577076,-0.6694370929572866,0.659273352403396,-0.017266330904028234,-0.007319282182420489,0.0,0.0,-0.6,0.0,0.0008609294891357422,0
2.679692506790161,-0.2834075093269348,-0.055646274238824844,-0.6618762612342834,0.003152916121736183,-0.6705245045491709,0.690564679986552,-0.0391828105891569,-0.011407401432703522,0.0,0.0,-0.6,0.0,0.0012364387512207031,0
2.689676523208618,-0.2824103534221649,-0.05130625143647194,-0.6641384363174438,0.0037949676189306973,-0.6716717080845044,0.7184930695577902,-0.05931882872252455,-0.01552168559994691,0.0,0.0,-0.6,0.0,0.0013861656188964844,0
2.6998865604400635,-0.28131070733070374,-0.04712574928998947,-0.6662573218345642,0.004421584934457551,-0.6728106283284214,0.7420884369898315,-0.07652172120503672,-0.019596359712148143,0.0,0.0,-0.6,0.0,0.0013718605041503906,0
2.7098662853240967,-0.2789861559867859,-0.03926197066903114,-0.6700484752655029,0.005766837333651407,-0.6752034554922923,0.7806998016658258,-0.10418196634260568,-0.02845118057284379,0.0,0.0,-0.6,0.0,0.0014719963073730469,0
2.719879388809204,-0.2777654826641083,-0.03557484596967697,-0.6717268228530884,0.006413580003455741,-0.6764378031869965,0.7953408975874582,-0.1151566049496498,-0.03275536753926131,0.0,0.0,-0.6,0.0,0.0016911029815673828,0
2.729797840118408,-0.27650877833366394,-0.0320473238825798,-0.6732683777809143,0.007051391621133769,-0.6777037693638166,0.7999741524317056,-0.12408991499278683,-0.036900332515054896,0.0,0.0,-0.6,0.0,0.0014882087707519531,0
2.7398359775543213,-0.27521631121635437,-0.028676969930529594,-0.6746751666069031,0.007699076336368159,-0.6789849157597784,0.7999999660959677,-0.13074582458545253,-0.04110612673766212,0.0,0.0,-0.6,0.0,0.0015425682067871094,0
2.7498204708099365,-0.2725287973880768,-0.0223961491137743,-0.6771050095558167,0.008941829357775469,-0.681434508113814,0.7999999991431642,-0.13848053276397007,-0.04949873814195595,0.0,0.0,-0.6,0.0,0.0014324188232421875,0
