time,x,y,z,yaw,throttle,roll_rate,pitch_rate,yaw_rate,x_ref,y_ref,z_ref,yaw_ref,mpc_time,ctrl_callback_time_history,metadata
9.5367431640625e-07,0.019733496010303497,-0.01838313415646553,0.024869536980986595,-0.04108612039627464,-0.935759793903933,0.1765917227858815,0.06866315674855716,0.2626315629428705,0.0,0.0,-0.6,0.0,0.0034639835357666016,0.005629777908325195,Sim
0.009671449661254883,0.01947825774550438,-0.018378011882305145,0.025208815932273865,-0.04108061880945677,-0.9359666415238407,0.17764147141357095,0.06716982612417764,0.2625966869746191,0.0,0.0,-0.6,0.0,0.0008423328399658203,0.0019512176513671875,1x Speed
0.019815683364868164,0.019353725016117096,-0.018381500616669655,0.025387220084667206,-0.04108666662632682,-0.9360840849316189,0.1779034693907949,0.06529673017762111,0.2626352770587272,0.0,0.0,-0.6,0.0,0.0009708404541015625,0.0024619102478027344,Horizon:3.0
0.02971816062927246,0.019353725016117096,-0.018381500616669655,0.025387220084667206,-0.04108666662632682,-0.9360840849316189,0.1779034693907949,0.06529673017762111,0.2626352770587272,0.0,0.0,-0.6,0.0,0.000202178955078125,0.001453399658203125,Num Steps:20
0.03977775573730469,0.019238371402025223,-0.018390458077192307,0.025570329278707504,-0.041115976140945115,-0.936170907551241,0.1779701502830979,0.06375574851761112,0.2628227721122306,0.0,0.0,-0.6,0.0,0.0010211467742919922,0.0025742053985595703,Pyjoules
0.04993319511413574,0.018901927396655083,-0.01843448355793953,0.026177234947681427,-0.04118531266929252,-0.936277993739636,0.17758814399045664,0.061516791200021535,0.2632667679201074,0.0,0.0,-0.6,0.0,0.0011074542999267578,0.0028159618377685547,0
0.05971384048461914,0.018795471638441086,-0.018452448770403862,0.02634757198393345,-0.04114799265595389,-0.9342259668885274,0.174330200451937,0.060781065126663494,0.2630302697039638,0.0,0.0,-0.6,0.0,0.0009131431579589844,0.0021224021911621094,0
0.0699307918548584,0.018795471638441086,-0.018452448770403862,0.02634757198393345,-0.04114799265595389,-0.9342259668885274,0.174330200451937,0.060781065126663494,0.2630302697039638,0.0,0.0,-0.6,0.0,0.0002434253692626953,0.0017447471618652344,0
0.08004236221313477,0.01858123019337654,-0.0184799637645483,0.026092560961842537,-0.04069448677474526,-0.9220245916933637,0.15905136147592097,0.05652514081076799,0.26014201793624636,0.0,0.0,-0.6,0.0,0.001176595687866211,0.002937793731689453,0
0.08977437019348145,0.018358781933784485,-0.01849277876317501,0.024537861347198486,-0.039691902656475986,-0.9048549761052658,0.12977021455978352,0.04924571984708714,0.2537513100658982,0.0,0.0,-0.6,0.0,0.0011675357818603516,0.0025382041931152344,0
0.0999765396118164,0.018244903534650803,-0.018490320071578026,0.023196615278720856,-0.038931419057930086,-0.8954590539281548,0.11093105148558748,0.04533899544467937,0.24890070590358493,0.0,0.0,-0.6,0.0,0.0011212825775146484,0.002700328826904297,0
0.10982227325439453,0.018244903534650803,-0.018490320071578026,0.023196615278720856,-0.038931419057930086,-0.8954590539281548,0.11093105148558748,0.04533899544467937,0.24890070590358493,0.0,0.0,-0.6,0.0,0.0002722740173339844,0.0020418167114257812,0
0.12002754211425781,0.01801244169473648,-0.01846923492848873,0.019328780472278595,-0.03708532137011787,-0.8758615988956547,0.07325119025401962,0.03791661932286881,0.23712033142194908,0.0,0.0,-0.6,0.0,0.0013773441314697266,0.00399327278137207,0
0.12984514236450195,0.017770245671272278,-0.01842685602605343,0.01391090452671051,-0.03476583480265775,-0.8560456865879288,0.03199298740450347,0.028391722842224673,0.22231089373290455,0.0,0.0,-0.6,0.0,0.0012362003326416016,0.003412485122680664,0
0.13961243629455566,0.017645085230469704,-0.018392564728856087,0.010656760074198246,-0.03344408046051505,-0.8462877602961127,0.011368325217343263,0.02327276604893702,0.21386889070005322,0.0,0.0,-0.6,0.0,0.0008757114410400391,0.002454996109008789,0
0.1498708724975586,0.017645085230469704,-0.018392564728856087,0.010656760074198246,-0.03344408046051505,-0.8462877602961127,0.011368325217343263,0.02327276604893702,0.21386889070005322,0.0,0.0,-0.6,0.0,0.0002257823944091797,0.0019519329071044922,0
0.15996122360229492,0.01729438081383705,-0.018101321533322334,0.0028766135219484568,-0.030568232239701846,-0.8268982463239393,-0.03076551489454647,0.012695898811024103,0.19549728907292296,0.0,0.0,-0.6,0.0,0.0010788440704345703,0.003101348876953125,0
0.16977405548095703,0.016850626096129417,-0.017580339685082436,-0.006407913751900196,-0.02743058853905491,-0.8081394151726811,-0.07481651955042036,0.001581288438107706,0.17544939618577393,0.0,0.0,-0.6,0.0,0.0013835430145263672,0.0034677982330322266,0
0.17992210388183594,0.016630642116069794,-0.017305264249444008,-0.011473417282104492,-0.025763115150673845,-0.7992269281638268,-0.0958009041064255,-0.003699846164039735,0.16479348437846533,0.0,0.0,-0.6,0.0,0.0010924339294433594,0.003064870834350586,0
0.18979930877685547,0.016630642116069794,-0.017305264249444008,-0.011473417282104492,-0.025763115150673845,-0.7992269281638268,-0.0958009041064255,-0.003699846164039735,0.16479348437846533,0.0,0.0,-0.6,0.0,0.0002224445343017578,0.0017061233520507812,0
0.19997572898864746,0.016187209635972977,-0.016722893342375755,-0.02238650619983673,-0.022397604716382358,-0.7821566413706812,-0.13499758885271437,-0.015155298177752618,0.1432823125672649,0.0,0.0,-0.6,0.0,0.0015454292297363281,0.003453493118286133,0
0.20988225936889648,0.015738224610686302,-0.016095411032438278,-0.03418903052806854,-0.018967594829437624,-0.7663417982810592,-0.1678725011454053,-0.02619827773583527,0.1213541664433366,0.0,0.0,-0.6,0.0,0.0012021064758300781,0.0027310848236083984,0
0.21985578536987305,0.015510226599872112,-0.015765568241477013,-0.04037707671523094,-0.01723053230513039,-0.7590172071986822,-0.18177806268768867,-0.031220815243334154,0.11024773966642949,0.0,0.0,-0.6,0.0,0.0010006427764892578,0.0022706985473632812,0
0.22992420196533203,0.015510226599872112,-0.015765568241477013,-0.04037707671523094,-0.01723053230513039,-0.7590172071986822,-0.18177806268768867,-0.031220815243334154,0.11024773966642949,0.0,0.0,-0.6,0.0,0.0002453327178955078,0.0017108917236328125,0
0.23981237411499023,0.015047810971736908,-0.015073581598699093,-0.053236257284879684,-0.013788462851449166,-0.7452461545698748,-0.20508362965373425,-0.04116352382006445,0.0882366095615139,0.0,0.0,-0.6,0.0,0.0012412071228027344,0.0028700828552246094,0
0.24974465370178223,0.014577582478523254,-0.014338354580104351,-0.06664267182350159,-0.010416948625827666,-0.7326550149926928,-0.22247891940214676,-0.04859511531552293,0.06667659481888571,0.0,0.0,-0.6,0.0,0.001146554946899414,0.002549886703491211,0
0.2599067687988281,0.014341920614242554,-0.013955731876194477,-0.07352395355701447,-0.00878020693336567,-0.726949332890971,-0.22852859689824437,-0.05094810724639557,0.05621047850314183,0.0,0.0,-0.6,0.0,0.0010221004486083984,0.0023005008697509766,0
0.2699244022369385,0.014341920614242554,-0.013955731876194477,-0.07352395355701447,-0.00878020693336567,-0.726949332890971,-0.22852859689824437,-0.05094810724639557,0.05621047850314183,0.0,0.0,-0.6,0.0,0.00019550323486328125,0.0014848709106445312,0
0.2798488140106201,0.013870639726519585,-0.013164103962481022,-0.08754338324069977,-0.005637660913642301,-0.716320963614327,-0.2330175257784006,-0.05473577844322342,0.03611267778434146,0.0,0.0,-0.6,0.0,0.0011584758758544922,0.0030906200408935547,0
0.28989458084106445,0.01339730154722929,-0.012344320304691792,-0.10183251649141312,-0.002685945687035867,-0.7067089316377441,-0.23113128785293935,-0.057952958205085614,0.017232642877414373,0.0,0.0,-0.6,0.0,0.0013034343719482422,0.002769947052001953,0
0.29961705207824707,0.0131601607427001,-0.011925671249628067,-0.10904930531978607,-0.0013063372459681901,-0.7023607446625233,-0.226901766383808,-0.05809621924888016,0.008408175214094536,0.0,0.0,-0.6,0.0,0.0008711814880371094,0.002208709716796875,0
0.3099846839904785,0.0131601607427001,-0.011925671249628067,-0.10904930531978607,-0.0013063372459681901,-0.7023607446625233,-0.226901766383808,-0.05809621924888016,0.008408175214094536,0.0,0.0,-0.6,0.0,0.0003535747528076172,0.0020482540130615234,0
0.32022547721862793,0.012434924021363258,-0.010641521774232388,-0.1308562159538269,0.0024667079674887344,-0.6908524338592302,-0.20658681744346863,-0.057651159863896385,-0.015727289927883855,0.0,0.0,-0.6,0.0,0.0012161731719970703,0.002765178680419922,0
0.3297867774963379,0.012190312147140503,-0.010207383893430233,-0.13813798129558563,0.003623872216476693,-0.6874850127193415,-0.1957353883113885,-0.05727914141628481,-0.023130712187174243,0.0,0.0,-0.6,0.0,0.0012042522430419922,0.0027070045471191406,0
0.3398604393005371,0.011946332640945911,-0.009773715399205685,-0.14541609585285187,0.004724099136118347,-0.684412284881567,-0.1836288563051344,-0.055647235385032155,-0.03016971991087322,0.0,0.0,-0.6,0.0,0.000982522964477539,0.0024967193603515625,0
0.3498854637145996,0.011946332640945911,-0.009773715399205685,-0.14541609585285187,0.004724099136118347,-0.684412284881567,-0.1836288563051344,-0.055647235385032155,-0.03016971991087322,0.0,0.0,-0.6,0.0,0.00028252601623535156,0.0020186901092529297,0
0.36034131050109863,0.011702786199748516,-0.009340827353298664,-0.15268176794052124,0.005763518720385933,-0.6815370142626973,-0.17042082637544734,-0.05442317431012567,-0.03682000455832395,0.0,0.0,-0.6,0.0,0.0013625621795654297,0.0034711360931396484,0
0.3696482181549072,0.010974358767271042,-0.008056722581386566,-0.17434638738632202,0.008479647060815606,-0.6739398905656127,-0.1250362951795484,-0.04853720949781697,-0.05419805597546249,0.0,0.0,-0.6,0.0,0.0008819103240966797,0.0022935867309570312,0
0.3796229362487793,0.01073456835001707,-0.007636780384927988,-0.18150171637535095,0.00921715684766043,-0.671916291404299,-0.10732056386212499,-0.04472726908875642,-0.05891703715857735,0.0,0.0,-0.6,0.0,0.0008175373077392578,0.0020987987518310547,0
0.3899040222167969,0.01073456835001707,-0.007636780384927988,-0.18150171637535095,0.00921715684766043,-0.671916291404299,-0.10732056386212499,-0.04472726908875642,-0.05891703715857735,0.0,0.0,-0.6,0.0,0.00022912025451660156,0.0016255378723144531,0
0.39988064765930176,0.010260612703859806,-0.006817729212343693,-0.19567053020000458,0.010546328976701652,-0.668284564895493,-0.07078940881157933,-0.04075958616570602,-0.06742048991263368,0.0,0.0,-0.6,0.0,0.0010695457458496094,0.002631664276123047,0
0.409574031829834,0.009790760464966297,-0.006031196564435959,-0.20964014530181885,0.011606644797492741,-0.6651908485705345,-0.03344540727092357,-0.035152723986393644,-0.0742033962773061,0.0,0.0,-0.6,0.0,0.0008528232574462891,0.0020439624786376953,0
0.4197542667388916,0.009557273238897324,-0.005652108229696751,-0.2165347784757614,0.012062367380754446,-0.6638821717937817,-0.014497729529887619,-0.03208591317497526,-0.0771182334461275,0.0,0.0,-0.6,0.0,0.001079559326171875,0.002682209014892578,0
0.42969775199890137,0.009557273238897324,-0.005652108229696751,-0.2165347784757614,0.012062367380754446,-0.6638821717937817,-0.014497729529887619,-0.03208591317497526,-0.0771182334461275,0.0,0.0,-0.6,0.0,0.0002200603485107422,0.0014498233795166016,0
0.43976426124572754,0.009097418747842312,-0.004925939720124006,-0.23012769222259521,0.012776353075963419,-0.6615936786908727,0.021603546887408287,-0.025865337039546486,-0.08168413968885438,0.0,0.0,-0.6,0.0,0.0008995532989501953,0.0023107528686523438,0
0.44965124130249023,0.008651131764054298,-0.0042413524352014065,-0.24343322217464447,0.01328003111479422,-0.659931662343986,0.05477547912110012,-0.016389226628390607,-0.08490768612109317,0.0,0.0,-0.6,0.0,0.0009229183197021484,0.002297639846801758,0
0.45983362197875977,0.008436889387667179,-0.003917407710105181,-0.24996978044509888,0.013423951655403419,-0.6592827961590044,0.07101801007086435,-0.012458479475859513,-0.08582836789834564,0.0,0.0,-0.6,0.0,0.0008442401885986328,0.0021276473999023438,0
0.4699735641479492,0.008436889387667179,-0.003917407710105181,-0.24996978044509888,0.013423951655403419,-0.6592827961590044,0.07101801007086435,-0.012458479475859513,-0.08582836789834564,0.0,0.0,-0.6,0.0,0.0002288818359375,0.00160980224609375,0
0.48009777069091797,0.00822677742689848,-0.0036062714643776417,-0.2564254105091095,0.013528427410327778,-0.6587313821994392,0.0874741274615779,-0.008128660142589618,-0.086497052732404,0.0,0.0,-0.6,0.0,0.0015194416046142578,0.004441022872924805,0
0.4896111488342285,0.007619050331413746,-0.0027536177076399326,-0.2753427028656006,0.01355094301327348,-0.6575754391802495,0.127074209988885,0.0038873611815407705,-0.08664210034302484,0.0,0.0,-0.6,0.0,0.0010218620300292969,0.0027697086334228516,0
0.49993014335632324,0.007426199037581682,-0.0024963838513940573,-0.28147590160369873,0.013469551960335755,-0.6573336850241305,0.1382502439526359,0.007878856309846896,-0.08612230424531361,0.0,0.0,-0.6,0.0,0.00095367431640625,0.0031175613403320312,0
0.5095691680908203,0.007238667458295822,-0.0022533766459673643,-0.2875211238861084,0.013345578512534893,-0.6571815335618854,0.14871889392774457,0.012180866131529161,-0.08533083079702641,0.0,0.0,-0.6,0.0,0.0009591579437255859,0.0027675628662109375,0
0.5200052261352539,0.007238667458295822,-0.0022533766459673643,-0.2875211238861084,0.013345578512534893,-0.6571815335618854,0.14871889392774457,0.012180866131529161,-0.08533083079702641,0.0,0.0,-0.6,0.0,0.0001983642578125,0.0015819072723388672,0
0.5295724868774414,0.006713358219712973,-0.0016111285658553243,-0.3051106929779053,0.012649596674981061,-0.6572444767237834,0.1727329698038111,0.02507748173337786,-0.0808848473157247,0.0,0.0,-0.6,0.0,0.0007476806640625,0.002429485321044922,0
0.5395982265472412,0.006550361402332783,-0.001426184200681746,-0.31079062819480896,0.012364995710518443,-0.6573532890836967,0.17791783123328608,0.026871251503513896,-0.07906318032371532,0.0,0.0,-0.6,0.0,0.0007650852203369141,0.0030994415283203125,0
0.5498392581939697,0.006550361402332783,-0.001426184200681746,-0.31079062819480896,0.012364995710518443,-0.6573532890836967,0.17791783123328608,0.026871251503513896,-0.07906318032371532,0.0,0.0,-0.6,0.0,0.0002117156982421875,0.0016753673553466797,0
0.5600428581237793,0.006390376016497612,-0.0012549267848953605,-0.31638869643211365,0.012038262983148517,-0.6575044764577783,0.1828665657130914,0.02892705858103814,-0.07697267091823594,0.0,0.0,-0.6,0.0,0.0014872550964355469,0.003873586654663086,0
0.5696604251861572,0.0061653186567127705,-0.0006594140431843698,-0.33271926641464233,0.01082698084863606,-0.658155498609174,0.18878245973559318,0.03965717322930392,-0.06923289602195952,0.0,0.0,-0.6,0.0,0.0011439323425292969,0.002628326416015625,0
0.5799698829650879,0.006098081357777119,-0.0004908327246084809,-0.33797773718833923,0.010368627275488719,-0.6584513028229653,0.1880645005425403,0.04241750693047707,-0.06630308599969374,0.0,0.0,-0.6,0.0,0.0011606216430664062,0.0030059814453125,0
0.5899248123168945,0.006098081357777119,-0.0004908327246084809,-0.33797773718833923,0.010368627275488719,-0.6584513028229653,0.1880645005425403,0.04241750693047707,-0.06630308599969374,0.0,0.0,-0.6,0.0,0.00027179718017578125,0.0020494461059570312,0
0.5999433994293213,0.00603437377139926,-0.0003371356287971139,-0.34314486384391785,0.009911460685365754,-0.658799242600178,0.18714590392188657,0.04577124391838195,-0.06338140603498406,0.0,0.0,-0.6,0.0,0.001129150390625,0.0036351680755615234,0
0.6097204685211182,0.005879046395421028,3.6885307054035366e-05,-0.3581258952617645,0.00843297702888473,-0.6600535651550457,0.17605568276212236,0.05319423269816609,-0.0539314712121334,0.0,0.0,-0.6,0.0,0.0010902881622314453,0.0032396316528320312,0
0.6197645664215088,0.00583645049482584,0.00013380091695580631,-0.36294180154800415,0.007924699648518111,-0.660531463949538,0.17011960064983656,0.05384467139976661,-0.05068059358742402,0.0,0.0,-0.6,0.0,0.0008294582366943359,0.0027303695678710938,0
0.6296164989471436,0.005796413403004408,0.00021902110893279314,-0.3676673173904419,0.007411358176307095,-0.6610009730780294,0.16368599873232287,0.05520358594130946,-0.04739821991765162,0.0,0.0,-0.6,0.0,0.0008728504180908203,0.002826690673828125,0
0.6400594711303711,0.005730431992560625,0.0003545071231201291,-0.3768523335456848,0.006357648392464111,-0.6620146811956017,0.1487079040881477,0.058246842045633906,-0.04066134023212618,0.0,0.0,-0.6,0.0,0.0008590221405029297,0.0024504661560058594,0
0.6496756076812744,0.005702663213014603,0.0004064854292664677,-0.3813120722770691,0.005806280191289996,-0.6625504112995257,0.13962734911558788,0.05791666642561094,-0.03713473895218557,0.0,0.0,-0.6,0.0,0.0008199214935302734,0.0024871826171875,0
0.6600592136383057,0.005678039975464344,0.00045090654748491943,-0.3856857120990753,0.005286235478805019,-0.6630679122269149,0.12870628234246295,0.058508448930270386,-0.033809763759700504,0.0,0.0,-0.6,0.0,0.000736236572265625,0.002410411834716797,0
0.6697747707366943,0.005678039975464344,0.00045090654748491943,-0.3856857120990753,0.005286235478805019,-0.6630679122269149,0.12870628234246295,0.058508448930270386,-0.033809763759700504,0.0,0.0,-0.6,0.0,0.00021529197692871094,0.0015494823455810547,0
0.6800589561462402,0.005632073152810335,0.000540503766387701,-0.3982999324798584,0.0037064330562270945,-0.6648870852144491,0.09636854191546161,0.056975487866503784,-0.023705193037955135,0.0,0.0,-0.6,0.0,0.00070953369140625,0.001995086669921875,0
0.6899857521057129,0.0056235757656395435,0.000556249578949064,-0.4023366868495941,0.0032094726635932278,-0.6654413264166642,0.08620043890793273,0.05655584412624475,-0.020526118891496116,0.0,0.0,-0.6,0.0,0.0007832050323486328,0.002290010452270508,0
0.6997363567352295,0.005619840696454048,0.0005652077379636467,-0.4062919616699219,0.002728619523072173,-0.6660309474967464,0.07518441194944554,0.05735146271857938,-0.017450414721324903,0.0,0.0,-0.6,0.0,0.000720977783203125,0.002359628677368164,0
0.7099668979644775,0.005619840696454048,0.0005652077379636467,-0.4062919616699219,0.002728619523072173,-0.6660309474967464,0.07518441194944554,0.05735146271857938,-0.017450414721324903,0.0,0.0,-0.6,0.0,0.00040030479431152344,0.0029439926147460938,0
0.7199099063873291,0.005628127604722977,0.0005683047929778695,-0.4139598309993744,0.0018160973905541262,-0.6672717187253371,0.0516772025840203,0.05579371755593861,-0.011612026293294343,0.0,0.0,-0.6,0.0,0.0009546279907226562,0.0033898353576660156,0
0.729759931564331,0.005650103557854891,0.0005604868056252599,-0.4213508367538452,0.0009197873079149422,-0.6685007102971517,0.02704859030250956,0.0524530897671685,-0.005876559755540274,0.0,0.0,-0.6,0.0,0.0010514259338378906,0.00321197509765625,0
0.7399501800537109,0.005664951168000698,0.0005533415242098272,-0.42492932081222534,0.0005137523204693344,-0.6691220112925618,0.015479834606357908,0.05031971410271572,-0.0032778242065786447,0.0,0.0,-0.6,0.0,0.0009369850158691406,0.003062725067138672,0
0.7498013973236084,0.005664951168000698,0.0005533415242098272,-0.42492932081222534,0.0005137523204693344,-0.6691220112925618,0.015479834606357908,0.05031971410271572,-0.0032778242065786447,0.0,0.0,-0.6,0.0,0.0002739429473876953,0.002017974853515625,0
0.7599775791168213,0.005703681614249945,0.0005368549609556794,-0.43185776472091675,-0.0003004010788235199,-0.6703701749997147,-0.008960722466498637,0.04715584089486232,0.0019332823637469288,0.0,0.0,-0.6,0.0,0.0006968975067138672,0.0019686222076416016,0
0.7700221538543701,0.005749312229454517,0.0005229616072028875,-0.43848785758018494,-0.001052472432293838,-0.6716194504975301,-0.029697999232734137,0.040038012512450635,0.006746863542191775,0.0,0.0,-0.6,0.0,0.0010464191436767578,0.002753734588623047,0
0.7796814441680908,0.005772585980594158,0.0005165155744180083,-0.44169533252716064,-0.0014100686394319568,-0.6722200596665492,-0.04015573620792892,0.03719277172633207,0.009035878277992753,0.0,0.0,-0.6,0.0,0.0008251667022705078,0.0021903514862060547,0
0.7899408340454102,0.005772585980594158,0.0005165155744180083,-0.44169533252716064,-0.0014100686394319568,-0.6722200596665492,-0.04015573620792892,0.03719277172633207,0.009035878277992753,0.0,0.0,-0.6,0.0,0.0002720355987548828,0.0017900466918945312,0
0.7999551296234131,0.005820675287395716,0.0005084931617602706,-0.4479345679283142,-0.0020215630247184097,-0.6734667014562029,-0.05753323632785857,0.029519491944997422,0.012949849401917858,0.0,0.0,-0.6,0.0,0.000978231430053711,0.002866506576538086,0
0.809633731842041,0.005866691004484892,0.0005081052077002823,-0.4538932144641876,-0.0025751027182414742,-0.6747913279910333,-0.07478306543100062,0.02105863052343133,0.016492601448981695,0.0,0.0,-0.6,0.0,0.0007219314575195312,0.001972198486328125,0
0.8197994232177734,0.005891377106308937,0.0005132036749273539,-0.4567701518535614,-0.002830112308194744,-0.6753841835697808,-0.0816623077441037,0.01827485970105591,0.01812541174940919,0.0,0.0,-0.6,0.0,0.0008096694946289062,0.0022449493408203125,0
0.8299126625061035,0.005891377106308937,0.0005132036749273539,-0.4567701518535614,-0.002830112308194744,-0.6753841835697808,-0.0816623077441037,0.01827485970105591,0.01812541174940919,0.0,0.0,-0.6,0.0,0.0003466606140136719,0.0024352073669433594,0
0.8399486541748047,0.0059416829608380795,0.0005332159344106913,-0.4623315930366516,-0.003290301966472806,-0.6765287985905978,-0.09444737467709996,0.011534821367602673,0.02107127357131901,0.0,0.0,-0.6,0.0,0.0008504390716552734,0.0028824806213378906,0
0.8499259948730469,0.005986932665109634,0.0005684821517206728,-0.4676379859447479,-0.0036544212992055025,-0.6778412115108338,-0.10399830096385719,0.002575055586562357,0.02340054413164163,0.0,0.0,-0.6,0.0,0.0008881092071533203,0.002507448196411133,0
0.8597860336303711,0.006005423609167337,0.0005919241812080145,-0.47020718455314636,-0.003765110186437395,-0.6784362549785069,-0.10810423118245577,-0.0018183674561283209,0.024108548544401746,0.0,0.0,-0.6,0.0,0.0007431507110595703,0.0024862289428710938,0
0.869910717010498,0.006005423609167337,0.0005919241812080145,-0.47020718455314636,-0.003765110186437395,-0.6784362549785069,-0.10810423118245577,-0.0018183674561283209,0.024108548544401746,0.0,0.0,-0.6,0.0,0.00028133392333984375,0.0032181739807128906,0
0.8802103996276855,0.006049970630556345,0.0006825270829722285,-0.4775576889514923,-0.004087012455965215,-0.6801535490021181,-0.11309186230146663,-0.012152841671777706,0.026167391370638903,0.0,0.0,-0.6,0.0,0.0007867813110351562,0.0028493404388427734,0
0.8897016048431396,0.006058903876692057,0.0007202621782198548,-0.47989246249198914,-0.004183399059697666,-0.6807166383549186,-0.11428038986259804,-0.014732726129074614,0.026784152072113668,0.0,0.0,-0.6,0.0,0.0007810592651367188,0.002195596694946289,0
0.9003298282623291,0.00606716051697731,0.0007627737941220403,-0.4821721911430359,-0.004243130054876677,-0.6812316065892416,-0.11503242571000587,-0.016620869070178672,0.027166755711486554,0.0,0.0,-0.6,0.0,0.0012292861938476562,0.003594636917114258,0
0.9098849296569824,0.00606716051697731,0.0007627737941220403,-0.4821721911430359,-0.004243130054876677,-0.6812316065892416,-0.11503242571000587,-0.016620869070178672,0.027166755711486554,0.0,0.0,-0.6,0.0,0.0003094673156738281,0.002079486846923828,0
0.9195756912231445,0.0060821883380413055,0.0008566112956032157,-0.4865666329860687,-0.004319766979121674,-0.6824186851720797,-0.1102719224893844,-0.0212971616493967,0.02765539404549257,0.0,0.0,-0.6,0.0,0.0008804798126220703,0.002421855926513672,0
0.9297754764556885,0.0060874177142977715,0.000958322430960834,-0.4907468259334564,-0.004336139049412993,-0.6835489929284598,-0.10518864475447512,-0.025893190624649252,0.02775810809395041,0.0,0.0,-0.6,0.0,0.0009884834289550781,0.0032830238342285156,0
0.9398293495178223,0.0060859257355332375,0.0010139272781088948,-0.49276044964790344,-0.004312446109490117,-0.6841009197797032,-0.10265062391800726,-0.027740011072394773,0.027605895754366512,0.0,0.0,-0.6,0.0,0.0009133815765380859,0.0032501220703125,0
0.9501547813415527,0.0060859257355332375,0.0010139272781088948,-0.49276044964790344,-0.004312446109490117,-0.6841009197797032,-0.10265062391800726,-0.027740011072394773,0.027605895754366512,0.0,0.0,-0.6,0.0,0.00043964385986328125,0.003955364227294922,0
0.9598240852355957,0.0060469298623502254,0.001231311121955514,-0.4970712959766388,-0.004262050042549634,-0.6848910835897701,-0.09470682611410967,-0.031001490435708216,0.027281411493213045,0.0,0.0,-0.6,0.0,0.0009944438934326172,0.0033159255981445312,0
0.9698276519775391,0.005973007529973984,0.0015487397322431207,-0.501592755317688,-0.004193496299152039,-0.6855530047864951,-0.087329620919022,-0.03238862806104275,0.026841578684863605,0.0,0.0,-0.6,0.0,0.0007987022399902344,0.0025298595428466797,0
0.9799609184265137,0.005935610271990299,0.0017080219695344567,-0.5037690997123718,-0.004140776650653991,-0.685807578097364,-0.08365250439183042,-0.03228432100023962,0.026503839016654297,0.0,0.0,-0.6,0.0,0.0007717609405517578,0.0026085376739501953,0
0.9898543357849121,0.005935610271990299,0.0017080219695344567,-0.5037690997123718,-0.004140776650653991,-0.685807578097364,-0.08365250439183042,-0.03228432100023962,0.026503839016654297,0.0,0.0,-0.6,0.0,0.00023102760314941406,0.0020618438720703125,0
0.9996604919433594,0.005856703966856003,0.0020233558025211096,-0.5079598426818848,-0.003962512105547305,-0.686418229229638,-0.07248114399675389,-0.03352214670155848,0.025361174223533747,0.0,0.0,-0.6,0.0,0.0007910728454589844,0.002179861068725586,0
1.0099375247955322,0.005773342680186033,0.0023277366999536753,-0.5119715929031372,-0.003761587764210839,-0.6869258214514852,-0.0605983750851567,-0.0326204127573046,0.02407340973663138,0.0,0.0,-0.6,0.0,0.0007784366607666016,0.002809762954711914,0
1.0197546482086182,0.0057305642403662205,0.0024757632054388523,-0.5139029622077942,-0.00364903341542396,-0.687171429847464,-0.053684731009965035,-0.03228004707961615,0.023351949241928113,0.0,0.0,-0.6,0.0,0.0007395744323730469,0.002489328384399414,0
1.0299341678619385,0.0057305642403662205,0.0024757632054388523,-0.5139029622077942,-0.00364903341542396,-0.687171429847464,-0.053684731009965035,-0.03228004707961615,0.023351949241928113,0.0,0.0,-0.6,0.0,0.000270843505859375,0.0020995140075683594,0
1.0396883487701416,0.0055977110750973225,0.002893808763474226,-0.5194100737571716,-0.003345700030898096,-0.6880194338236577,-0.032045920932854605,-0.03097428975812795,0.021407096161696396,0.0,0.0,-0.6,0.0,0.0008218288421630859,0.002738475799560547,0
1.0498957633972168,0.005552385933697224,0.003022518241778016,-0.521152913570404,-0.003254501455508351,-0.6882547184480462,-0.02502283415533509,-0.029188784878967707,0.020822106777797104,0.0,0.0,-0.6,0.0,0.0010929107666015625,0.0034224987030029297,0
1.0601961612701416,0.005507742520421743,0.003147240960970521,-0.5228517651557922,-0.0031622137759078303,-0.6885358282569614,-0.01879401881021024,-0.02664214169102134,0.02023021748198252,0.0,0.0,-0.6,0.0,0.0009450912475585938,0.0031709671020507812,0
1.069873571395874,0.005507742520421743,0.003147240960970521,-0.5228517651557922,-0.0031622137759078303,-0.6885358282569614,-0.01879401881021024,-0.02664214169102134,0.02023021748198252,0.0,0.0,-0.6,0.0,0.0002703666687011719,0.0023641586303710938,0
1.079676866531372,0.005375988315790892,0.0034982669167220592,-0.5277255177497864,-0.0027543738821304152,-0.689413448463568,-0.0006093686441390784,-0.02146779312123364,0.017617635059656404,0.0,0.0,-0.6,0.0,0.0009047985076904297,0.0026826858520507812,0
1.0900654792785645,0.0053313616663217545,0.003605183679610491,-0.5292696952819824,-0.002604999793449693,-0.6897272349291882,0.006152777754290494,-0.01887180256690515,0.016660496129764234,0.0,0.0,-0.6,0.0,0.0011830329895019531,0.003456592559814453,0
1.0998778343200684,0.005288079380989075,0.0037066892255097628,-0.5307708382606506,-0.002449198950733224,-0.6900783155286502,0.011436074314336658,-0.016021760699996043,0.015662457393308005,0.0,0.0,-0.6,0.0,0.0009641647338867188,0.0027658939361572266,0
1.110011339187622,0.005288079380989075,0.0037066892255097628,-0.5307708382606506,-0.002449198950733224,-0.6900783155286502,0.011436074314336658,-0.016021760699996043,0.015662457393308005,0.0,0.0,-0.6,0.0,0.00029087066650390625,0.0024635791778564453,0
1.119889497756958,0.005154245998710394,0.003975539468228817,-0.5350257158279419,-0.0019654334266502554,-0.691038770283052,0.028535595351217805,-0.009929205584954616,0.012564747623302867,0.0,0.0,-0.6,0.0,0.001432657241821289,0.004523038864135742,0
1.1300671100616455,0.005112591665238142,0.004051361698657274,-0.5363633632659912,-0.0018023612228914004,-0.6914103153925376,0.03487657916458191,-0.006084075517256378,0.011519699451327888,0.0,0.0,-0.6,0.0,0.0004487037658691406,0.002437114715576172,0
1.1400411128997803,0.005073403473943472,0.004119602032005787,-0.5376607775688171,-0.0016583824526157469,-0.6917764130450328,0.03962127905987046,-0.0028156192379334317,0.010597294967069041,0.0,0.0,-0.6,0.0,0.0006251335144042969,0.0028922557830810547,0
1.1499321460723877,0.005073403473943472,0.004119602032005787,-0.5376607775688171,-0.0016583824526157469,-0.6917764130450328,0.03962127905987046,-0.0028156192379334317,0.010597294967069041,0.0,0.0,-0.6,0.0,0.0002410411834716797,0.0018763542175292969,0
1.159911870956421,0.004957670345902443,0.00428118696436286,-0.5413789749145508,-0.0012354366696505949,-0.6928195820782718,0.05232255010516209,0.0024941673590627073,0.007890587923177825,0.0,0.0,-0.6,0.0,0.0010900497436523438,0.0027878284454345703,0
1.1700024604797363,0.004919270519167185,0.004322453401982784,-0.5425418615341187,-0.0010918938042845832,-0.693184020904973,0.054930151247455816,0.004600667502334805,0.006972016878460004,0.0,0.0,-0.6,0.0,0.0009624958038330078,0.0038650035858154297,0
1.179715871810913,0.004885433241724968,0.00435682013630867,-0.5436678528785706,-0.0009613223902180711,-0.6935329801422244,0.05821478647431317,0.007659883973313586,0.006135815246249887,0.0,0.0,-0.6,0.0,0.0006160736083984375,0.0026192665100097656,0
1.1898384094238281,0.004885433241724968,0.00435682013630867,-0.5436678528785706,-0.0009613223902180711,-0.6935329801422244,0.05821478647431317,0.007659883973313586,0.006135815246249887,0.0,0.0,-0.6,0.0,0.00027370452880859375,0.001969575881958008,0
1.2000834941864014,0.004793662577867508,0.0044111693277955055,-0.546838104724884,-0.0005702730499749266,-0.6944634995375633,0.06800828126507688,0.013309320791664084,0.0036339509731380818,0.0,0.0,-0.6,0.0,0.0023021697998046875,0.005627870559692383,0
1.209737777709961,0.0047650206834077835,0.004415595903992653,-0.5478293895721436,-0.0004808652689002848,-0.6947760612308784,0.06937121148856158,0.01528938262295087,0.0030618314985793546,0.0,0.0,-0.6,0.0,0.0006566047668457031,0.0021109580993652344,0
1.219836950302124,0.004738179035484791,0.004414266906678677,-0.5488036870956421,-0.00035522684148770037,-0.6950956592645329,0.07016781578286392,0.017365347821779266,0.002258162812394799,0.0,0.0,-0.6,0.0,0.0006015300750732422,0.0020761489868164062,0
1.2298173904418945,0.004738179035484791,0.004414266906678677,-0.5488036870956421,-0.00035522684148770037,-0.6950956592645329,0.07016781578286392,0.017365347821779266,0.002258162812394799,0.0,0.0,-0.6,0.0,0.0002486705780029297,0.0019752979278564453,0
1.2396397590637207,0.004666863474994898,0.004372826311737299,-0.5515353679656982,-1.299722525807158e-05,-0.6961016653013214,0.07219543905646791,0.02164051630724209,7.004938660143779e-05,0.0,0.0,-0.6,0.0,0.0007429122924804688,0.002431154251098633,0
1.249823808670044,0.004648920148611069,0.004346215166151524,-0.5523832440376282,9.347002689222738e-05,-0.6963959834058645,0.07199039688215118,0.023010660254416313,-0.0006105414683366564,0.0,0.0,-0.6,0.0,0.0006134510040283203,0.002485036849975586,0
1.2598142623901367,0.004632922820746899,0.004312905482947826,-0.5532025098800659,0.00020571154683350637,-0.6966988180340474,0.07181054286682663,0.02453454730869537,-0.0013279548478100287,0.0,0.0,-0.6,0.0,0.0008108615875244141,0.0028257369995117188,0
1.2701516151428223,0.004632922820746899,0.004312905482947826,-0.5532025098800659,0.00020571154683350637,-0.6966988180340474,0.07181054286682663,0.02453454730869537,-0.0013279548478100287,0.0,0.0,-0.6,0.0,0.0013353824615478516,0.00490117073059082,0
1.2799983024597168,0.004599594511091709,0.004175607580691576,-0.5554918646812439,0.0004202129108199798,-0.6975102331656065,0.06783908677489783,0.02756545402163284,-0.0026984160521399,0.0,0.0,-0.6,0.0,0.0006244182586669922,0.0020263195037841797,0
1.289663314819336,0.004591988865286112,0.004120833706110716,-0.5562171339988708,0.0004612732088985847,-0.6978007302417163,0.0649787889960214,0.02740229156272632,-0.0029601190759609877,0.0,0.0,-0.6,0.0,0.0006797313690185547,0.0021393299102783203,0
1.3001377582550049,0.004586143884807825,0.004063382279127836,-0.5569165945053101,0.0005118065466905009,-0.6980528681004609,0.061225694913237795,0.02837175492569299,-0.003282780419886279,0.0,0.0,-0.6,0.0,0.0008294582366943359,0.002945423126220703,0
1.3098387718200684,0.004586143884807825,0.004063382279127836,-0.5569165945053101,0.0005118065466905009,-0.6980528681004609,0.061225694913237795,0.02837175492569299,-0.003282780419886279,0.0,0.0,-0.6,0.0,0.0001952648162841797,0.0013120174407958984,0
1.3201262950897217,0.004583507776260376,0.004003981128334999,-0.5575910210609436,0.0005590386429707906,-0.6983141366478381,0.05791041310874449,0.02918314872771057,-0.0035842650312097337,0.0,0.0,-0.6,0.0,0.0010564327239990234,0.0044062137603759766,0
1.3298275470733643,0.004586086142808199,0.0038056219927966595,-0.5594742298126221,0.0006619027712052282,-0.6989550602044404,0.04773830987508532,0.028667954589955864,-0.004239284577788143,0.0,0.0,-0.6,0.0,0.0008988380432128906,0.0036067962646484375,0
1.3398644924163818,0.004591576289385557,0.00373326288536191,-0.5600584149360657,0.0006886101110604968,-0.6991973216069721,0.0447294330271483,0.02909587731010027,-0.004409214912977159,0.0,0.0,-0.6,0.0,0.000713348388671875,0.0025975704193115234,0
1.3501391410827637,0.004591576289385557,0.00373326288536191,-0.5600584149360657,0.0006886101110604968,-0.6991973216069721,0.0447294330271483,0.02909587731010027,-0.004409214912977159,0.0,0.0,-0.6,0.0,0.0003237724304199219,0.0029337406158447266,0
1.3600044250488281,0.004668429493904114,0.003939365968108177,-0.5613105297088623,0.0007390049518631513,-0.699643018576917,0.03312548823648093,0.02969350714110907,-0.004729195579722339,0.0,0.0,-0.6,0.0,0.0011713504791259766,0.002845287322998047,0
1.3696632385253906,0.004809072241187096,0.004472617991268635,-0.5626652836799622,0.0007826460817707267,-0.6999698707999515,0.016832459351851643,0.0308953424684436,-0.00500492580039429,0.0,0.0,-0.6,0.0,0.0006935596466064453,0.0020766258239746094,0
1.380056619644165,0.004878941457718611,0.004728099796921015,-0.563305139541626,0.0007864842153137354,-0.700139128053864,0.008459714437768774,0.029364359509635188,-0.005027585684119977,0.0,0.0,-0.6,0.0,0.0006482601165771484,0.0021643638610839844,0
1.3898463249206543,0.004878941457718611,0.004728099796921015,-0.563305139541626,0.0007864842153137354,-0.700139128053864,0.008459714437768774,0.029364359509635188,-0.005027585684119977,0.0,0.0,-0.6,0.0,0.0002593994140625,0.0016477108001708984,0
1.3999090194702148,0.004947126377373934,0.004976086784154177,-0.5639212727546692,0.0007797724319017584,-0.7002939732820069,0.0008637089152149657,0.028090722495390335,-0.004982767000782103,0.0,0.0,-0.6,0.0,0.0007450580596923828,0.0023183822631835938,0
1.4096436500549316,0.005156608764082193,0.005679885391145945,-0.5656343102455139,0.0007590554786731585,-0.7007825703700445,-0.021868405457233352,0.027826107196377976,-0.004843630352311068,0.0,0.0,-0.6,0.0,0.0006740093231201172,0.002129077911376953,0
1.4198501110076904,0.005227595567703247,0.00590283889323473,-0.5661618113517761,0.0007323608471821186,-0.7009052270861322,-0.028571481924859626,0.026371159308734637,-0.004670743810720944,0.0,0.0,-0.6,0.0,0.0006361007690429688,0.0020918846130371094,0
1.4298899173736572,0.005227595567703247,0.00590283889323473,-0.5661618113517761,0.0007323608471821186,-0.7009052270861322,-0.028571481924859626,0.026371159308734637,-0.004670743810720944,0.0,0.0,-0.6,0.0,0.0002357959747314453,0.0016551017761230469,0
1.4399449825286865,0.005297810770571232,0.00611963402479887,-0.5666688084602356,0.0007279976730720404,-0.701066011762714,-0.034789037152401066,0.025500974260980504,-0.00464069714335004,0.0,0.0,-0.6,0.0,0.0008225440979003906,0.003268718719482422,0
1.4499421119689941,0.005504150874912739,0.006737417541444302,-0.5681231021881104,0.00068744956219571,-0.701522332188325,-0.05143437056028611,0.021320993369334334,-0.004375100209263312,0.0,0.0,-0.6,0.0,0.0009608268737792969,0.003056764602661133,0
1.4602200984954834,0.005571101326495409,0.00693451426923275,-0.5685682892799377,0.0006757414345130448,-0.7016713692956985,-0.05641416814959166,0.01928410517402691,-0.004298365936369433,0.0,0.0,-0.6,0.0,0.0007481575012207031,0.0029354095458984375,0
1.469761848449707,0.005571101326495409,0.00693451426923275,-0.5685682892799377,0.0006757414345130448,-0.7016713692956985,-0.05641416814959166,0.01928410517402691,-0.004298365936369433,0.0,0.0,-0.6,0.0,0.000255584716796875,0.0020372867584228516,0
1.4799997806549072,0.005641723517328501,0.00712873600423336,-0.5689956545829773,0.0006447996203402148,-0.7017623241318532,-0.05995646280829729,0.017586559517601043,-0.004098907712139521,0.0,0.0,-0.6,0.0,0.0007567405700683594,0.002472400665283203,0
1.4896633625030518,0.005842048209160566,0.007683093659579754,-0.5701684355735779,0.0006060091431614884,-0.7022712731751757,-0.0689070975128571,0.011967731193506895,-0.0038467732860650284,0.0,0.0,-0.6,0.0,0.0007479190826416016,0.0022783279418945312,0
1.5000643730163574,0.005905252415686846,0.007861626334488392,-0.5705243945121765,0.0005930944372474097,-0.7023882802919578,-0.07104992326847186,0.008879860637910868,-0.00376334722022656,0.0,0.0,-0.6,0.0,0.0012273788452148438,0.003362894058227539,0
1.5100786685943604,0.005905252415686846,0.007861626334488392,-0.5705243945121765,0.0005930944372474097,-0.7023882802919578,-0.07104992326847186,0.008879860637910868,-0.00376334722022656,0.0,0.0,-0.6,0.0,0.0002875328063964844,0.0021152496337890625,0
1.5197999477386475,0.006020315457135439,0.008207658305764198,-0.5712320804595947,0.0005984536402382548,-0.70273285156947,-0.07291693369029724,0.003857642825061249,-0.003796409934130219,0.0,0.0,-0.6,0.0,0.0009763240814208984,0.002826690673828125,0
1.5297095775604248,0.006127101834863424,0.008539856411516666,-0.5718721747398376,0.0005678620381820597,-0.7030185218088231,-0.07387024408203632,-0.0002561411529878677,-0.003599723128523378,0.0,0.0,-0.6,0.0,0.0007369518280029297,0.0025832653045654297,0
1.5398268699645996,0.006178781855851412,0.008701774291694164,-0.5721685886383057,0.0005454152993503014,-0.7031444144077218,-0.0727112021890706,-0.002004984204044734,-0.0034560417820662663,0.0,0.0,-0.6,0.0,0.000560760498046875,0.002047300338745117,0
1.5497968196868896,0.006178781855851412,0.008701774291694164,-0.5721685886383057,0.0005454152993503014,-0.7031444144077218,-0.0727112021890706,-0.002004984204044734,-0.0034560417820662663,0.0,0.0,-0.6,0.0,0.00023603439331054688,0.0015594959259033203,0
1.5601749420166016,0.006277709733694792,0.009014753624796867,-0.5727158784866333,0.0004993751016333448,-0.7034223282254194,-0.06963217389350677,-0.004339421372953003,-0.003161805822697007,0.0,0.0,-0.6,0.0,0.0008537769317626953,0.002369403839111328,0
1.5696344375610352,0.006369270849972963,0.009308859705924988,-0.5732056498527527,0.0004962438768735333,-0.7036986057828133,-0.06367251776333682,-0.0069832149441459105,-0.0031434246302101732,0.0,0.0,-0.6,0.0,0.0006122589111328125,0.001932382583618164,0
1.5798418521881104,0.006412484683096409,0.009450674057006836,-0.5734565854072571,0.0004923170817855245,-0.7037535486527005,-0.06137437705196654,-0.007526034149347362,-0.0031188570632464615,0.0,0.0,-0.6,0.0,0.0006129741668701172,0.0019884109497070312,0
1.5899710655212402,0.006412484683096409,0.009450674057006836,-0.5734565854072571,0.0004923170817855245,-0.7037535486527005,-0.06137437705196654,-0.007526034149347362,-0.0031188570632464615,0.0,0.0,-0.6,0.0,0.0002551078796386719,0.0018086433410644531,0
1.5998640060424805,0.006454819813370705,0.009588525630533695,-0.5736963152885437,0.00048718439513643306,-0.7038022252509358,-0.05728725902938514,-0.007635257241703477,-0.0030872332408628904,0.0,0.0,-0.6,0.0,0.0007243156433105469,0.0023479461669921875,0
1.6096556186676025,0.0065796347334980965,0.009967991150915623,-0.5743449330329895,0.0004219813134158478,-0.7040355239826532,-0.043058255455582464,-0.009483763477727242,-0.0026748850231685033,0.0,0.0,-0.6,0.0,0.0008938312530517578,0.0023376941680908203,0
1.6199796199798584,0.006620212458074093,0.010081589221954346,-0.5745392441749573,0.00039795474225671367,-0.7040710853522951,-0.03875014573307499,-0.010102073114530324,-0.0025227003259969427,0.0,0.0,-0.6,0.0,0.0006451606750488281,0.002204418182373047,0
1.629873514175415,0.006620212458074093,0.010081589221954346,-0.5745392441749573,0.00039795474225671367,-0.7040710853522951,-0.03875014573307499,-0.010102073114530324,-0.0025227003259969427,0.0,0.0,-0.6,0.0,0.0002529621124267578,0.0016651153564453125,0
1.640153169631958,0.006659043021500111,0.010190977714955807,-0.574722945690155,0.0003621912890293046,-0.7041851203361761,-0.034510622111166796,-0.010273785019919766,-0.002295617898810366,0.0,0.0,-0.6,0.0,0.0007216930389404297,0.002928495407104492,0
1.6498396396636963,0.006765586789697409,0.010490301996469498,-0.5752295255661011,0.00024031981625837926,-0.7044271111357727,-0.020243638687565298,-0.010906523564924631,-0.0015218892088860497,0.0,0.0,-0.6,0.0,0.0007052421569824219,0.0022454261779785156,0
1.6599788665771484,0.006797075271606445,0.010578549467027187,-0.5753897428512573,0.00020808633950801804,-0.7045511232278621,-0.014295495999057902,-0.011165836893676246,-0.0013181265211329408,0.0,0.0,-0.6,0.0,0.0006325244903564453,0.0020301342010498047,0
1.6699726581573486,0.006797075271606445,0.010578549467027187,-0.5753897428512573,0.00020808633950801804,-0.7045511232278621,-0.014295495999057902,-0.011165836893676246,-0.0013181265211329408,0.0,0.0,-0.6,0.0,0.000270843505859375,0.0018627643585205078,0
1.6800873279571533,0.006826150231063366,0.01066108513623476,-0.5755384564399719,0.0001934048261513507,-0.7046563134649833,-0.010344009701844178,-0.01141456570132843,-0.0012257567828704193,0.0,0.0,-0.6,0.0,0.0009150505065917969,0.0034821033477783203,0
1.6896474361419678,0.006907288450747728,0.010872362181544304,-0.575916051864624,0.0001443842943187066,-0.7050113727205785,0.0071257407148681215,-0.010058329173938865,-0.0009195971082782597,0.0,0.0,-0.6,0.0,0.0006651878356933594,0.002382040023803711,0
1.700063705444336,0.00693046860396862,0.010926189832389355,-0.576021134853363,0.00012966519385905668,-0.705143967012146,0.013057932558577314,-0.010470830175174466,-0.0008275759647566918,0.0,0.0,-0.6,0.0,0.0006878376007080078,0.002674102783203125,0
1.7096168994903564,0.00695081939920783,0.010972845368087292,-0.5761151313781738,0.00011141953368476143,-0.7052979132931695,0.01769544637695398,-0.010935276217241354,-0.0007124459399261944,0.0,0.0,-0.6,0.0,0.0005464553833007812,0.002203702926635742,0
1.7199342250823975,0.00695081939920783,0.010972845368087292,-0.5761151313781738,0.00011141953368476143,-0.7052979132931695,0.01769544637695398,-0.010935276217241354,-0.0007124459399261944,0.0,0.0,-0.6,0.0,0.00025081634521484375,0.0022170543670654297,0
1.7296109199523926,0.006999758537858725,0.011076530441641808,-0.576383650302887,2.6075038554559526e-05,-0.7055519652084004,0.030441131032506997,-0.010398348652399025,-0.00017145382793395605,0.0,0.0,-0.6,0.0,0.0005400180816650391,0.0021419525146484375,0
1.7396140098571777,0.007012288551777601,0.011097478680312634,-0.576461672782898,9.696380372634823e-06,-0.7056709623519208,0.034473668877382915,-0.01031300086749179,-6.811069832018196e-05,0.0,0.0,-0.6,0.0,0.0005893707275390625,0.002414226531982422,0
1.7498483657836914,0.007012288551777601,0.011097478680312634,-0.576461672782898,9.696380372634823e-06,-0.7056709623519208,0.034473668877382915,-0.01031300086749179,-6.811069832018196e-05,0.0,0.0,-0.6,0.0,0.0002455711364746094,0.001947164535522461,0
1.7599501609802246,0.0070346505381166935,0.011121610179543495,-0.5765889286994934,-3.63012494862784e-05,-0.7058504612411647,0.040025747467795046,-0.010567033767479436,0.0002244225349365376,0.0,0.0,-0.6,0.0,0.00063323974609375,0.0021588802337646484,0
1.7698547840118408,0.007239386439323425,0.01127486303448677,-0.5772551894187927,-2.8108452248755246e-05,-0.7057635715075703,0.043762230520038914,-0.008724318399758669,0.0001701954339363937,0.0,0.0,-0.6,0.0,0.0010323524475097656,0.003174304962158203,0
1.7805368900299072,0.007334951777011156,0.01133800856769085,-0.5775662660598755,-2.2410636905041464e-05,-0.7056894468638847,0.04569629718005096,-0.007244982513915058,0.00013261056172855112,0.0,0.0,-0.6,0.0,0.0012624263763427734,0.004236698150634766,0
1.7899394035339355,0.007334951777011156,0.01133800856769085,-0.5775662660598755,-2.2410636905041464e-05,-0.7056894468638847,0.04569629718005096,-0.007244982513915058,0.00013261056172855112,0.0,0.0,-0.6,0.0,0.00030994415283203125,0.0021255016326904297,0
1.8001692295074463,0.007518380880355835,0.011439554393291473,-0.5781614184379578,3.747682328229291e-06,-0.7056721344343423,0.0475029013428714,-0.0022620143890766287,-3.709981443294077e-05,0.0,0.0,-0.6,0.0,0.0010023117065429688,0.0041162967681884766,0
1.8097217082977295,0.007689196150749922,0.011508596129715443,-0.5787139534950256,5.2006992249514754e-05,-0.7056102425579363,0.047524436639753836,-0.0007687938315384104,-0.000345855100052449,0.0,0.0,-0.6,0.0,0.0008471012115478516,0.0027670860290527344,0
1.8202450275421143,0.007768907118588686,0.011532774195075035,-0.578970193862915,4.558648251943297e-05,-0.7055728673019862,0.046569201612191725,0.0007278639532982659,-0.00030488770672506014,0.0,0.0,-0.6,0.0,0.0012404918670654297,0.004214286804199219,0
1.8300080299377441,0.007768907118588686,0.011532774195075035,-0.578970193862915,4.558648251943297e-05,-0.7055728673019862,0.046569201612191725,0.0007278639532982659,-0.00030488770672506014,0.0,0.0,-0.6,0.0,0.00033402442932128906,0.002399444580078125,0
1.8399865627288818,0.007924918085336685,0.011559626087546349,-0.5794431567192078,1.555336442094289e-05,-0.7055214523541253,0.04483290354745301,0.003084771006199112,-0.00011270105092920705,0.0,0.0,-0.6,0.0,0.0009582042694091797,0.0029594898223876953,0
1.8496768474578857,0.00807013176381588,0.011560617946088314,-0.5798690319061279,6.370881563380279e-05,-0.7055038158523803,0.04327360031407977,0.005156127938420594,-0.0004201946252800507,0.0,0.0,-0.6,0.0,0.0006849765777587891,0.0021409988403320312,0
1.8601188659667969,0.00813892763108015,0.011550427414476871,-0.5800625681877136,7.537480013963891e-05,-0.7055304498100319,0.04198364486380621,0.007016156926352965,-0.0004946639274792192,0.0,0.0,-0.6,0.0,0.0006990432739257812,0.002753734588623047,0
1.8698887825012207,0.00813892763108015,0.011550427414476871,-0.5800625681877136,7.537480013963891e-05,-0.7055304498100319,0.04198364486380621,0.007016156926352965,-0.0004946639274792192,0.0,0.0,-0.6,0.0,0.0002551078796386719,0.001688241958618164,0
1.8800020217895508,0.008206089958548546,0.01153351180255413,-0.5802750587463379,0.00010461193990197765,-0.7055480972540051,0.041028945228327195,0.00828102297074815,-0.0006813112119594894,0.0,0.0,-0.6,0.0,0.0007503032684326172,0.0024487972259521484,0
1.8896934986114502,0.008389928378164768,0.011445012874901295,-0.5808343887329102,0.0001681457628029403,-0.7055947280077808,0.035500226436023706,0.009867197361191194,-0.001085124053678274,0.0,0.0,-0.6,0.0,0.0008091926574707031,0.002431154251098633,0
1.8997187614440918,0.008448954671621323,0.011405187658965588,-0.5809974670410156,0.0001816953238750553,-0.7055916453385114,0.032548334590646794,0.011153193656152454,-0.0011708826385064145,0.0,0.0,-0.6,0.0,0.00072479248046875,0.0024394989013671875,0
1.9099223613739014,0.008448954671621323,0.011405187658965588,-0.5809974670410156,0.0001816953238750553,-0.7055916453385114,0.032548334590646794,0.011153193656152454,-0.0011708826385064145,0.0,0.0,-0.6,0.0,0.0002422332763671875,0.0017001628875732422,0
1.9199597835540771,0.008561404421925545,0.011311213485896587,-0.581292450428009,0.00020104616641037148,-0.7055733241847645,0.028110243662415022,0.011456251697729656,-0.0012925465238934697,0.0,0.0,-0.6,0.0,0.0007338523864746094,0.0023152828216552734,0
1.9297640323638916,0.008664156310260296,0.011204294860363007,-0.5815450549125671,0.00025471305787281483,-0.7056693475892566,0.022689335849104604,0.012160471681542284,-0.0016334418393063933,0.0,0.0,-0.6,0.0,0.0006113052368164062,0.001969575881958008,0
1.9400358200073242,0.008713795803487301,0.011143687181174755,-0.5816605091094971,0.00027177372585055805,-0.7056967862734619,0.020573886909168854,0.012683786556520898,-0.0017415874657836542,0.0,0.0,-0.6,0.0,0.0006487369537353516,0.0021238327026367188,0
1.949875831604004,0.008713795803487301,0.011143687181174755,-0.5816605091094971,0.00027177372585055805,-0.7056967862734619,0.020573886909168854,0.012683786556520898,-0.0017415874657836542,0.0,0.0,-0.6,0.0,0.0002627372741699219,0.0017430782318115234,0
1.9601354598999023,0.008761932142078876,0.011080320924520493,-0.5817663669586182,0.0003018978686322056,-0.7056958299621862,0.017654767304378743,0.013006121013964558,-0.0019330388708211008,0.0,0.0,-0.6,0.0,0.0006880760192871094,0.002197265625,0
1.9699256420135498,0.008897872641682625,0.010872988030314445,-0.5820266604423523,0.0003546320215117504,-0.7057937962041505,0.010355736890233136,0.012528498108925045,-0.002266819589223295,0.0,0.0,-0.6,0.0,0.0009491443634033203,0.003855466842651367,0
1.9799444675445557,0.008939188905060291,0.010798093862831593,-0.5820949077606201,0.0003523942736767927,-0.7058282935939775,0.008472876896339417,0.011760431556427938,-0.002251541767433809,0.0,0.0,-0.6,0.0,0.0009589195251464844,0.0032815933227539062,0
1.989898681640625,0.008939188905060291,0.010798093862831593,-0.5820949077606201,0.0003523942736767927,-0.7058282935939775,0.008472876896339417,0.011760431556427938,-0.002251541767433809,0.0,0.0,-0.6,0.0,0.00026226043701171875,0.0018644332885742188,0
1.9997766017913818,0.009017609991133213,0.010639998130500317,-0.582205593585968,0.00035733877287824433,-0.7059348673247029,0.004484071357164851,0.012405658035574507,-0.002281228297922286,0.0,0.0,-0.6,0.0,0.0008077621459960938,0.0031583309173583984,0
2.0096840858459473,0.009090215899050236,0.010473474860191345,-0.5822875499725342,0.0003653214681066764,-0.7061312589319247,0.0010481504910151431,0.011392985635777446,-0.0023306583739882264,0.0,0.0,-0.6,0.0,0.0006456375122070312,0.0022182464599609375,0
2.0202767848968506,0.009124075062572956,0.010387440212070942,-0.5823215842247009,0.00038884923667368757,-0.7061467279448022,-0.0005474234384288185,0.01174341933530325,-0.00248031371438372,0.0,0.0,-0.6,0.0,0.001516103744506836,0.0049517154693603516,0
2.0298526287078857,0.009124075062572956,0.010387440212070942,-0.5823215842247009,0.00038884923667368757,-0.7061467279448022,-0.0005474234384288185,0.01174341933530325,-0.00248031371438372,0.0,0.0,-0.6,0.0,0.00034356117248535156,0.002348661422729492,0
2.0400679111480713,0.009157553315162659,0.010299637913703918,-0.582347571849823,0.0003945287214725166,-0.7062065586539832,-0.0016998718746400957,0.011979076343738421,-0.0025159717293640007,0.0,0.0,-0.6,0.0,0.0009806156158447266,0.0035703182220458984,0
2.0498836040496826,0.009253643453121185,0.010024105198681355,-0.5823748707771301,0.00040640622325418526,-0.7063944986208012,-0.005434256322533539,0.011216829159757784,-0.0025900028039207426,0.0,0.0,-0.6,0.0,0.0007555484771728516,0.002561330795288086,0
2.0598888397216797,0.009282821789383888,0.009930331259965897,-0.5823684334754944,0.0003893575641979269,-0.7064443653344348,-0.007210319746805943,0.010078103090178009,-0.0024802891033645458,0.0,0.0,-0.6,0.0,0.0006365776062011719,0.0020711421966552734,0
2.0699098110198975,0.009282821789383888,0.009930331259965897,-0.5823684334754944,0.0003893575641979269,-0.7064443653344348,-0.007210319746805943,0.010078103090178009,-0.0024802891033645458,0.0,0.0,-0.6,0.0,0.0002334117889404297,0.0017514228820800781,0
2.079728841781616,0.009310256689786911,0.009836290031671524,-0.582355260848999,0.0003755706487426299,-0.7064765842821079,-0.007821039063018209,0.008872135170016716,-0.00239186319980554,0.0,0.0,-0.6,0.0,0.0006504058837890625,0.002134084701538086,0
2.0898261070251465,0.009375274181365967,0.009551108814775944,-0.5823004841804504,0.0003317772122543449,-0.706639626296865,-0.010091831004368302,0.004399491560174846,-0.002111108378916888,0.0,0.0,-0.6,0.0,0.0006220340728759766,0.002120494842529297,0
2.1000068187713623,0.009392031468451023,0.009455706924200058,-0.5822716951370239,0.0003280950914372857,-0.7067141601804693,-0.010504552649705946,0.002875758158301153,-0.002087493138093169,0.0,0.0,-0.6,0.0,0.0006327629089355469,0.0020952224731445312,0
2.1098716259002686,0.009392031468451023,0.009455706924200058,-0.5822716951370239,0.0003280950914372857,-0.7067141601804693,-0.010504552649705946,0.002875758158301153,-0.002087493138093169,0.0,0.0,-0.6,0.0,0.00025916099548339844,0.0017735958099365234,0
2.120053291320801,0.009407034143805504,0.009358840994536877,-0.5822359919548035,0.00032354775513488397,-0.7067634599685796,-0.009496970528781526,0.0020543859595349404,-0.0020587252713038166,0.0,0.0,-0.6,0.0,0.0007815361022949219,0.002554655075073242,0
2.129643678665161,0.009439636953175068,0.009059484116733074,-0.5820951461791992,0.00032394919592597534,-0.7069208740011699,-0.008219654055353858,-0.0011668751549995565,-0.002061915214992574,0.0,0.0,-0.6,0.0,0.0006692409515380859,0.0022034645080566406,0
2.139808177947998,0.009446810930967331,0.008957404643297195,-0.5820348858833313,0.00032393526439354587,-0.7070244028448445,-0.0076911986879211755,-0.0021526987224497534,-0.002062094431375392,0.0,0.0,-0.6,0.0,0.0006558895111083984,0.0022203922271728516,0
2.149731159210205,0.009446810930967331,0.008957404643297195,-0.5820348858833313,0.00032393526439354587,-0.7070244028448445,-0.0076911986879211755,-0.0021526987224497534,-0.002062094431375392,0.0,0.0,-0.6,0.0,0.0003325939178466797,0.0021979808807373047,0
2.160019874572754,0.00945234950631857,0.00885448046028614,-0.5819689631462097,0.000312391171531509,-0.7070551060479404,-0.0070122193594683,-0.0032082709933201844,-0.001988620897346839,0.0,0.0,-0.6,0.0,0.0005548000335693359,0.0018439292907714844,0
2.169768810272217,0.010095205157995224,0.009107105433940887,-0.5828171372413635,0.00030816319126792725,-0.7067279276332538,-0.010318734447850768,-0.0005230250856029828,-0.0019598432456481327,0.0,0.0,-0.6,0.0,0.0008287429809570312,0.002416849136352539,0
2.179872989654541,0.010296732187271118,0.009182346053421497,-0.5830715298652649,0.00029133395573652834,-0.7066344318572423,-0.011609803365048245,0.0013965419303725195,-0.0018515602483479413,0.0,0.0,-0.6,0.0,0.000606536865234375,0.0020546913146972656,0
2.189910411834717,0.010296732187271118,0.009182346053421497,-0.5830715298652649,0.00029133395573652834,-0.7066344318572423,-0.011609803365048245,0.0013965419303725195,-0.0018515602483479413,0.0,0.0,-0.6,0.0,0.0002524852752685547,0.0018868446350097656,0
2.199978828430176,0.010498568415641785,0.009256400167942047,-0.5833113789558411,0.0002620237648615299,-0.7066148667201668,-0.01398060005382176,0.0036538167154717845,-0.0016630475101535186,0.0,0.0,-0.6,0.0,0.0008745193481445312,0.003367185592651367,0
2.2096405029296875,0.011076144874095917,0.009468244388699532,-0.5839496850967407,0.00023789705156179313,-0.7064086482233788,-0.01907682730965075,0.010004835106518421,-0.0015063925693420735,0.0,0.0,-0.6,0.0,0.0010669231414794922,0.0027513504028320312,0
2.219932794570923,0.011259791441261768,0.009532248601317406,-0.5841376185417175,0.00022833119458832974,-0.7063443258007344,-0.019979235632816998,0.011246418473951064,-0.0014448799346138742,0.0,0.0,-0.6,0.0,0.0006914138793945312,0.0023987293243408203,0
2.2298920154571533,0.011259791441261768,0.009532248601317406,-0.5841376185417175,0.00022833119458832974,-0.7063443258007344,-0.019979235632816998,0.011246418473951064,-0.0014448799346138742,0.0,0.0,-0.6,0.0,0.000232696533203125,0.0017910003662109375,0
2.2399251461029053,0.011438255198299885,0.009593953378498554,-0.5843355655670166,0.00021079018485997784,-0.7062722100792967,-0.021364064125245434,0.013301634232425025,-0.0013322055666000227,0.0,0.0,-0.6,0.0,0.0008759498596191406,0.002873659133911133,0
2.2496883869171143,0.011943301185965538,0.009762304835021496,-0.5848565101623535,0.00017028504271315186,-0.7061217322551587,-0.024572197737054248,0.016403516990307683,-0.001072257581480796,0.0,0.0,-0.6,0.0,0.001054525375366211,0.0028514862060546875,0
2.2600789070129395,0.012101172469556332,0.009812883101403713,-0.5850076079368591,0.00015523460733815373,-0.7060854307899254,-0.024026363155516785,0.01738087394945494,-0.0009762863023046728,0.0,0.0,-0.6,0.0,0.0006368160247802734,0.0021734237670898438,0
2.2697994709014893,0.012101172469556332,0.009812883101403713,-0.5850076079368591,0.00015523460733815373,-0.7060854307899254,-0.024026363155516785,0.01738087394945494,-0.0009762863023046728,0.0,0.0,-0.6,0.0,0.0002288818359375,0.0016410350799560547,0
2.279750108718872,0.012400609441101551,0.009905224665999413,-0.5852747559547424,0.000180324342379582,-0.7060485035086337,-0.02534782288793431,0.01804908502765291,-0.0011365092556422942,0.0,0.0,-0.6,0.0,0.0005815029144287109,0.0022547245025634766,0
2.289902925491333,0.012680912390351295,0.009987474419176579,-0.585498571395874,0.0001994127250831497,-0.7060326918412725,-0.02593095860474991,0.018774660347191736,-0.0012585105271616175,0.0,0.0,-0.6,0.0,0.001386880874633789,0.004239082336425781,0
2.299907684326172,0.012813403271138668,0.010025951080024242,-0.5855932235717773,0.0001816693098853471,-0.7060029969821298,-0.026334914079056596,0.019018483840421003,-0.0011450876157459195,0.0,0.0,-0.6,0.0,0.0011005401611328125,0.003543853759765625,0
2.3099653720855713,0.012813403271138668,0.010025951080024242,-0.5855932235717773,0.0001816693098853471,-0.7060029969821298,-0.026334914079056596,0.019018483840421003,-0.0011450876157459195,0.0,0.0,-0.6,0.0,0.0003514289855957031,0.0024878978729248047,0
2.3197855949401855,0.012942695058882236,0.010061121545732021,-0.5856786966323853,0.00014966866192305995,-0.7060051086831807,-0.02455502633868477,0.020770680964270025,-0.000941197303155214,0.0,0.0,-0.6,0.0,0.0006945133209228516,0.0022399425506591797,0
2.329899311065674,0.01307043619453907,0.010091899894177914,-0.585753321647644,0.00011407739892331395,-0.7060322571363497,-0.023372398460862333,0.021928023211178174,-0.000714212979973464,0.0,0.0,-0.6,0.0,0.0007762908935546875,0.00255584716796875,0
2.339954376220703,0.013428931124508381,0.01016210112720728,-0.5859209895133972,8.292579418505409e-05,-0.7060265875644648,-0.018302298221901145,0.02149656406967809,-0.0005177014465505139,0.0,0.0,-0.6,0.0,0.0009844303131103516,0.002635478973388672,0
2.349841356277466,0.013428931124508381,0.01016210112720728,-0.5859209895133972,8.292579418505409e-05,-0.7060265875644648,-0.018302298221901145,0.02149656406967809,-0.0005177014465505139,0.0,0.0,-0.6,0.0,0.0002789497375488281,0.00188446044921875,0
2.3600642681121826,0.01364612765610218,0.01018866989761591,-0.5859888195991516,6.17282692016885e-05,-0.7060957100855566,-0.014181129541726603,0.019766543023000016,-0.00038435157268623167,0.0,0.0,-0.6,0.0,0.0005509853363037109,0.002246379852294922,0
2.37020206451416,0.013844452798366547,0.010203303769230843,-0.5860256552696228,2.2949075102820765e-07,-0.706224559296273,-0.01129940071286262,0.01825044998372233,7.153581131568501e-06,0.0,0.0,-0.6,0.0,0.0007860660552978516,0.002902984619140625,0
2.379716157913208,0.01393754594027996,0.010207520797848701,-0.5860332250595093,-2.806263968135417e-05,-0.7063143271788577,-0.009975333141712742,0.016967360235603354,0.00018736932529488969,0.0,0.0,-0.6,0.0,0.0007967948913574219,0.002482891082763672,0
