time,x,y,z,yaw,throttle,roll_rate,pitch_rate,yaw_rate,x_ref,y_ref,z_ref,yaw_ref,pred_time,nr_time,metadata
7.152557373046875e-07,-0.018314560875296593,-0.028078455477952957,0.45446449518203735,-0.003329725484725266,-0.7427415429113331,0.14896030146550424,-0.3371940551732474,0.12691241329070146,0.5557047111578932,0.22625709711945496,-0.8131285485597275,0.3351035159885339,0.2394578456878662,0.23981118202209473,Sim
0.24054694175720215,-0.018314560875296593,-0.028078455477952957,0.45446449518203735,-0.003329725484725266,-0.7729130285909307,0.25940379100371663,-0.4760358386212732,0.2535360364083385,0.5257075790080783,0.2891911848128588,-0.8445955924064293,0.43586328372530037,0.00042176246643066406,0.0006306171417236328,Jax
0.25002217292785645,-0.02060229890048504,-0.02812209539115429,0.45617520809173584,-0.0032237829353595733,-0.7966577365701467,0.31973086753581237,-0.5732250870348913,0.34362120919018446,0.5243776946736215,0.29159566754116595,-0.8457978337705829,0.4398322592768727,0.0003612041473388672,0.0005562305450439453,0OrderHold
0.2599618434906006,-0.021246379241347313,-0.028279775753617287,0.457920104265213,-0.0032020373228396227,-0.8159157268228686,0.3492729385499876,-0.6412575609244239,0.4082340213333154,0.5229708056642012,0.29411143538280904,-0.8470557176914044,0.4439957787460753,0.0004413127899169922,0.0006699562072753906,QuatYawError
0.27005600929260254,-0.021246379241347313,-0.028279775753617287,0.457920104265213,-0.0032020373228396227,-0.8317133131331306,0.360181360715553,-0.6888802926470967,0.455048579503888,0.521529696654864,0.2966593593788765,-0.8483296796894382,0.4482240130297669,0.0004177093505859375,0.0006260871887207031,NoPyJoules
0.28006529808044434,-0.021474262699484825,-0.028337683528661728,0.45850738883018494,-0.003173765928355369,-0.8447684419615424,0.36028291289300723,-0.7222162048529677,0.48938040155673884,0.5200884478377483,0.2991788869986011,-0.8495894434993005,0.45241669411290586,0.0004887580871582031,0.0007479190826416016,0
0.29000186920166016,-0.021709619089961052,-0.028398381546139717,0.45912203192710876,-0.003160551411027634,-0.8555802890931932,0.3546191056590704,-0.7455513433970774,0.5149685847311821,0.5186456301313332,0.30167318466458404,-0.850836592332292,0.4565789152910771,0.0009472370147705078,0.0012984275817871094,0
0.30001378059387207,-0.02243681624531746,-0.028605543076992035,0.4610815942287445,-0.003100356697481103,-0.8643918750804306,0.3463597234818658,-0.7618859403779542,0.5344303869245012,0.5171797741640096,0.3041793569518877,-0.8520896784759437,0.46077269492816575,0.0006759166717529297,0.0011115074157714844,0
0.3102610111236572,-0.02243681624531746,-0.028605543076992035,0.4610815942287445,-0.003100356697481103,-0.871676538229857,0.3372869617097632,-0.7733201582645679,0.5496632820201309,0.5156669247227541,0.3067370579942655,-0.8533685289971327,0.4650650448151009,0.0008370876312255859,0.0012946128845214844,0
0.3202550411224365,-0.022655833512544632,-0.028677524998784065,0.46164995431900024,-0.0030280299095049746,-0.8774394593998598,0.3276959197248866,-0.7813241107851976,0.5618690350665588,0.5141792722421737,0.30922431339807127,-0.8546121566990356,0.46925133431162375,0.0007464885711669922,0.001176595687866211,0
0.3305985927581787,-0.022844430059194565,-0.028742192313075066,0.4620923101902008,-0.002915770706405227,-0.881901369860681,0.3180388369745512,-0.7869268775496383,0.5719957411431155,0.5126269588965525,0.31179095723332356,-0.8558954786166617,0.47358403108907365,0.0008454322814941406,0.001157999038696289,0
0.3399519920349121,-0.023215487599372864,-0.02888529747724533,0.46245989203453064,-0.0021986570089269513,-0.8846865117768439,0.30390383846877395,-0.7814789277531332,0.5802847651611716,0.5112122111286792,0.314105197653472,-0.8570525988267359,0.47750197381625736,0.0005900859832763672,0.0009372234344482422,0
0.35033249855041504,-0.023215487599372864,-0.02888529747724533,0.46245989203453064,-0.0021986570089269513,-0.8868770458764621,0.29344115990136277,-0.7745024971343227,0.5877176120905557,0.5096298782015642,0.3166660500341941,-0.8583330250170971,0.48185015021754335,0.0008099079132080078,0.0013053417205810547,0
0.3605005741119385,-0.02259966731071472,-0.028757531195878983,0.4605587422847748,-0.0017810688297974994,-0.8882503451581691,0.28293236964424345,-0.7602764458447832,0.5943612321038664,0.5080674894639577,0.31916676855492193,-0.859583384277461,0.4861093437489071,0.0009274482727050781,0.0014965534210205078,0
0.3703732490539551,-0.021334491670131683,-0.028511200100183487,0.4563339650630951,-0.0005669121382451925,-0.88858033643724,0.268359177552136,-0.7324725407780301,0.6001072573856954,0.506538749339714,0.3215874615362955,-0.8607937307681477,0.490244800158123,0.0007727146148681641,0.0012142658233642578,0
0.38000917434692383,-0.02004152722656727,-0.028241900727152824,0.4514821171760559,0.001599860616142374,-0.8879100938547292,0.24877839940234805,-0.6919303800483416,0.6048305278734596,0.5050355468004332,0.3239430450989609,-0.8619715225494804,0.4942810871062471,0.0003528594970703125,0.0005714893341064453,0
0.3899049758911133,-0.02004152722656727,-0.028241900727152824,0.4514821171760559,0.001599860616142374,-0.8868572090108063,0.23555826720576803,-0.6629751028429782,0.6096912835165248,0.5034804025835291,0.3263548440184815,-0.8631774220092407,0.49842623076392817,0.0003409385681152344,0.0005376338958740234,0
0.40007781982421875,-0.019381972029805183,-0.028090432286262512,0.4487781822681427,0.0030780405878424373,-0.8853083290581586,0.221909442719494,-0.6314546271541799,0.6141374319745017,0.5018697153337719,0.32882638098364114,-0.8644131904918205,0.5026874216661095,0.000476837158203125,0.0007433891296386719,0
0.4101715087890625,-0.01802120730280876,-0.027744371443986893,0.44270312786102295,0.006761911631248558,-0.8828829382138014,0.20258327604060886,-0.5849236390732209,0.6174537856839947,0.500259569555452,0.33127083039137906,-0.8656354151956895,0.5069154562127193,0.0007843971252441406,0.0012745857238769531,0
0.42008376121520996,-0.016571195796132088,-0.02732538804411888,0.435579776763916,0.011357406824537218,-0.8794989161173663,0.1794992173185436,-0.5263546279595628,0.6196089081652011,0.49866677937387693,0.33366366770879496,-0.8668318338543974,0.5110674907997209,0.0007452964782714844,0.0011894702911376953,0
0.43025779724121094,-0.016571195796132088,-0.02732538804411888,0.435579776763916,0.011357406824537218,-0.8760421442634524,0.1648480299371253,-0.48743606612541246,0.622715667377169,0.4970200210739669,0.3361117353673232,-0.8680558676836616,0.5153291810446066,0.0007965564727783203,0.0011730194091796875,0
0.4402041435241699,-0.01580014079809189,-0.027079861611127853,0.431641161441803,0.013997948169797816,-0.8723414515856598,0.1510136095448098,-0.4486247492112502,0.6254625429960764,0.49539849851242634,0.33849716050749,-0.869248580253745,0.5194954968329538,0.0006794929504394531,0.0010597705841064453,0
0.45017504692077637,-0.014137936756014824,-0.026507070288062096,0.4230133593082428,0.019830176079513793,-0.8679729460316092,0.1332607181507435,-0.39563643261189163,0.6267644881884037,0.49376148143278226,0.340880623464145,-0.8704403117320725,0.5236720990810114,0.0008509159088134766,0.0014081001281738281,0
0.46083736419677734,-0.012285632081329823,-0.025806182995438576,0.41339266300201416,0.02637867515523199,-0.8628962281729702,0.11310673127064727,-0.33295182457887007,0.626894993158542,0.49199826184727585,0.3434206026715045,-0.8717103013357522,0.5281383200976152,0.0016083717346191406,0.002359151840209961,0
0.4704148769378662,-0.012285632081329823,-0.025806182995438576,0.41339266300201416,0.02637867515523199,-0.8581190500965483,0.10120768556127141,-0.2930441107164572,0.628490768175695,0.49040329474233046,0.34569438599124935,-0.8728471929956246,0.5321501392532242,0.0009658336639404297,0.0015027523040771484,0
0.48036956787109375,-0.01127530075609684,-0.0253982562571764,0.40821781754493713,0.029906916407902173,-0.8533547413232171,0.09055152587538048,-0.25455503667749996,0.6298484251540978,0.48873437852408635,0.3480498631642815,-0.8740249315821407,0.5363199504405022,0.0008385181427001953,0.0013339519500732422,0
0.49033451080322266,-0.009062767028808594,-0.024457070976495743,0.39715152978897095,0.03737020510725953,-0.8481184291137938,0.07659066342109346,-0.20287710158877373,0.6295653331667779,0.48705241248024256,0.35039969677095284,-0.8751998483854764,0.5404940559750379,0.001041412353515625,0.001474618911743164,0
0.4999852180480957,-0.006571730133146048,-0.023325541988015175,0.3851795494556427,0.04533520553257567,-0.8423794009272589,0.06083462863194028,-0.14293099307768112,0.627896213231486,0.4854127162510851,0.35266768338159854,-0.8763338416907992,0.5445365347726964,0.0006506443023681641,0.0009996891021728516,0
0.5103247165679932,-0.006571730133146048,-0.023325541988015175,0.3851795494556427,0.04533520553257567,-0.8372247917796619,0.05243838062581984,-0.10565015680700338,0.6283519682301741,0.4836442739504663,0.3550890258441202,-0.87754451292206,0.5488675337849513,0.0007948875427246094,0.0012061595916748047,0
0.5202734470367432,-0.00521306786686182,-0.02268720231950283,0.3788772523403168,0.04947052109958837,-0.8322347528880274,0.04534882803267482,-0.07012973243884968,0.6286829965650261,0.48193126515228535,0.35741048623217203,-0.878705243116086,0.5530348482587073,0.0007841587066650391,0.0012280941009521484,0
0.5302045345306396,-0.002257671905681491,-0.02126210927963257,0.36568012833595276,0.05800795129434996,-0.8268640234327131,0.036016829506962084,-0.022817031792803553,0.6272731567057066,0.48021018102955026,0.3597195880620994,-0.8798597940310496,0.5571947724604384,0.0005731582641601562,0.0008568763732910156,0
0.539975643157959,0.0010340120643377304,-0.019634319469332695,0.3517440855503082,0.06687060896780363,-0.8211214521113046,0.026068608071156598,0.031016764767973458,0.6244976181772651,0.47850602374545975,0.3619834046462759,-0.880991702323138,0.5612876848712403,0.0005064010620117188,0.0008161067962646484,0
0.5501387119293213,0.0010340120643377304,-0.019634319469332695,0.3517440855503082,0.06687060896780363,-0.8161429661668629,0.02183881141995331,0.06413667598887998,0.6241511620721104,0.47672218333421557,0.36432946616635137,-0.8821647330831757,0.5655447811632456,0.0006997585296630859,0.0010864734649658203,0
0.5607895851135254,0.00281134364195168,-0.018739599734544754,0.3445192277431488,0.07140797233469033,-0.8113932936544411,0.018723659377136256,0.09558924516613382,0.6238801306715198,0.4748403795943606,0.3667786988180796,-0.8833893494090398,0.5700062084898871,0.0006389617919921875,0.0009970664978027344,0
0.5701925754547119,0.006633792072534561,-0.016785167157649994,0.3295156955718994,0.08068454762636026,-0.8062890395335378,0.014035451961234622,0.13674135836840406,0.6216887415666509,0.47316859291997226,0.36893289725115813,-0.884466448625579,0.5739449238735734,0.0006711483001708984,0.0010552406311035156,0
0.5799286365509033,0.010819604620337486,-0.014614694751799107,0.31392598152160645,0.0901732216860735,-0.8008785683407339,0.009350313746179176,0.1828110094054104,0.618125835104983,0.471427290785883,0.3711553711079532,-0.8855776855539765,0.5780231556088663,0.0005075931549072266,0.0007452964782714844,0
0.5900788307189941,0.010819604620337486,-0.014614694751799107,0.31392598152160645,0.0901732216860735,-0.7963259645639751,0.008807090263702412,0.21112407555848878,0.6172262001842627,0.4696008068567432,0.3734636290182696,-0.8867318145091347,0.5822748589996642,0.0018961429595947266,0.003335237503051758,0
0.600123405456543,0.01305327657610178,-0.01344907097518444,0.30592992901802063,0.0949801030203199,-0.7920130774375965,0.009093468523002175,0.23787124879914898,0.6163716847500563,0.46778220247943103,0.37573901985752367,-0.8878695099287618,0.5864823206268531,0.0005578994750976562,0.0008523464202880859,0
0.6102263927459717,0.017800599336624146,-0.01095147430896759,0.28956907987594604,0.10470930695254625,-0.787368999177003,0.008209270744591057,0.27220290026000943,0.6137120393363308,0.4659419010280266,0.37801870967769396,-0.8890093548388469,0.5907142500465572,0.0007195472717285156,0.0011210441589355469,0
0.6199541091918945,0.022923924028873444,-0.008237987756729126,0.2727646827697754,0.11455641731044908,-0.7824685410629789,0.007084566166266127,0.30995102915629213,0.6096856474892992,0.4641594578204297,0.3802052047458645,-0.8901026023729322,0.5947889863829193,0.0004925727844238281,0.0007605552673339844,0
0.6301755905151367,0.022923924028873444,-0.008237987756729126,0.2727646827697754,0.11455641731044908,-0.7784456180798863,0.009016320765037748,0.3333476938763648,0.6084727301646602,0.4622754863393813,0.3824936270445411,-0.8912468135222705,0.5990705504674397,0.0006272792816162109,0.0009856224060058594,0
0.6401975154876709,0.025622671470046043,-0.006799167953431606,0.26415780186653137,0.1195347622855266,-0.7746550521881848,0.011420262563924716,0.3552303144523355,0.6073310549976236,0.460417341652109,0.3847283086880989,-0.8923641543440494,0.6032685245832452,0.0006587505340576172,0.001047372817993164,0
0.6501603126525879,0.03129098564386368,-0.0037577797193080187,0.24668262898921967,0.1295299768420175,-0.7705551116170702,0.012876504397938741,0.3827788408841693,0.6043486452684141,0.4585594525111889,0.3869408591925111,-0.8934704295962554,0.607441731300913,0.0005764961242675781,0.0008919239044189453,0
0.6601498126983643,0.037307702004909515,-0.0005053431377746165,0.22889959812164307,0.13957038270392014,-0.7662409800613521,0.01419971873278013,0.41236587480088144,0.60006492495115,0.45668590862144015,0.38915033196261,-0.8945751659813049,0.6116261232951591,0.0005681514739990234,0.0008897781372070312,0
0.6702218055725098,0.037307702004909515,-0.0005053431377746165,0.22889959812164307,0.13957038270392014,-0.7627683612377584,0.017788376454950516,0.43103394530481515,0.5986484444298135,0.4547861152082837,0.3913688661783889,-0.8956844330891944,0.615845069804549,0.0007147789001464844,0.0011260509490966797,0
0.6803698539733887,0.04044231399893761,0.00119606195949018,0.219907745718956,0.1445944672053695,-0.7595099683251204,0.02168477325641951,0.4482476364255929,0.5973669622734237,0.4528610765252565,0.39359477304505175,-0.8967973865225258,0.620095874378479,0.0007572174072265625,0.0012044906616210938,0
0.6902780532836914,0.043659161776304245,0.00294928764924407,0.21085594594478607,0.14963105325651965,-0.7564363993138138,0.025662422613746745,0.4643301057464794,0.5961375175262691,0.4509710245891038,0.3957589354405708,-0.8978794677202854,0.6242462112002858,0.0008001327514648438,0.0015320777893066406,0
0.7000248432159424,0.05379405990242958,0.008518747985363007,0.18334555625915527,0.16481234043984963,-0.7526164335223023,0.02769478853745462,0.4875840724649943,0.591114954536491,0.44910167149401203,0.397878987458856,-0.8989394937294279,0.6283289370199181,0.0007166862487792969,0.0011022090911865234,0
0.7106225490570068,0.05379405990242958,0.008518747985363007,0.18334555625915527,0.16481234043984963,-0.7495836647453418,0.031834504419208355,0.5027064760114666,0.5892638722991704,0.4470578116336625,0.4001741034316448,-0.9000870517158224,0.6327680936619439,0.0008172988891601562,0.0013887882232666016,0
0.7203526496887207,0.05732383206486702,0.010471556335687637,0.17406266927719116,0.16983210360948908,-0.7467457166490373,0.03620545292232446,0.5159641858762003,0.5876141011215318,0.4451709477614115,0.4022720811455931,-0.9011360405727965,0.6368438286837148,0.0011756420135498047,0.0019309520721435547,0
0.7305004596710205,0.06092407554388046,0.01247019600123167,0.16474425792694092,0.17485361764959798,-0.7440853382468412,0.04070321486443968,0.5277123906505353,0.5861701885740621,0.44319259374291825,0.40445064575473805,-0.902225322877369,0.6410945333891039,0.0010497570037841797,0.0016179084777832031,0
0.7401888370513916,0.07213449478149414,0.01874520257115364,0.1366313099861145,0.18994150708961796,-0.7407955051102507,0.04299461832804394,0.5424483859635525,0.5810233816342616,0.4412938589924036,0.40652150006560867,-0.9032607500328043,0.6451527914162212,0.0010921955108642578,0.0018205642700195312,0
0.7503175735473633,0.07213449478149414,0.01874520257115364,0.1366313099861145,0.18994150708961796,-0.7382040629183799,0.047229632034963484,0.5524076566070107,0.5790115840981522,0.4392984772005623,0.40867694812561556,-0.9043384740628078,0.64939550663834,0.0007987022399902344,0.0013256072998046875,0
0.7605807781219482,0.07499344646930695,0.020497897639870644,0.12650319933891296,0.1949529842175956,-0.7357769186773642,0.05157182972952078,0.5599882732087412,0.5773362231412542,0.43726586664408423,0.4108510215004922,-0.905425510750246,0.653694547717514,0.0010421276092529297,0.0017185211181640625,0
0.7704520225524902,0.08092886954545975,0.024164967238903046,0.10626599937677383,0.20493332374212117,-0.7331185593889522,0.05445082349745464,0.5655945588708643,0.5739713479201884,0.4353007317585288,0.41293252830273536,-0.9064662641513677,0.6578294049154847,0.0010366439819335938,0.0016334056854248047,0
0.7801368236541748,0.08715738356113434,0.028032993897795677,0.08597968518733978,0.21485367666180064,-0.7303165799780146,0.05640410416384923,0.5688608152439203,0.5694171411453295,0.43336308363162274,0.4149655862180515,-0.9074827931090257,0.6618861649144888,0.0008368492126464844,0.0014324188232421875,0
0.7903745174407959,0.08715738356113434,0.028032993897795677,0.08597968518733978,0.21485367666180064,-0.7281003661651526,0.06038646077700558,0.5714371729529416,0.5678373372730537,0.43130449476742855,0.4171048223089889,-0.9085524111544944,0.6661745200597888,0.0008802413940429688,0.0014128684997558594,0
0.8003807067871094,0.0903753712773323,0.030040472745895386,0.07586098462343216,0.2198177407867662,-0.7260229161489943,0.06422017446740073,0.5727527158313833,0.5664416847140923,0.42928225187010377,0.4191858158732625,-0.9095929079366312,0.6703659028518965,0.0008978843688964844,0.0014445781707763672,0
0.8103682994842529,0.09699759632349014,0.034194137901067734,0.0556841716170311,0.22966307016984147,-0.7237529321577041,0.06656311975626232,0.5715136815704466,0.5633416231099568,0.42725375484899303,0.4212531649346228,-0.9106265824673113,0.6745494958978155,0.0007996559143066406,0.0012121200561523438,0
0.8201737403869629,0.10385409742593765,0.038521066308021545,0.03560257330536842,0.2394513861890033,-0.7213741340381297,0.0677669414622477,0.5676907095752631,0.5590411816143008,0.42525256770862196,0.42327326121221487,-0.9116366306061074,0.6786567893785039,0.0006327629089355469,0.0009837150573730469,0
0.830437183380127,0.10385409742593765,0.038521066308021545,0.03560257330536842,0.2394513861890033,-0.719472253674139,0.0711752909524369,0.5657152218470259,0.5576429714189279,0.4231476772185144,0.42537753027701863,-0.9126887651385093,0.6829559303262188,0.0008692741394042969,0.0013387203216552734,0
0.8403491973876953,0.10735947638750076,0.04074818640947342,0.02560412511229515,0.2443378475861667,-0.7176937806641029,0.07436162332994026,0.5627530274678889,0.5563888164714096,0.42110497570294997,0.42739981216446254,-0.9136999060822313,0.6871078650446796,0.0013060569763183594,0.0023145675659179688,0
0.8502190113067627,0.11091066151857376,0.0430162213742733,0.015637166798114777,0.24921481299711654,-0.7160280463382765,0.07712240843541801,0.5588454084425729,0.5552323691269342,0.4190613678357506,0.42940373774296575,-0.9147018688714829,0.691242123031405,0.0007123947143554688,0.0010886192321777344,0
0.8602285385131836,0.1218130812048912,0.0500575415790081,-0.01415126770734787,0.2637468531549684,-0.7139977813270361,0.0758807197256254,0.548234735299557,0.550545689916657,0.41697909219551604,0.4314260500616569,-0.9157130250308284,0.6954349039830848,0.0006232261657714844,0.0009696483612060547,0
0.8704760074615479,0.1218130812048912,0.0500575415790081,-0.01415126770734787,0.2637468531549684,-0.7123383282033053,0.07752525150199678,0.5417595370026733,0.548874695333405,0.4148372081565721,0.4334859752389469,-0.9167429876194734,0.699727353738561,0.0008175373077392578,0.0013499259948730469,0
0.8804214000701904,0.12551726400852203,0.05247944965958595,-0.024004630744457245,0.26855550314074655,-0.710791206625533,0.07907857587816262,0.5347203443957863,0.5474639530257672,0.41274873178230104,0.43547501008910044,-0.9177375050445502,0.7038932700527446,0.0005300045013427734,0.0007863044738769531,0
0.890294075012207,0.1330139935016632,0.057432230561971664,-0.043587278574705124,0.2781395617915712,-0.7091534390439157,0.0782461515532339,0.5236156420373521,0.5444332124356018,0.41066609315046343,0.43743955003695634,-0.9187197750184781,0.7080287264619606,0.001039743423461914,0.0017323493957519531,0
0.9001181125640869,0.14060980081558228,0.06252021342515945,-0.06299615651369095,0.2876399614213896,-0.7074617650532292,0.0758103394686546,0.5091568221406563,0.5402922056173659,0.408584433059545,0.4393845252866903,-0.9196922626433451,0.7121438096888374,0.0017123222351074219,0.002111673355102539,0
0.9104630947113037,0.14060980081558228,0.06252021342515945,-0.06299615651369095,0.2876399614213896,-0.7060500217192267,0.07654614630605025,0.5000985326087171,0.5390184511094794,0.4063824313130281,0.441421929133694,-0.920710964566847,0.7164771056775325,0.000823974609375,0.001268148422241211,0
0.9202826023101807,0.14443568885326385,0.06511327624320984,-0.07263018190860748,0.292337110768546,-0.7047412140456972,0.07708952752366113,0.4905685776165153,0.5379078378430129,0.4042828812295391,0.4433456348547286,-0.9216728174273643,0.7205902914021327,0.0007741451263427734,0.0012285709381103516,0
0.9302256107330322,0.14827531576156616,0.06773650646209717,-0.08227449655532837,0.29702141514117175,-0.7035128662129264,0.07733164925138125,0.4806198469438924,0.5369356199300586,0.4021476464095253,0.44528335976912437,-0.9226416798845621,0.7247552090309076,0.0005886554718017578,0.0008993148803710938,0
0.9401674270629883,0.1598527431488037,0.07578890025615692,-0.11089855432510376,0.3109824476323249,-0.7021044548756779,0.07217951881568951,0.461714434079851,0.5325813206138844,0.40000338187379136,0.44721057063706554,-0.9236052853185327,0.7289196273169781,0.0005755424499511719,0.0008835792541503906,0
0.9502730369567871,0.1598527431488037,0.07578890025615692,-0.11089855432510376,0.3109824476323249,-0.7008880686394512,0.07088983835132433,0.4495458755271231,0.5311207793326136,0.3978143252584108,0.44915895028285396,-0.9245794751414269,0.7331526552906318,0.0006968975067138672,0.0010657310485839844,0
0.9602210521697998,0.16372060775756836,0.07852990925312042,-0.1203349232673645,0.31560556205753154,-0.6997481110715226,0.0695251022577084,0.4375815537401567,0.5299273166802331,0.39565013680912514,0.4510664798485036,-0.9255332399242517,0.7373196701587652,0.0005524158477783203,0.0008528232574462891,0
0.9703073501586914,0.16758839786052704,0.08129867166280746,-0.12971636652946472,0.32020476706527395,-0.6986854154576987,0.0679878499487979,0.4257207154601046,0.5289515090380666,0.3934465270838479,0.45298987883357716,-0.9264949394167885,0.7415446087806078,0.0009210109710693359,0.0014147758483886719,0
0.9801135063171387,0.1791631430387497,0.08974645286798477,-0.1575234830379486,0.3338872218220428,-0.6975053512912166,0.06110996534874512,0.40456460267576766,0.524677945040039,0.3912951567662321,0.4548495358811415,-0.9274247679405707,0.7456522018669187,0.0005831718444824219,0.0008780956268310547,0
0.9902420043945312,0.1791631430387497,0.08974645286798477,-0.1575234830379486,0.3338872218220428,-0.6964563998004785,0.05853564135624431,0.39078324137855175,0.5232773705677796,0.3890638406392239,0.4567595953092355,-0.9283797976546178,0.7498948172204967,0.0007216930389404297,0.0011360645294189453,0
1.0001952648162842,0.18300290405750275,0.092607282102108,-0.16673217713832855,0.33839925783782676,-0.695475563495229,0.055945050463285274,0.37743110378227435,0.5221684359726417,0.38686204618741726,0.4586259447738261,-0.929312972386913,0.7540640291965294,0.0006070137023925781,0.0009505748748779297,0
1.010284423828125,0.18682944774627686,0.09549103677272797,-0.1758810132741928,0.34287672020504234,-0.6945581813597781,0.05336895154688534,0.3643440000785173,0.5212979456730017,0.384621052389537,0.460506944636848,-0.9302534723184239,0.7582901662408625,0.0007257461547851562,0.001104116439819336,0
1.0199081897735596,0.19820904731750488,0.1042625680565834,-0.20295770466327667,0.35620738164809806,-0.6935736267258047,0.044959084743311034,0.3420707924000897,0.5172012762805476,0.38247490787800725,0.4622909742183054,-0.9311454871091527,0.7623213598934018,0.0004482269287109375,0.0006783008575439453,0
1.0303242206573486,0.19820904731750488,0.1042625680565834,-0.20295770466327667,0.35620738164809806,-0.6926754587203964,0.041284871879835136,0.3274553944124077,0.5159697416577148,0.38014276121814744,0.4642105999365401,-0.93210529996827,0.7666844167072786,0.0013186931610107422,0.0016062259674072266,0
1.0401206016540527,0.2019582837820053,0.10722547769546509,-0.21185529232025146,0.36063646514996933,-0.6918449934595295,0.03770292598783736,0.3135771362198538,0.5149855570832628,0.37794056124148523,0.46600529199620805,-0.933002645998104,0.7707879151834136,0.0006089210510253906,0.0009310245513916016,0
1.0501372814178467,0.20568272471427917,0.1102086529135704,-0.22068771719932556,0.36504878548605063,-0.6910680394616212,0.034176359520468734,0.30029572637377233,0.5142155127904697,0.375680078335014,0.467829540262474,-0.9339147701312369,0.7749836921913198,0.0005669593811035156,0.0008835792541503906,0
1.0600953102111816,0.21670587360858917,0.11924965679645538,-0.24685165286064148,0.37818609136962206,-0.6902623628669502,0.024755329587487614,0.2787231066132026,0.5103141064744784,0.3734241032113774,0.46963223818300476,-0.9348161190915023,0.77915490153817,0.0005640983581542969,0.0008611679077148438,0
1.0701720714569092,0.21670587360858917,0.11924965679645538,-0.24685165286064148,0.37818609136962206,-0.6895135859006293,0.02023935271428443,0.264503238264528,0.5091660268619457,0.3711324242323026,0.47144535598885073,-0.9357226779944253,0.7833758454183775,0.0006589889526367188,0.0010695457458496094,0
1.0801944732666016,0.22031764686107635,0.12229614704847336,-0.255474328994751,0.382515526287109,-0.6888210926134205,0.015870173282672324,0.2511661700622497,0.5083131370663769,0.36884437555385496,0.47323760060067793,-0.936618800300339,0.7875740192712648,0.0006439685821533203,0.0009484291076660156,0
1.0901250839233398,0.22743196785449982,0.12843507528305054,-0.27250516414642334,0.3911462642208887,-0.6881659841780136,0.008559627818508223,0.23412705818188131,0.5060394958656855,0.3665687457300028,0.47500247857662026,-0.9375012392883101,0.7917337437359141,0.0006334781646728516,0.0009915828704833984,0
1.1000087261199951,0.23439253866672516,0.13462279736995697,-0.2892521917819977,0.39970747029448284,-0.6875208255076681,-0.0008365164221071988,0.21479520102061506,0.5027900791704991,0.36429549399710504,0.4767481442579564,-0.9383740721289782,0.7958737940980104,0.0005192756652832031,0.0008127689361572266,0
1.1101295948028564,0.23439253866672516,0.13462279736995697,-0.2892521917819977,0.39970747029448284,-0.6869193287295854,-0.005400571383787474,0.2020783642702606,0.5021051808706102,0.36195906553564866,0.4785244349837947,-0.9392622174918973,0.8001132136582803,0.0005450248718261719,0.0008153915405273438,0
1.120068073272705,0.23781023919582367,0.13773590326309204,-0.2975185811519623,0.4039523536294326,-0.6863718850115837,-0.009862692327035212,0.19014064640835573,0.5015950493629628,0.3596563137266093,0.4802575725551725,-0.9401287862775862,0.8042762337847785,0.0006711483001708984,0.0010776519775390625,0
1.1302449703216553,0.24451355636119843,0.1439957320690155,-0.31383588910102844,0.41242328922543375,-0.6858577573949399,-0.01723813273359473,0.17496703602825003,0.499659959591748,0.35728972111774604,0.4820208036834128,-0.9410104018417064,0.8085391224521546,0.0008230209350585938,0.0012319087982177734,0
1.14029860496521,0.2510359585285187,0.15029306709766388,-0.32996973395347595,0.420817640450336,-0.6853561995043834,-0.026502383707875762,0.15761056256677491,0.4967367933942036,0.35494330465128426,0.48375122788808045,-0.9418756139440402,0.812750379083897,0.0025217533111572266,0.0038824081420898438,0
1.150305986404419,0.2510359585285187,0.15029306709766388,-0.32996973395347595,0.420817640450336,-0.6848859355320448,-0.03105875674855137,0.14620509001870516,0.49626248472572737,0.3525993602319223,0.48546234783352565,-0.9427311739167628,0.8169422612187089,0.0008132457733154297,0.0012450218200683594,0
1.1606340408325195,0.2548677623271942,0.15346211194992065,-0.33963122963905334,0.4249797356323984,-0.6844010765442375,-0.03513443589747099,0.13563182637474505,0.4959920390988803,0.3501716583091792,0.48721638900697856,-0.9436081945034892,0.8212684665410018,0.0006742477416992188,0.0010426044464111328,0
1.1701607704162598,0.26233798265457153,0.15981407463550568,-0.3586021065711975,0.43305124868679695,-0.6838479798377823,-0.04143570272843593,0.1225908519365878,0.49427226782349254,0.347924577315791,0.4888235760472566,-0.9444117880236282,0.8252590136974038,0.0006394386291503906,0.0009920597076416016,0
1.1799366474151611,0.26954883337020874,0.16618405282497406,-0.37710949778556824,0.4410354156154882,-0.6832404298860709,-0.04952733231409706,0.1083476690648817,0.4916100624575465,0.34561106175976225,0.49046202094483293,-0.9452310104724164,0.8293539234790233,0.0004916191101074219,0.0007572174072265625,0
1.1902196407318115,0.26954883337020874,0.16618405282497406,-0.37710949778556824,0.4410354156154882,-0.6827059426119796,-0.05316521106455005,0.09924754289808345,0.491361709784307,0.343169208904971,0.49217364218285437,-0.9460868210914272,0.8336612536470902,0.0008246898651123047,0.0013270378112792969,0
1.2000932693481445,0.273048996925354,0.16937869787216187,-0.3861923813819885,0.44503389523985026,-0.6821995616812249,-0.05645109781899282,0.09090669510071053,0.4912394240334284,0.3408165880578794,0.4938056837507905,-0.9469028418753952,0.8377971095304695,0.0008137226104736328,0.0012722015380859375,0
1.210172414779663,0.279849112033844,0.17577791213989258,-0.4040651023387909,0.45291193059666196,-0.6816767998217473,-0.062041837699555756,0.08049831016532787,0.48978275122024006,0.33840699292381204,0.4954600964157083,-0.9477300482078541,0.8420190520960857,0.0007483959197998047,0.0012257099151611328,0
1.2200596332550049,0.28637799620628357,0.1821899116039276,-0.4215335547924042,0.46070661619155723,-0.6811403228465298,-0.06905477977879207,0.06905772696643737,0.4873931729674465,0.33603547804094935,0.4970715818650173,-0.9485357909325086,0.8461606004862953,0.0007507801055908203,0.001203298568725586,0
1.230381727218628,0.28637799620628357,0.1821899116039276,-0.4215335547924042,0.46070661619155723,-0.6806798171939307,-0.071963441672823,0.061905132151858056,0.4873418525066227,0.33355146882632825,0.4987418346637857,-0.9493709173318928,0.8504843090950661,0.0008974075317382812,0.0013813972473144531,0
1.2401783466339111,0.2895415723323822,0.18539735674858093,-0.4301009774208069,0.46458343080552084,-0.6802578048733927,-0.07457580509214672,0.05536868040911214,0.4873909799675933,0.3311862353624795,0.5003155779170065,-0.9501577889585032,0.854587907439742,0.0007662773132324219,0.001172780990600586,0
1.250173568725586,0.29263660311698914,0.18860656023025513,-0.4385589361190796,0.46845755558682023,-0.6798723772984326,-0.07704177052628908,0.049238073567049616,0.48754267172570714,0.3287654005815723,0.5019096645617,-0.95095483228085,0.8587746962789692,0.0008103847503662109,0.0013208389282226562,0
1.260528802871704,0.301509827375412,0.19823457300662994,-0.46328118443489075,0.4800319059803965,-0.6794643816663309,-0.08365423559664016,0.03941901863670801,0.4849349891907823,0.3262492797656333,0.5035488133760276,-0.9517744066880138,0.8631122866149221,0.0009248256683349609,0.0015630722045898438,0
1.2704501152038574,0.301509827375412,0.19823457300662994,-0.46328118443489075,0.4800319059803965,-0.6791158429000682,-0.0864076318398628,0.033310825929617274,0.48466805504332894,0.32383092694403787,0.5051074447625625,-0.9525537223812812,0.8672681162064771,0.0010726451873779297,0.001708984375,0
1.2803964614868164,0.3043307065963745,0.2014433741569519,-0.4713069796562195,0.4838387801617232,-0.6788058973551294,-0.08877112467250704,0.027940547523939742,0.48461601411094135,0.3213989977562949,0.5066583506084245,-0.9533291753042121,0.8714344319948243,0.0009038448333740234,0.0013747215270996094,0
1.2901532649993896,0.3097706139087677,0.20785637199878693,-0.4871678948402405,0.4914172403181252,-0.6785075997043685,-0.09277266112515874,0.0213083527805967,0.4832702128986893,0.31900619577867856,0.508168325513127,-0.9540841627565635,0.8755213522931735,0.00048828125,0.0007240772247314453,0
1.300041913986206,0.3149375319480896,0.21426352858543396,-0.5025993585586548,0.49897510542691975,-0.6782352182472794,-0.09811987828889304,0.01415755257820812,0.4810472764063967,0.3165738213116481,0.5096871743139518,-0.9548435871569758,0.8796634998946283,0.0004661083221435547,0.0006957054138183594,0
1.3100545406341553,0.3149375319480896,0.21426352858543396,-0.5025993585586548,0.49897510542691975,-0.6780088020573007,-0.10003201848999808,0.00985863395716146,0.48106409601213757,0.3141035835595038,0.511213202876332,-0.9556066014381659,0.8838575791373395,0.0004825592041015625,0.0007297992706298828,0
1.3201301097869873,0.31741875410079956,0.21746590733528137,-0.5101577043533325,0.5027026546966251,-0.6778151412269608,-0.10162279439774882,0.006130971117123595,0.4812605639298847,0.3116103917440845,0.5127367392308632,-0.9563683696154315,0.8880780236748427,0.00044536590576171875,0.00066375732421875,0
1.330207347869873,0.3221789300441742,0.22385956346988678,-0.5249634385108948,0.5101589073122453,-0.6776501384354497,-0.10488159650218383,0.0011032156510046116,0.4801850398800191,0.30910939548032196,0.5142483657006505,-0.9571241828503252,0.8922991672921319,0.0004761219024658203,0.0007371902465820312,0
1.339946985244751,0.3266463577747345,0.23023703694343567,-0.5394641160964966,0.5176109599931078,-0.6775140238195057,-0.1092035380816772,-0.004599831091674436,0.47816746947653466,0.3066852168559879,0.5156977581510276,-0.9578488790755137,0.8963788970555379,0.00047516822814941406,0.0007176399230957031,0
1.3502254486083984,0.3266463577747345,0.23023703694343567,-0.5394641160964966,0.5176109599931078,-0.6774046680743806,-0.11040899458269415,-0.007938737417148619,0.4783697207205012,0.3041195561502055,0.5172149413609414,-0.9586074706804706,0.9006843297213281,0.00046825408935546875,0.0006961822509765625,0
1.3602709770202637,0.32877907156944275,0.23341691493988037,-0.5465574860572815,0.5213491203054674,-0.6773298657163204,-0.11133834429738061,-0.010950395285572578,0.47868748982455234,0.3016047869110007,0.5186854080387937,-0.9593427040193968,0.9048921908226806,0.0004775524139404297,0.0007174015045166016,0
1.3700816631317139,0.3328378200531006,0.23976004123687744,-0.5604379773139954,0.528808182834247,-0.6772841091633796,-0.1140385556334983,-0.015069796818086826,0.47765386820084355,0.2991419445803525,0.5201096970761893,-0.9600548485380946,0.9090016814112682,0.0004963874816894531,0.0007715225219726562,0
1.3800911903381348,0.3366217017173767,0.24608059227466583,-0.5739148259162903,0.5362644754001014,-0.6772784113649009,-0.11762498074245091,-0.019546919003853816,0.47570648957604855,0.29662225449586077,0.5215508011093385,-0.9607754005546691,0.9131944623629481,0.0007355213165283203,0.001173257827758789,0
1.3902537822723389,0.3366217017173767,0.24608059227466583,-0.5739148259162903,0.5362644754001014,-0.6772787790018804,-0.11838659840590489,-0.022098450661844835,0.47593963235330694,0.2940569315132428,0.5230014541366171,-0.9615007270683085,0.9174513589178717,0.0006508827209472656,0.0010347366333007812,0
1.400261402130127,0.3384162485599518,0.24923227727413177,-0.5805020332336426,0.5400239652796157,-0.6773069064829537,-0.11877087938949568,-0.0242750281835992,0.47626503811413157,0.2915237946187885,0.5244176552816108,-0.9622088276408054,0.9216433409212245,0.0006241798400878906,0.0009891986846923828,0
1.410252332687378,0.3418097198009491,0.25551730394363403,-0.5934524536132812,0.5474988279671741,-0.6773766379391193,-0.12055672828827065,-0.027084409071762364,0.4752591185389,0.28898807878456995,0.5258192563233142,-0.962909628161657,0.9258283321267159,0.0006718635559082031,0.0010023117065429688,0
1.420041561126709,0.34494102001190186,0.2617776393890381,-0.6060129404067993,0.5549401165213812,-0.6774793049301043,-0.12330582278108312,-0.03027392815230627,0.4733020653137021,0.2864970190934971,0.5271806692686486,-0.9635903346343242,0.9299288345466244,0.0007061958312988281,0.0011034011840820312,0
1.4302687644958496,0.34494102001190186,0.2617776393890381,-0.6060129404067993,0.5549401165213812,-0.6775712315803433,-0.12350912358822372,-0.03196724520514547,0.4735387226033402,0.2838876588062596,0.5285903869514661,-0.964295193475733,0.9342127954761259,0.0006144046783447266,0.0009124279022216797,0
1.441497564315796,0.34641021490097046,0.26489588618278503,-0.6121479868888855,0.5586673040649703,-0.6776854648317414,-0.12321981289676144,-0.03337969948687703,0.47407050721708394,0.28101476582042784,0.5301232888591956,-0.9650616444295977,0.9389163041458558,0.0030934810638427734,0.004133462905883789,0
1.4500043392181396,0.3491581976413727,0.2711082398891449,-0.6241298913955688,0.5661233881298252,-0.6778470384293401,-0.1244211924772991,-0.03536063650291936,0.47298300663664233,0.2788327890177117,0.5312742001721938,-0.9656371000860968,0.9424796136843818,0.0005123615264892578,0.0007505416870117188,0
1.460066795349121,0.3516571819782257,0.27728593349456787,-0.6357340812683105,0.5735919312513785,-0.6780492927974439,-0.12627132635687272,-0.03765270410662043,0.47100155253748277,0.27624569956122896,0.5326239888269465,-0.9663119944134733,0.9466945654521366,0.00049591064453125,0.0007491111755371094,0
1.470158576965332,0.3516571819782257,0.27728593349456787,-0.6357340812683105,0.5735919312513785,-0.678223591181768,-0.12590065611025197,-0.03876579338514965,0.47119968854335653,0.2736445079496389,0.5339650580974377,-0.9669825290487188,0.9509218010504193,0.0006015300750732422,0.000911712646484375,0
1.4800543785095215,0.35281503200531006,0.28035953640937805,-0.6414241194725037,0.5773345326149925,-0.6784087263876178,-0.12529683049318105,-0.03972732812216279,0.4714894212702126,0.27108750869807396,0.5352677485407389,-0.9676338742703694,0.9550669447081004,0.0005402565002441406,0.0008189678192138672,0
1.4900457859039307,0.3539212644100189,0.28340888023376465,-0.6470227837562561,0.5810929412242005,-0.6786062361800533,-0.12454548047577771,-0.04051544166061003,0.4718522857356236,0.2684995143479599,0.5365706018735182,-0.9682853009367591,0.9592521356506736,0.0006034374237060547,0.0009107589721679688,0
1.4999773502349854,0.35688135027885437,0.2925040125846863,-0.6632792949676514,0.5918987822010214,-0.6788853625062854,-0.1260804037671901,-0.04210085966648494,0.469614107403685,0.26592081532414563,0.537853251340309,-0.9689266256701545,0.9634122595894864,0.0005776882171630859,0.0008780956268310547,0
1.5113787651062012,0.35688135027885437,0.2925040125846863,-0.6632792949676514,0.5918987822010214,-0.6791250509770003,-0.1252911061725485,-0.042665622183446814,0.46983830507754737,0.2629529234293613,0.5393104486841994,-0.9696552243420997,0.9681880730828119,0.002615690231323242,0.004319667816162109,0
1.520641565322876,0.35775336623191833,0.2955150306224823,-0.6685201525688171,0.5954744183056773,-0.679374250348178,-0.12435493606028572,-0.043030152598087644,0.47010940719835587,0.26053584950807523,0.5404822579151933,-0.9702411289575966,0.9720680657644619,0.0018596649169921875,0.0031104087829589844,0
1.5300614833831787,0.3585684299468994,0.29851552844047546,-0.6736739873886108,0.5990357275516497,-0.6796254483884445,-0.12340319823672705,-0.04333865355102776,0.4704433320938829,0.2580724214167523,0.5416628336004735,-0.9708314168002368,0.9760138718145506,0.0006854534149169922,0.0010275840759277344,0
1.5402641296386719,0.36067548394203186,0.3074416220188141,-0.6887751817703247,0.6098373188396198,-0.6799808222785403,-0.12410393490708838,-0.0442662662363905,0.4682291660526684,0.2553982669140371,0.5429288399572325,-0.9714644199786162,0.9802875462843416,0.0007233619689941406,0.00112152099609375,0
1.5502150058746338,0.36067548394203186,0.3074416220188141,-0.6887751817703247,0.6098373188396198,-0.6802802792000231,-0.12299480195737471,-0.04448124314852056,0.46824237411848985,0.2527841194691686,0.5441508880303303,-0.9720754440151651,0.9844557595749654,0.0007624626159667969,0.0012311935424804688,0
1.5604994297027588,0.3628120720386505,0.3108576536178589,-0.6954824924468994,0.613442785549028,-0.6805178601958144,-0.12093950519094344,-0.04337107356191624,0.46851506506708973,0.2500762036013622,0.5454006714263653,-0.9727003357131826,0.9887636889542777,0.0007793903350830078,0.0011827945709228516,0
1.5703790187835693,0.36486461758613586,0.31425216794013977,-0.702058732509613,0.6169464915648307,-0.6807025303021386,-0.11831695832394441,-0.04133776064104532,0.468943838854766,0.24746906220127354,0.5465885685350748,-0.9732942842675374,0.992902041551179,0.0009474754333496094,0.001508951187133789,0
1.5801374912261963,0.37053993344306946,0.324306458234787,-0.7210279703140259,0.627388507017458,-0.6808201860048745,-0.11604565362449729,-0.03713575202118362,0.4668611682373696,0.2448883430801528,0.5477496685744843,-0.9738748342872421,0.9969896609293144,0.0006945133209228516,0.0010731220245361328,0
1.590386152267456,0.37053993344306946,0.324306458234787,-0.7210279703140259,0.627388507017458,-0.6809378873187988,-0.11276929904203718,-0.03360735063637218,0.4670131296409611,0.24217212512197045,0.5489559743858414,-0.9744779871929207,1.001282610027495,0.0007762908935546875,0.0011944770812988281,0
1.60025954246521,0.3722744882106781,0.32761260867118835,-0.7271257042884827,0.6308775012014116,-0.6810482179487791,-0.1092018939372206,-0.029944023939476157,0.4673620208518625,0.23954974539306964,0.5501053712536494,-0.9750526856268247,1.0054183660423335,0.0006973743438720703,0.001087188720703125,0
1.610381841659546,0.37551817297935486,0.3341573178768158,-0.738960862159729,0.6378328538243162,-0.6811425172615153,-0.10560089520101337,-0.025381203185826633,0.4665880427259774,0.2368555926824344,0.5512707394874615,-0.9756353697437308,1.0096583848138485,0.0010528564453125,0.0013515949249267578,0
1.6199324131011963,0.3784700930118561,0.3406147360801697,-0.750333845615387,0.6448108735052562,-0.6812343141245961,-0.10220357614593925,-0.02029428193406534,0.46492964727995506,0.2343084121635205,0.5523581881256127,-0.9761790940628063,1.0136589188243383,0.0005533695220947266,0.0008487701416015625,0
1.6301946640014648,0.3784700930118561,0.3406147360801697,-0.750333845615387,0.6448108735052562,-0.6813320952533497,-0.09813124877737947,-0.01613010023832362,0.46538070214529137,0.23156586061499793,0.5535135519548147,-0.9767567759774073,1.017957560429349,0.0007021427154541016,0.0010318756103515625,0
1.640465497970581,0.37983888387680054,0.3438093364238739,-0.7558518648147583,0.6482869903211916,-0.6814294982821082,-0.09388485347979986,-0.012107763896290223,0.4660063152660603,0.22881531132791288,0.5546562478706161,-0.977328123935308,1.022259797301831,0.0007300376892089844,0.0010421276092529297,0
1.6500012874603271,0.3823731541633606,0.35013052821159363,-0.7665632367134094,0.6552766212535196,-0.6815352438761603,-0.08981451430823607,-0.0075763290458800425,0.4653209967189026,0.2262565592212913,0.5557049301646894,-0.9778524650823446,1.0262541394627864,0.0004756450653076172,0.0007135868072509766,0
1.6600236892700195,0.3846447765827179,0.3563612401485443,-0.7769097089767456,0.662206166927872,-0.6816547573452052,-0.08592666251250035,-0.0029164522383785104,0.4638170158699891,0.2235620545598136,0.5567944034928826,-0.9783972017464413,1.0304523133156736,0.0005679130554199219,0.0008230209350585938,0
1.6700518131256104,0.3846447765827179,0.3563612401485443,-0.7769097089767456,0.662206166927872,-0.6817731907810098,-0.08155247238809153,0.0009205632849324267,0.46433939673585617,0.2208607612291811,0.5578714225959837,-0.9789357112979917,1.034652884013542,0.0003864765167236328,0.0006086826324462891,0
1.6801187992095947,0.385684609413147,0.35944193601608276,-0.7819572687149048,0.6656776913086077,-0.6818989617902894,-0.07709570965089496,0.004595586549107262,0.4649846442847169,0.21814378103532542,0.5589394339242956,-0.9794697169621478,1.0388697332835735,0.0005631446838378906,0.0008637905120849609,0
1.6902601718902588,0.3875827491283417,0.3655379116535187,-0.7917439341545105,0.6726554911449106,-0.6820543381458097,-0.07303737474039271,0.00858221617217653,0.4644125655556909,0.21540150308291423,0.5600019575587404,-0.9800009787793702,1.0431177415383588,0.0006499290466308594,0.0009915828704833984,0
1.7000095844268799,0.3892393410205841,0.371553897857666,-0.8011271953582764,0.6796555875230168,-0.6822432607337773,-0.06954848807206268,0.012474825455462302,0.46291850491576325,0.21276033342196932,0.561010731200547,-0.9805053656002735,1.047201565911941,0.0006160736083984375,0.0009615421295166016,0
1.7102420330047607,0.3892393410205841,0.371553897857666,-0.8011271953582764,0.6796555875230168,-0.6824157050052085,-0.06542958109592219,0.01575161317345481,0.46348004036190776,0.20998322668406164,0.5620560866242353,-0.9810280433121177,1.0514877239493416,0.0007426738739013672,0.0011243820190429688,0
1.720245122909546,0.3899801969528198,0.3745286166667938,-0.8056710362434387,0.6832014707583924,-0.6826054789546229,-0.061291939798535755,0.01868118299052755,0.4641147093400978,0.20726340334938334,0.5630647224183298,-0.9815323612091649,1.055677808450418,0.0007722377777099609,0.0011982917785644531,0
1.730292797088623,0.39129361510276794,0.38040927052497864,-0.8144680261611938,0.6902524452248088,-0.6828340154039145,-0.05775159567368002,0.02150033211593956,0.46349310493247264,0.20452658062486234,0.5640646042944918,-0.9820323021472459,1.0598865683686383,0.0007860660552978516,0.0011930465698242188,0
1.7406742572784424,0.39238643646240234,0.38620471954345703,-0.8229896426200867,0.6973335162486567,-0.6831048915339958,-0.05481427728746808,0.024042168086547168,0.462033331714294,0.20169377437143046,0.5650837295302409,-0.9825418647651204,1.0642351442440876,0.0006749629974365234,0.0010383129119873047,0
1.7501895427703857,0.39238643646240234,0.38620471954345703,-0.8229896426200867,0.6973335162486567,-0.6833388530707034,-0.05121523069566701,0.026284979449131832,0.4625061325941573,0.19909286086209688,0.566005329262672,-0.9830026646313359,1.0682208977105274,0.0005195140838623047,0.0007762908935546875,0
1.7602925300598145,0.3928523063659668,0.3890695571899414,-0.8271097540855408,0.7008846708073162,-0.6835800780326968,-0.04762758465054693,0.02829875639072326,0.46309230134366786,0.19632669683338055,0.5669707471382398,-0.9834853735691198,1.0724528271302316,0.0006690025329589844,0.0010433197021484375,0
1.7703068256378174,0.39326557517051697,0.3919110894203186,-0.8311383724212646,0.7044193875879022,-0.6838311238905792,-0.04401711618209428,0.029960829380816387,0.46375018990824485,0.19358019643374413,0.5679143487786456,-0.9839571743893227,1.076647605452729,0.0009675025939941406,0.0016546249389648438,0
1.780592918395996,0.3941851258277893,0.40029677748680115,-0.8426855206489563,0.7150922374351237,-0.6841786799830728,-0.04185333800206469,0.030834527227360832,0.46182410117262296,0.19075443283757915,0.5688697094702911,-0.9844348547351456,1.0809562339118273,0.0006353855133056641,0.0009725093841552734,0
1.79026460647583,0.3941851258277893,0.40029677748680115,-0.8426855206489563,0.7150922374351237,-0.6844699772915478,-0.03878665710536512,0.03187530132830629,0.4619951190843415,0.18809315470239507,0.5697551800151542,-0.984877590007577,1.0850075011410831,0.0008180141448974609,0.0012669563293457031,0
1.8002650737762451,0.39439237117767334,0.4030478298664093,-0.846359372138977,0.718622727807481,-0.6847667562851839,-0.035728643330844995,0.03285849338467961,0.4623617486715664,0.18533708778463978,0.5706576591017671,-0.9853288295508835,1.0891964870882096,0.0007855892181396484,0.0012183189392089844,0
1.8102741241455078,0.39455151557922363,0.4057767987251282,-0.8499475121498108,0.7221853748305058,-0.6850663242399657,-0.0327327436100109,0.033672606672664585,0.46285466218514865,0.18257431999628956,0.5715475637931566,-0.9857737818965783,1.0933890683028078,0.0007398128509521484,0.0011217594146728516,0
1.820021152496338,0.3947426378726959,0.41382429003715515,-0.8603872656822205,0.7328923573861511,-0.6854546404362809,-0.03160233080449125,0.03314019686467828,0.4607155787430745,0.1798797704678414,0.572401317413261,-0.9862006587066304,1.0974718939909809,0.0006780624389648438,0.0010571479797363281,0
1.8300390243530273,0.3947426378726959,0.41382429003715515,-0.8603872656822205,0.7328923573861511,-0.6857748249524921,-0.029215971307534692,0.03319105411081818,0.4607918172383724,0.17710618727470295,0.5732655566393448,-0.9866327783196723,1.1016681703415916,0.0004611015319824219,0.0006880760192871094,0
1.840031623840332,0.39471182227134705,0.41645994782447815,-0.8637049794197083,0.7364857104423688,-0.6860953102525217,-0.026896091084724974,0.03308371507429882,0.4610673936637218,0.17433546472693925,0.5741142270824179,-0.987057113541209,1.105853860626869,0.0005142688751220703,0.0007727146148681641,0
1.8500821590423584,0.39463260769844055,0.41907525062561035,-0.8669413328170776,0.7400867361271878,-0.6864207450310056,-0.02461339602560921,0.032783125764592934,0.46148860032333705,0.1715445761595229,0.5749543098283981,-0.987477154914199,1.11006381896758,0.0005488395690917969,0.0008511543273925781,0
1.8601324558258057,0.39411672949790955,0.4267761707305908,-0.8761783242225647,0.7509735914604407,-0.6868566875311486,-0.024526485819137845,0.030615164214900938,0.4592795818494785,0.16874970606178147,0.5757808061268301,-0.987890403063415,1.11427367743975,0.0006101131439208984,0.0009124279022216797,0
1.8702685832977295,0.39411672949790955,0.4267761707305908,-0.8761783242225647,0.7509735914604407,-0.6872103604280466,-0.02286897143745387,0.029499647226600957,0.45932542664968873,0.16592693475014897,0.576600600350381,-0.9883003001751904,1.118519488586636,0.0009419918060302734,0.00264739990234375,0
1.8801546096801758,0.39385586977005005,0.4292963445186615,-0.8791066408157349,0.7546138367770652,-0.6875587843361918,-0.021078257508118786,0.028337435150020508,0.45954533061955116,0.16316997648056242,0.5773868363370719,-0.9886934181685358,1.1226605376341412,0.0005986690521240234,0.0009458065032958984,0
1.890310525894165,0.3935537338256836,0.431792289018631,-0.8819845914840698,0.7582520204980995,-0.6879052408532687,-0.019184844197366387,0.027205828214735057,0.4599301894241599,0.16033387428861876,0.5781808097434585,-0.9890904048717293,1.1269146378699202,0.0007228851318359375,0.001089334487915039,0
1.9001011848449707,0.39239469170570374,0.43914034962654114,-0.890184223651886,0.7692149318478468,-0.6883613065643635,-0.019943429331599916,0.024207647956871484,0.4576264705914605,0.15759611447052918,0.578933039913764,-0.989466519956882,1.131015739501074,0.0005764961242675781,0.0008974075317382812,0
1.910139560699463,0.39239469170570374,0.43914034962654114,-0.890184223651886,0.7692149318478468,-0.6887281376822304,-0.01890936322587213,0.022494401816265802,0.45759064727142396,0.15478542218908406,0.5796908426719771,-0.9898454213359885,1.1352206045462,0.0005803108215332031,0.0008475780487060547,0
1.9200005531311035,0.3919180929660797,0.441547155380249,-0.8927772641181946,0.7728642466655472,-0.6890879850358795,-0.01786690582858737,0.020847173161947837,0.45774600614522554,0.15202084837077906,0.5804219686233703,-0.9902109843116851,1.139351167396913,0.0006442070007324219,0.0009834766387939453,0
1.9305312633514404,0.3908407688140869,0.446286678314209,-0.8977601528167725,0.7802595708899169,-0.6895009327144583,-0.018071044641456865,0.017958044525029852,0.4567357638049983,0.14906470480361894,0.5811881913647333,-0.9905940956823667,1.1437622609789522,0.0008053779602050781,0.001262664794921875,0
1.9399871826171875,0.38960009813308716,0.45092806220054626,-0.9024792313575745,0.7876866195278064,-0.6899581080577473,-0.019337110006839024,0.014176522611112817,0.45472873701087796,0.1464069800259028,0.5818633827623928,-0.9909316913811963,1.1477231471787133,0.0005512237548828125,0.0008323192596435547,0
1.9500482082366943,0.38960009813308716,0.45092806220054626,-0.9024792313575745,0.7876866195278064,-0.6903235163023619,-0.01866855223924945,0.011919171503406302,0.45490420360266925,0.1435758247093902,0.5825684359446694,-0.9912842179723347,1.151937499735223,0.0005068778991699219,0.0007746219635009766,0
1.960176944732666,0.389950692653656,0.4537709951400757,-0.9068623781204224,0.7913988548539798,-0.6906010487489727,-0.017543278107087768,0.010514279878396931,0.4552259613908503,0.14072218648496077,0.5832643193534917,-0.9916321596767458,1.1561802149573417,0.0005474090576171875,0.0008044242858886719,0
1.9699370861053467,0.39024361968040466,0.45657819509506226,-0.9111301898956299,0.7950434420468022,-0.6908146883567885,-0.016082450036046563,0.009652893730052967,0.45561764894503337,0.13796920370969548,0.5839216547001083,-0.9919608273500541,1.1602685334152631,0.0005664825439453125,0.0009975433349609375,0
1.97995924949646,0.3907824754714966,0.4647851586341858,-0.92326819896698,0.8059124151336592,-0.6909564377384078,-0.016620805121102616,0.008684160230304359,0.45339011476171237,0.13513911963316552,0.5845831150014281,-0.9922915575007141,1.1644666073996097,0.0005207061767578125,0.0007727146148681641,0
1.9901766777038574,0.3907824754714966,0.4647851586341858,-0.92326819896698,0.8059124151336592,-0.6910744752928436,-0.015374517960776872,0.008549357424976398,0.45343589204391227,0.13225063250005833,0.5852433427244896,-0.9926216713622448,1.168746473718935,0.0006127357482910156,0.000946044921875,0
2.0001087188720703,0.39085257053375244,0.4674535095691681,-0.9271005392074585,0.809548137180042,-0.6911708492979216,-0.013926012209322875,0.00868916275124407,0.453664565706717,0.12943973291113045,0.5858714496746664,-0.9929357248373332,1.1729067973948297,0.0004737377166748047,0.0006978511810302734,0
2.01007080078125,0.3908705711364746,0.4700879752635956,-0.930830717086792,0.8131544873476132,-0.6912468468499008,-0.012346669081040977,0.00902305571419472,0.4540372241195062,0.12661733516306564,0.5864878945350909,-0.9932439472675454,1.1770797045068748,0.00046634674072265625,0.0006849765777587891,0
2.0199270248413086,0.390616774559021,0.47779837250709534,-0.9415448904037476,0.8240987500054886,-0.6913184186578244,-0.012963100037627445,0.008935900393145487,0.4517421085224314,0.12382203943578496,0.5870844083689865,-0.9935422041844932,1.18120826998677,0.0005085468292236328,0.0007793903350830078,0
2.030182123184204,0.390616774559021,0.47779837250709534,-0.9415448904037476,0.8240987500054886,-0.691380841835029,-0.011757719090789076,0.009450206482862579,0.4517463389059525,0.12091063823856284,0.5876909200938393,-0.9938454600469195,1.1855039155355542,0.0005590915679931641,0.0008578300476074219,0
2.0412166118621826,0.39043304324150085,0.48030710220336914,-0.9449220299720764,0.8277153372050035,-0.6914387313989377,-0.010410213449472702,0.010140348049776371,0.4521264859540221,0.1177746541475034,0.5883274010620583,-0.9941637005310291,1.1901260313444686,0.0024917125701904297,0.003957986831665039,0
2.0499203205108643,0.3901995122432709,0.4827865958213806,-0.9482055306434631,0.8313307888726057,-0.6914977255593127,-0.009308993541223979,0.010776480973577696,0.4524040025523819,0.11529870636289868,0.5888176358695807,-0.9944088179347903,1.1937718322977597,0.0004749298095703125,0.0007188320159912109,0
2.060155153274536,0.38921788334846497,0.4900462031364441,-0.9575170278549194,0.8422477859170919,-0.6915692822739611,-0.010556522939281164,0.010744389545581092,0.45011202013181145,0.11238459200238032,0.5893807797005757,-0.9946903898502878,1.1980589890205693,0.0006589889526367188,0.001016855239868164,0
2.0701448917388916,0.38921788334846497,0.4900462031364441,-0.9575170278549194,0.8422477859170919,-0.6916302974223997,-0.009838679839726885,0.011279914095204877,0.4500768510954274,0.10953760955126499,0.5899165297682331,-0.9949582648841164,1.2022434808833564,0.0007648468017578125,0.0010683536529541016,0
2.0800423622131348,0.3887997269630432,0.492404967546463,-0.9604920148849487,0.845914082580418,-0.6916987972212344,-0.008904987576708176,0.011841056850344823,0.4502319779663199,0.10671440413958211,0.5904337693163678,-0.9952168846581839,1.2063893236208236,0.0005102157592773438,0.0007586479187011719,0
2.090141534805298,0.3878288269042969,0.49702727794647217,-0.966185450553894,0.8532020362342951,-0.691786771183349,-0.009091292645862814,0.011810043538676592,0.4491939955522915,0.10383114748600368,0.5909476227312702,-0.9954738113656351,1.2106196551438737,0.0005345344543457031,0.0007781982421875,0
2.099921464920044,0.38668012619018555,0.5015262365341187,-0.9715492725372314,0.8604691038748024,-0.6919002596933902,-0.010264197374382457,0.011097834590431656,0.4472785660419907,0.10103667428876502,0.5914318138624823,-0.9957159069312411,1.214716262690688,0.0004153251647949219,0.0006384849548339844,0
2.110309362411499,0.38668012619018555,0.5015262365341187,-0.9715492725372314,0.8604691038748024,-0.6919929569153213,-0.009442550273772278,0.01116396646827255,0.44756948192969165,0.09806601230932784,0.5919316322260086,-0.9959658161130043,1.2190675350167413,0.0006928443908691406,0.0010421276092529297,0
2.1201815605163574,0.386039674282074,0.5037287473678589,-0.9741110801696777,0.864110943819288,-0.6920927587489918,-0.008615000505305592,0.011121766817644948,0.44795798751382276,0.09524053451660468,0.5923928093630032,-0.9961964046815015,1.2232027916888755,0.0008211135864257812,0.0011844635009765625,0
2.1307272911071777,0.38462743163108826,0.5080446004867554,-0.9789984226226807,0.8713705584365685,-0.6922332131244414,-0.009102113972196945,0.010419104802522295,0.44716429661020024,0.09221989435327935,0.592870551710464,-0.996435275855232,1.2276201769889898,0.0010404586791992188,0.0015368461608886719,0
2.1419012546539307,0.3838568925857544,0.5101587772369385,-0.9813269972801208,0.875030182472721,-0.6923758362658078,-0.009086782686421241,0.009884090429818398,0.44699136758682334,0.08901669541111192,0.5933599480400453,-0.9966799740200226,1.2323007158943178,0.0021064281463623047,0.0026671886444091797,0
2.1501355171203613,0.38304558396339417,0.5122422575950623,-0.9836182594299316,0.878696698558168,-0.692515913023784,-0.009089731487007612,0.009194205847561854,0.446788784451761,0.08665454290496427,0.5937095166779219,-0.9968547583389609,1.2357498756906202,0.0007333755493164062,0.0010521411895751953,0
2.1602280139923096,0.3821932077407837,0.514294445514679,-0.9858363270759583,0.8823374010736518,-0.6926593747590271,-0.008900811158284384,0.008475546607669181,0.44686707940987125,0.08375745282229849,0.594125145989227,-0.9970625729946134,1.2399774108945256,0.00047898292541503906,0.0007188320159912109,0
2.1701974868774414,0.3812997043132782,0.5163171887397766,-0.9879809617996216,0.8860141793806381,-0.6928111338130883,-0.008637394251892945,0.007853818352065696,0.4471092059252337,0.08089372033140108,0.5945218297177531,-0.9972609148588765,1.244153413931338,0.0007379055023193359,0.001028299331665039,0
2.17991042137146,0.3783787488937378,0.5222146511077881,-0.9939812421798706,0.8969895879505279,-0.6930524562791217,-0.011416156514297535,0.005777921461367526,0.4446886779715091,0.07810187169821431,0.5948950307720141,-0.997447515386007,1.2482219584181657,0.0005018711090087891,0.0007746219635009766,0
2.1903493404388428,0.3783787488937378,0.5222146511077881,-0.9939812421798706,0.8969895879505279,-0.6932422776564068,-0.011749900064164553,0.004838013819782453,0.44463392089706727,0.07509943155732583,0.5952815093548316,-0.9976407546774158,1.2525946026119668,0.0006148815155029297,0.0009701251983642578,0
