time,x,y,z,yaw,throttle,roll_rate,pitch_rate,yaw_rate,x_ref,y_ref,z_ref,yaw_ref,pred_time,nr_time,metadata
1.1920928955078125e-06,0.04664875566959381,-0.018101802095770836,-0.07444446533918381,0.16833008824096599,-0.7370793145958363,0.09261954072398135,-0.4186048696205672,-0.06312378309029912,0.7368486095130415,0.311535113042972,-1.25,0.0,0.001466989517211914,0.0015799999237060547,Sim
0.009380817413330078,0.04635372757911682,-0.01802564598619938,-0.07437561452388763,0.16832442508770232,-0.7616509101132666,0.1723517510387032,-0.533023408734397,-0.10730830757105357,0.7353794703159603,0.3149873563142142,-1.25,0.0,0.0005347728729248047,0.0005908012390136719,Nonlinear
0.019505739212036133,0.04604412242770195,-0.017927903681993484,-0.0742943212389946,0.16833372011544537,-0.7809754260937359,0.2314386684799137,-0.6131163861140779,-0.13824096034299857,0.7337754426320114,0.3187061339073909,-1.25,0.0,0.0010178089141845703,0.0011072158813476562,0OrderHold
0.02966022491455078,0.04588410258293152,-0.017870036885142326,-0.07425013184547424,0.16833954569913281,-0.7965606865417781,0.27259326102508635,-0.6691814702798545,-0.15989600187725214,0.7321478433879082,0.32242756616399165,-1.25,0.0,0.0009472370147705078,0.001013040542602539,QuatYawError
0.03929638862609863,0.04572094604372978,-0.017806466668844223,-0.07420212030410767,0.16834939516720687,-0.8093145938324656,0.29956037958852816,-0.7084270291958982,-0.17505822450176392,0.7305858690003201,0.32595135836048794,-1.25,0.0,0.0005486011505126953,0.0006017684936523438,0
0.04941582679748535,0.04555255174636841,-0.01773679256439209,-0.07415037602186203,0.16837158650768758,-0.8198343367715848,0.31619550477429426,-0.7358989204371287,-0.18568010209160696,0.7289273019725153,0.3296437295612789,-1.25,0.0,0.0005848407745361328,0.0006542205810546875,0
0.059279441833496094,0.04537931829690933,-0.017662495374679565,-0.0740942731499672,0.16837753867283503,-0.8285411418780086,0.325664913393177,-0.75512924430599,-0.19311764846643056,0.7272927044078645,0.33323463522733454,-1.25,0.0,0.0005533695220947266,0.0006177425384521484,0
0.06942462921142578,0.045203037559986115,-0.017584048211574554,-0.0740329772233963,0.16838559447680826,-0.835754699964685,0.33041789353078793,-0.7685904710141931,-0.19832695185529928,0.725592990710038,0.3369195925327923,-1.25,0.0,0.00057220458984375,0.0006372928619384766,0
0.07958173751831055,0.04483960196375847,-0.017411163076758385,-0.07389556616544724,0.1683732099890112,-0.8417255121206312,0.33219785890000214,-0.7780133297099352,-0.20196882004458505,0.723872576546492,0.3406001951319805,-1.25,0.0,0.0006880760192871094,0.0007467269897460938,0
0.08939123153686523,0.04465317353606224,-0.01732022315263748,-0.07382111996412277,0.16837399607151518,-0.8466580486603384,0.33239493778421214,-0.7846093307969546,-0.2045184225580252,0.7221933185375167,0.3441464959283605,-1.25,0.0,0.0005383491516113281,0.0005917549133300781,0
0.09920358657836914,0.04427294433116913,-0.01713409461081028,-0.07366236299276352,0.16838466187435788,-0.8507217496272647,0.3319657341260975,-0.7892265315578683,-0.20630714399350006,0.7204961897211565,0.347685548444705,-1.25,0.0,0.0005466938018798828,0.00060272216796875,0
0.10957074165344238,0.0440782830119133,-0.01703791134059429,-0.07357695698738098,0.16836435660422144,-0.8540750251073574,0.33136947657505084,-0.7924585720905079,-0.20755163452203185,0.7186842631371464,0.3514156085307211,-1.25,0.0,0.0005726814270019531,0.0006392002105712891,0
0.11949300765991211,0.04388072341680527,-0.016937704756855965,-0.07348733395338058,0.16836098217908393,-0.8568348154651193,0.3308461962269631,-0.7947210004633555,-0.2084215124825779,0.7169320063030634,0.3549767574620404,-1.25,0.0,0.0005345344543457031,0.00058746337890625,0
0.12929964065551758,0.04367845505475998,-0.016831347718834877,-0.07339400798082352,0.16836386851358068,-0.8591056816959026,0.33060644380849624,-0.7963047003243489,-0.20903150943039667,0.7151828314802833,0.3584878206520339,-1.25,0.0,0.0005478858947753906,0.0006031990051269531,0
0.13933014869689941,0.04347245395183563,-0.016721928492188454,-0.07329680770635605,0.16837497408990323,-0.8609733637034683,0.3308396381090941,-0.7974132902270442,-0.20946267188499093,0.7133759371366244,0.3620701207148183,-1.25,0.0,0.0005631446838378906,0.0006258487701416016,0
0.1493849754333496,0.04376089572906494,-0.01707504689693451,-0.07312029600143433,0.16839820740510117,-0.8625073963293827,0.33177531133729293,-0.798189303158931,-0.20977319809640627,0.7115466534109159,0.3656519656992505,-1.25,0.0,0.0005576610565185547,0.0006144046783447266,0
0.15935802459716797,0.04389084130525589,-0.017237890511751175,-0.07303596287965775,0.16840165550961772,-0.8637752150472038,0.33328098588720134,-0.7987325122112517,-0.2099918594835908,0.7097144820143503,0.3691955498365366,-1.25,0.0,0.00057220458984375,0.0006315708160400391,0
0.16925740242004395,0.04401141032576561,-0.017391519621014595,-0.07294880598783493,0.16836967280641194,-0.8648226393105696,0.3352878106802632,-0.7991127585478762,-0.2101329289409179,0.7078783925779308,0.3727038788653599,-1.25,0.0,0.0005450248718261719,0.0006024837493896484,0
0.17945337295532227,0.044122811406850815,-0.017536424100399017,-0.07286088913679123,0.1683714105306591,-0.8656872992557032,0.33776412656110877,-0.7993789309835133,-0.2102323292076396,0.705969163257971,0.37630777367580426,-1.25,0.0,0.0005884170532226562,0.0006468296051025391,0
0.18962883949279785,0.04422520846128464,-0.01767323538661003,-0.07277129590511322,0.1683739856943103,-0.8664093231866081,0.3406526236795908,-0.7995652516884594,-0.210302875080714,0.7040454809415481,0.37989467062040283,-1.25,0.0,0.0005891323089599609,0.0006577968597412109,0
0.19935941696166992,0.04440130665898323,-0.01792294904589653,-0.07258732616901398,0.16837623902062607,-0.8670099313629065,0.3439555894352539,-0.7996956761819216,-0.21035310218923453,0.7021888582461624,0.38331554541258944,-1.25,0.0,0.0005276203155517578,0.0005803108215332031,0
0.20947837829589844,0.04447529464960098,-0.018036730587482452,-0.07249245047569275,0.16837794875642256,-0.8675181690615346,0.3475472672836185,-0.7997869733273452,-0.2103889023161226,0.7002405015118559,0.38686333509706583,-1.25,0.0,0.0005481243133544922,0.0006136894226074219,0
0.21927618980407715,0.04459958150982857,-0.018241411074995995,-0.07230259478092194,0.16837818100898994,-0.8679579824495376,0.35138230342874877,-0.7998508813291416,-0.210414049499657,0.6983368994578113,0.3902890913869497,-1.25,0.0,0.0005757808685302734,0.0006382465362548828,0
0.22933340072631836,0.04459958150982857,-0.018241411074995995,-0.07230259478092194,0.16837818100898994,-0.868335511700078,0.3552796354174544,-0.7998956169303991,-0.2104316525281311,0.6963654685132167,0.3937958027485417,-1.25,0.0,0.0005841255187988281,0.000644683837890625,0
0.23947882652282715,0.04468703269958496,-0.01841679960489273,-0.07210155576467514,0.1683951521477776,-0.8686633246657074,0.3593783379056838,-0.7999269318512794,-0.21045033882510833,0.6943589044687588,0.3973231830449176,-1.25,0.0,0.0005650520324707031,0.0006244182586669922,0
0.24936676025390625,0.04471936821937561,-0.01849406398832798,-0.0719984695315361,0.16839106874630286,-0.868952908915309,0.36352682084759835,-0.7999488522958956,-0.2104618879574394,0.6923860737957119,0.40075120063919834,-1.25,0.0,0.0005564689636230469,0.0006117820739746094,0
0.2593681812286377,0.044764019548892975,-0.01862664520740509,-0.0717848464846611,0.16838085263795247,-0.8692143664237248,0.3677744401343959,-0.7999641966071269,-0.21046614130943975,0.6903733841486698,0.40420859770558243,-1.25,0.0,0.0005617141723632812,0.0006155967712402344,0
0.2696568965911865,0.044776953756809235,-0.018682114779949188,-0.0716845914721489,0.16840154987524092,-0.8694509257289316,0.3720654360274114,-0.7999749376249888,-0.21047688011982316,0.6882848645718158,0.40775476110200987,-1.25,0.0,0.0006020069122314453,0.0006628036499023438,0
0.2793452739715576,0.04478438198566437,-0.018729908391833305,-0.07158228754997253,0.16838970788250787,-0.8696669984135724,0.3763291260148392,-0.7999824563374922,-0.21047995653981666,0.6863015556079427,0.4110841456078281,-1.25,0.0,0.0005526542663574219,0.0006101131439208984,0
0.28949952125549316,0.04478523135185242,-0.0187714621424675,-0.07147716730833054,0.16838626081940447,-0.8698679283177537,0.38066389778106113,-0.7999877194362446,-0.21048081738514834,0.6842055940982271,0.4145632702069638,-1.25,0.0,0.0012004375457763672,0.0012965202331542969,0
0.29932403564453125,0.04476433992385864,-0.01883677765727043,-0.07125560194253922,0.16838317725696172,-0.870061824952042,0.38498020576405567,-0.7999914036053712,-0.2104802636409645,0.6821609058650244,0.41791924879025305,-1.25,0.0,0.0011036396026611328,0.0012049674987792969,0
0.30954623222351074,0.04476433992385864,-0.01883677765727043,-0.07125560194253922,0.16838317725696172,-0.8702415130919716,0.3893214430959513,-0.7999939825237599,-0.21047987602003582,0.6800159786710208,0.4214003663407209,-1.25,0.0,0.0011153221130371094,0.0012133121490478516,0
0.31944966316223145,0.04471735656261444,-0.01887054368853569,-0.07102581113576889,0.16838214643762786,-0.8704125836165317,0.3935000938667091,-0.7999957877666319,-0.21047921812813553,0.6779209956813601,0.4247624319715591,-1.25,0.0,0.001131296157836914,0.0012314319610595703,0
0.3292999267578125,0.044684525579214096,-0.018878579139709473,-0.07094955444335938,0.16839134858388174,-0.870569807278235,0.3977588898183339,-0.7999970514366423,-0.2104822084086505,0.6758207710566124,0.4280961170209862,-1.25,0.0,0.0010285377502441406,0.0010848045349121094,0
0.33944225311279297,0.044645439833402634,-0.018881922587752342,-0.07087110728025436,0.1683913428506847,-0.8707213817589059,0.40207901109482064,-0.7999979360056496,-0.2104842994550621,0.6736411451764327,0.43151779514335714,-1.25,0.0,0.0005831718444824219,0.0006418228149414062,0
0.34949398040771484,0.044600408524274826,-0.01887952908873558,-0.07078856974840164,0.1683879994755453,-0.870871815876053,0.4064006422817691,-0.7999985552039548,-0.21048450942187297,0.671463896870962,0.43489795952483173,-1.25,0.0,0.0006058216094970703,0.0006692409515380859,0
0.35927796363830566,0.04449435696005821,-0.018859123811125755,-0.07061601430177689,0.16837596626506124,-0.8710173841817523,0.41070817532063353,-0.7999989886427684,-0.21048014394470904,0.6693283536046373,0.43817753828888323,-1.25,0.0,0.0005650520324707031,0.0006194114685058594,0
0.3696177005767822,0.04443376511335373,-0.018840987235307693,-0.07052633166313171,0.16837170125481762,-0.8711598613053122,0.41502454859964977,-0.7999992920499379,-0.21047548873185296,0.6670540987263226,0.44163200673458153,-1.25,0.0,0.0005869865417480469,0.0006468296051025391,0
0.3793210983276367,0.044296231120824814,-0.018792185932397842,-0.07036092132329941,0.16832642016423738,-0.8712988097023329,0.419307749597115,-0.7999995044349566,-0.2104552496738861,0.6649035907501095,0.44486314188479475,-1.25,0.0,0.0005495548248291016,0.0006055831909179688,0
0.3893885612487793,0.04422077164053917,-0.01876126229763031,-0.07028508186340332,0.1683326480800942,-0.8714368683411816,0.42362031051506643,-0.7999996531044696,-0.2104434178017556,0.6626558548177565,0.44820443781353686,-1.25,0.0,0.0005645751953125,0.0006284713745117188,0
0.3995530605316162,0.0441410094499588,-0.01872604712843895,-0.07020542025566101,0.16834952836952358,-0.8715780583094713,0.4279549054296741,-0.7999997571731288,-0.21044146559980026,0.6603694198431747,0.4515664174138606,-1.25,0.0,0.0005645751953125,0.0006284713745117188,0
0.4093797206878662,0.04405658692121506,-0.01868663728237152,-0.07012125849723816,0.16836008777009706,-0.8717211631085248,0.43224981818918884,-0.7999998300211901,-0.21044405883364659,0.6581427629979397,0.45480556671333505,-1.25,0.0,0.0005629062652587891,0.0006203651428222656,0
0.41928935050964355,0.04387654364109039,-0.01859469525516033,-0.06994485855102539,0.16834858931887034,-0.8718621850766218,0.43652686349552944,-0.7999998810148331,-0.21044156217812898,0.6558812160662969,0.4580609461757197,-1.25,0.0,0.0006005764007568359,0.0006711483001708984,0
0.42942118644714355,0.04377983883023262,-0.01854361779987812,-0.06985297799110413,0.16833065932711946,-0.8720023743036118,0.44079137197727164,-0.7999999167103832,-0.21043309077236008,0.6535523107196848,0.46137769468512524,-1.25,0.0,0.0006642341613769531,0.0007271766662597656,0
0.43932247161865234,0.04367858171463013,-0.018489040434360504,-0.06976467370986938,0.1683254458319079,-0.8721446448478837,0.44504340363391914,-0.7999999416972683,-0.21042520572761753,0.6512601950910858,0.4646075314606091,-1.25,0.0,0.0005905628204345703,0.0006496906280517578,0
0.44944143295288086,0.043574243783950806,-0.018430961295962334,-0.06967337429523468,0.16834046296942543,-0.8722871966652598,0.44931298037762,-0.7999999591880879,-0.2104253176228668,0.6489011967230667,0.46789660918986353,-1.25,0.0,0.0005986690521240234,0.000667572021484375,0
0.459317684173584,0.04346676170825958,-0.018369169905781746,-0.06957916915416718,0.16835132362570907,-0.8724292088020018,0.4535502816215405,-0.7999999714316615,-0.21042946869564763,0.646582762145445,0.47109524694733135,-1.25,0.0,0.0005586147308349609,0.0006189346313476562,0
0.4695625305175781,0.043355852365493774,-0.018303915858268738,-0.06948251277208328,0.16837060635229964,-0.8725725043668505,0.4577768266032608,-0.799999980002163,-0.2104396054690657,0.6441611405945927,0.47440112241422183,-1.25,0.0,0.0005896091461181641,0.0006554126739501953,0
0.4792795181274414,0.043123893439769745,-0.018165307119488716,-0.06928123533725739,0.16836950179592705,-0.8727166051374616,0.46199129502436775,-0.7999999860015141,-0.21044628700181864,0.6418486720633427,0.47752516391340427,-1.25,0.0,0.0005736351013183594,0.0006306171417236328,0
0.48941802978515625,0.04300311952829361,-0.01809273473918438,-0.06917774677276611,0.16836209609225894,-0.8728587292939408,0.46619949691211393,-0.7999999902010599,-0.21044818693587014,0.6394197383214999,0.4807727095466887,-1.25,0.0,0.0005800724029541016,0.0006456375122070312,0
0.49953436851501465,0.04287784546613693,-0.018017150461673737,-0.06907296180725098,0.16836556820366894,-0.872999017506284,0.47033141053762384,-0.799999993140742,-0.21045081893148496,0.6369797391160387,0.48400083879644606,-1.25,0.0,0.0005843639373779297,0.0006425380706787109,0
0.509584903717041,0.04274886101484299,-0.017937542870640755,-0.0689801275730133,0.16835302959643197,-0.873138990529612,0.47440301402525265,-0.7999999951985194,-0.21044795935070146,0.6345394727110496,0.4871957076694982,-1.25,0.0,0.0009195804595947266,0.000982046127319336,0
0.5193784236907959,0.0424773134291172,-0.017769062891602516,-0.06878837198019028,0.1683237167211902,-0.8732775051406386,0.4784348355136285,-0.7999999966389636,-0.21043496531593736,0.6321461942375111,0.4902970417114822,-1.25,0.0,0.001211404800415039,0.0013136863708496094,0
0.5294580459594727,0.042335812002420425,-0.017684340476989746,-0.06868968158960342,0.1683153447374617,-0.8734130279606614,0.48255905097063706,-0.7999999976472745,-0.2104227299977043,0.6296671720643346,0.4934766989681516,-1.25,0.0,0.0007665157318115234,0.0008327960968017578,0
0.539409875869751,0.04219217225909233,-0.017597533762454987,-0.06858983635902405,0.168350032377963,-0.8735502554587434,0.48663961148933793,-0.7999999983530921,-0.21042717314012913,0.6272038889324372,0.49660374717477435,-1.25,0.0,0.0006010532379150391,0.0006625652313232422,0
0.5493290424346924,0.04239198938012123,-0.01790308952331543,-0.06851403415203094,0.16837409243711246,-0.8736900464288541,0.49098345849001745,-0.7999999988471644,-0.21043930586200754,0.6247332375895095,0.4997082967601494,-1.25,0.0,0.0005908012390136719,0.0006518363952636719,0
0.5593304634094238,0.04275419935584068,-0.018484828993678093,-0.06835182011127472,0.1683969363265414,-0.8738362145339241,0.4956270336300938,-0.7999999991930151,-0.21045636522585828,0.6222265401156178,0.5028261456763635,-1.25,0.0,0.0005805492401123047,0.0006384849548339844,0
0.5694589614868164,0.04291794076561928,-0.018757794052362442,-0.06826738268136978,0.16840938081471737,-0.8739853205624433,0.500249889485782,-0.7999999994351106,-0.2104729734636198,0.6196721351890728,0.505970794483452,-1.25,0.0,0.0006215572357177734,0.0006814002990722656,0
0.5793085098266602,0.043072037398815155,-0.0190189890563488,-0.06818080693483353,0.16841866712634637,-0.8741396433841706,0.5048087546883373,-0.7999999996045775,-0.2104880815969137,0.6171728387989706,0.509016391729009,-1.25,0.0,0.0005826950073242188,0.0006392002105712891,0
0.5895287990570068,0.043217308819293976,-0.01927012950181961,-0.0680927187204361,0.16842385533317053,-0.87429243409968,0.509412274993913,-0.7999999997232042,-0.21050060286777852,0.6145636444686112,0.5121635743563364,-1.25,0.0,0.0006225109100341797,0.0006926059722900391,0
0.5993359088897705,0.043479204177856445,-0.01974092237651348,-0.06791292130947113,0.16847745411746676,-0.8744485495561386,0.5139868218323029,-0.799999999806243,-0.21052946730149497,0.6120448437892645,0.5151709514238696,-1.25,0.0,0.0005481243133544922,0.00060272216796875,0
0.6094515323638916,0.043595876544713974,-0.019960805773735046,-0.06782123446464539,0.16851162928630384,-0.874604652315747,0.5184797972511433,-0.7999999998643701,-0.21056248809341038,0.609431388730358,0.5182599564216662,-1.25,0.0,0.0005657672882080078,0.0006449222564697266,0
0.6193070411682129,0.04370208829641342,-0.020170746371150017,-0.06772920489311218,0.16851598881436328,-0.8747586044309117,0.5229217654424715,-0.7999999999050591,-0.21058723747077346,0.6068701419602602,0.5212567800970397,-1.25,0.0,0.0005917549133300781,0.0006566047668457031,0
0.6293950080871582,0.04379954934120178,-0.02037252113223076,-0.06765146553516388,0.16852104828770312,-0.8749155349981674,0.5273863614168267,-0.7999999999335414,-0.21060645933743008,0.6042332226232694,0.5243111792421544,-1.25,0.0,0.0009663105010986328,0.0010280609130859375,0
0.6394186019897461,0.04397080838680267,-0.020750414580106735,-0.06749001145362854,0.1685488750179103,-0.8750728443916597,0.5319475500356824,-0.799999999953479,-0.21063034966791738,0.6015979038722555,0.5273328759488721,-1.25,0.0,0.00055694580078125,0.0006144046783447266,0
0.6492710113525391,0.04404307156801224,-0.020926952362060547,-0.0674065575003624,0.16853445596688688,-0.8752302377845376,0.5364444903162581,-0.7999999999674353,-0.21064166575512475,0.5989928650753339,0.5302900598623767,-1.25,0.0,0.0005483627319335938,0.0006017684936523438,0
0.6592745780944824,0.044163696467876434,-0.021256472915410995,-0.06723383069038391,0.16853674932588117,-0.8753934165120784,0.5409793807839097,-0.7999999999772047,-0.21065044702579275,0.5963329873943665,0.5332794465805993,-1.25,0.0,0.0005819797515869141,0.0006372928619384766,0
0.66957688331604,0.04421417415142059,-0.021409466862678528,-0.06714339554309845,0.1685451149954249,-0.8755621715967855,0.5455322616404161,-0.7999999999840434,-0.21065973104133925,0.5935780840856284,0.5363441601185145,-1.25,0.0,0.0005846023559570312,0.0006494522094726562,0
0.6793251037597656,0.04425759240984917,-0.021555563434958458,-0.06706832349300385,0.16855205630517772,-0.8757362692079674,0.5499457594282091,-0.7999999999888303,-0.21066883284337912,0.590956843094643,0.5392309427319741,-1.25,0.0,0.0005598068237304688,0.000614166259765625,0
0.6896002292633057,0.04429236799478531,-0.021694717928767204,-0.06698958575725555,0.1685555310523912,-0.875911720198783,0.5542982597311367,-0.7999999999921812,-0.21067650713501207,0.5881787234724727,0.5422598908773288,-1.25,0.0,0.0005948543548583984,0.0006551742553710938,0
0.6992051601409912,0.044340215623378754,-0.021949931979179382,-0.06682538241147995,0.16858326591214048,-0.8760894277030434,0.5586146113233651,-0.7999999999945269,-0.2106922797115611,0.5855677663297801,0.5450783347699227,-1.25,0.0,0.0005555152893066406,0.0006146430969238281,0
0.7094197273254395,0.044353120028972626,-0.02206563577055931,-0.06673798710107803,0.16860480382032808,-0.8762722624531939,0.562791993169957,-0.7999999999961688,-0.21071139723071577,0.5827762717372661,0.5480618734230764,-1.25,0.0,0.0011296272277832031,0.001226663589477539,0
0.7194702625274658,0.044359322637319565,-0.022173453122377396,-0.06664658337831497,0.1686218208483459,-0.8764560033380565,0.5669532110911469,-0.7999999999973182,-0.21073116087963073,0.5800147672525825,0.5509835476390675,-1.25,0.0,0.0011560916900634766,0.0012557506561279297,0
0.7293462753295898,0.04435877129435539,-0.022276585921645164,-0.06655316799879074,0.1686267214913573,-0.8766364513643985,0.5710583924499737,-0.7999999999981228,-0.21074683317500048,0.5772869465258099,0.5538409350805579,-1.25,0.0,0.0011088848114013672,0.001177072525024414,0
0.73948073387146,0.0443413145840168,-0.02246282622218132,-0.06637820601463318,0.16862938040136324,-0.8768155891873776,0.5751962351807858,-0.799999999998686,-0.21075880087301152,0.5744731081097009,0.5567590574555388,-1.25,0.0,0.0005745887756347656,0.0006310939788818359,0
0.7494757175445557,0.0443413145840168,-0.02246282622218132,-0.06637820601463318,0.16862938040136324,-0.8769939418039127,0.5792041023266677,-0.7999999999990802,-0.21076717826161925,0.5716835471504628,0.5596230176801743,-1.25,0.0,0.0005965232849121094,0.0006601810455322266,0
0.7593045234680176,0.04430036246776581,-0.022622112184762955,-0.0662132054567337,0.16863218684918937,-0.8771683557665079,0.5830866611258134,-0.7999999999993562,-0.2107740948515795,0.5689264417524645,0.562425731874778,-1.25,0.0,0.0005590915679931641,0.0006139278411865234,0
0.7696819305419922,0.04427088052034378,-0.02269037812948227,-0.0661274641752243,0.16862253970856436,-0.8773475029950437,0.5869483751938308,-0.7999999999995494,-0.21077531878681727,0.5660005359777666,0.5653701382925004,-1.25,0.0,0.0011928081512451172,0.0012922286987304688,0
0.7793655395507812,0.04419760778546333,-0.022805940359830856,-0.06594596803188324,0.16863053594593883,-0.8775309140824633,0.5907512811195387,-0.7999999999996846,-0.21077917413049915,0.5632565006087006,0.5681039645364578,-1.25,0.0,0.0011150836944580078,0.0012135505676269531,0
0.7895932197570801,0.044151369482278824,-0.02285529114305973,-0.06585043668746948,0.16863761374470457,-0.877714002626082,0.5945652087642916,-0.7999999999997792,-0.21078452704561362,0.5603439554886582,0.5709769273336048,-1.25,0.0,0.0009243488311767578,0.0009860992431640625,0
0.7994811534881592,0.044098999351263046,-0.022898051887750626,-0.06579233705997467,0.16864142475002122,-0.877897411084236,0.5982463614060004,-0.7999999999998455,-0.2107897032131875,0.5575142278028037,0.5737402598715237,-1.25,0.0,0.0005779266357421875,0.0006377696990966797,0
0.8094289302825928,0.044040825217962265,-0.02293279580771923,-0.06573057174682617,0.1686556517542537,-0.8780807081213579,0.6018085137855652,-0.7999791601071606,-0.21079866165707636,0.5546536232320898,0.5765061649588104,-1.25,0.0,0.0010428428649902344,0.0011029243469238281,0
0.8192095756530762,0.04390661045908928,-0.02298375405371189,-0.06559201329946518,0.16868570485308101,-0.8782697475751867,0.6053944061609101,-0.7990485596411893,-0.2108162024798588,0.5518277009643133,0.5792116957110245,-1.25,0.0,0.000591278076171875,0.0006477832794189453,0
0.8293249607086182,0.043832212686538696,-0.023002006113529205,-0.06551613658666611,0.16869219076656372,-0.8784488560394441,0.608934217630108,-0.7973810465666673,-0.21083091327336254,0.5488911808571022,0.5819952504765791,-1.25,0.0,0.0006098747253417969,0.0006799697875976562,0
0.8393580913543701,0.04375213384628296,-0.023014571517705917,-0.06543541699647903,0.16867486146001934,-0.8786152809959765,0.6124748058113586,-0.795180406148606,-0.21083471233886103,0.5459646692478949,0.5847414641814251,-1.25,0.0,0.0005617141723632812,0.0006172657012939453,0
0.8494787216186523,0.04366631433367729,-0.023021677508950233,-0.06536546349525452,0.16867888791496213,-0.8787616121590416,0.6159705821837811,-0.7926126467087853,-0.21083888160531353,0.5429987156104121,0.5874967190082365,-1.25,0.0,0.0005865097045898438,0.0006458759307861328,0
0.8593535423278809,0.043575141578912735,-0.023022804409265518,-0.0652926042675972,0.16867705435183236,-0.8788856406731671,0.6193701814038614,-0.7897749396788798,-0.2108411125056566,0.5400913964086662,0.590170554607172,-1.25,0.0,0.0005881786346435547,0.0006506443023681641,0
0.8694806098937988,0.04347838833928108,-0.023018047213554382,-0.06521724164485931,0.16867815925916066,-0.8789891011608162,0.6227402219297885,-0.786759352012066,-0.21084308847614486,0.5370961368496265,0.5928977481667537,-1.25,0.0,0.0006036758422851562,0.0006647109985351562,0
0.8793673515319824,0.04326982423663139,-0.02299528941512108,-0.06505942344665527,0.168686713356337,-0.8790710931033242,0.6261146708041309,-0.7836682652668278,-0.21084767944192775,0.5341586728867272,0.5955455584419134,-1.25,0.0,0.0005657672882080078,0.0006246566772460938,0
0.8894212245941162,0.043158672749996185,-0.022977586835622787,-0.06497745960950851,0.16866774037772306,-0.8791359015181083,0.629569404511788,-0.7805251542404007,-0.21084377825099557,0.531158166666977,0.5982232041495682,-1.25,0.0,0.0005564689636230469,0.000614166259765625,0
0.8994994163513184,0.04304366931319237,-0.022956203669309616,-0.06489197164773941,0.16867726342995962,-0.8791903109736038,0.6331207757610212,-0.7772888075077995,-0.21084461856193173,0.5281369316428495,0.6008921545792358,-1.25,0.0,0.0005702972412109375,0.0006353855133056641,0
0.9094104766845703,0.042804136872291565,-0.022904276847839355,-0.06474950909614563,0.1686963351597879,-0.8792300654928266,0.6366608684806477,-0.7740479075346108,-0.21085235867827268,0.5251527198416762,0.6035019642411199,-1.25,0.0,0.0012302398681640625,0.0013318061828613281,0
0.919344425201416,0.04267871379852295,-0.02287169173359871,-0.06469201296567917,0.1686834479105628,-0.8792601719827536,0.6401834451547583,-0.7708450026520037,-0.21085294404125193,0.5221486754815466,0.6061029291241434,-1.25,0.0,0.0012052059173583984,0.0013096332550048828,0
0.9294428825378418,0.04254836216568947,-0.022836020216345787,-0.06463206559419632,0.16868051208422788,-0.8792800297079607,0.6437423388286666,-0.7676570602389903,-0.2108522528604618,0.5190816801992821,0.6087316397900557,-1.25,0.0,0.0010979175567626953,0.0011699199676513672,0
0.9394137859344482,0.04241311550140381,-0.022796453908085823,-0.06456965953111649,0.1686577636863007,-0.8792985952647305,0.6472271772027048,-0.7644725198857368,-0.21084323838468605,0.5160404397796056,0.6113119207999067,-1.25,0.0,0.0005636215209960938,0.0006284713745117188,0
0.9494650363922119,0.042710527777671814,-0.023059077560901642,-0.06471709907054901,0.16864350597365552,-0.8793083573366574,0.6508614237768575,-0.7610599058353743,-0.21083158160940105,0.5129617113207012,0.6138976158277027,-1.25,0.0,0.0006048679351806641,0.0006659030914306641,0
0.959275484085083,0.043264083564281464,-0.023554330691695213,-0.06498870253562927,0.16863273209747856,-0.8793063688188871,0.6547854554834565,-0.7573983801298064,-0.21081938166313519,0.5099442469420333,0.6164064122076623,-1.25,0.0,0.0005917549133300781,0.0006525516510009766,0
0.9693202972412109,0.04352185130119324,-0.02378821186721325,-0.06512679904699326,0.1686212257448612,-0.8792976774934202,0.658752100658477,-0.7536019397114295,-0.21080652681851758,0.5068419847896987,0.6189597745043202,-1.25,0.0,0.0006022453308105469,0.0006659030914306641,0
0.9794478416442871,0.04376690462231636,-0.024012122303247452,-0.06525823473930359,0.16860885036627438,-0.8792844839899958,0.6627679047403618,-0.74980570975522,-0.2107928876603152,0.5037012287306901,0.6215183602880876,-1.25,0.0,0.0005831718444824219,0.0006422996520996094,0
0.989574670791626,0.043999191373586655,-0.024226071313023567,-0.06538145244121552,0.16860505446702614,-0.8792708611383027,0.6667569327014784,-0.7459869775811853,-0.21078191678735544,0.5005477800802763,0.6240608302535158,-1.25,0.0,0.0006716251373291016,0.0007388591766357422,0
0.9993016719818115,0.04443168640136719,-0.024624798446893692,-0.06560631096363068,0.16861877392658742,-0.8792541072847821,0.6708465244533098,-0.7419771147204731,-0.2107793819736191,0.49750675194988614,0.6264878544427455,-1.25,0.0,0.0005755424499511719,0.0006361007690429688,0
1.009528636932373,0.0446321927011013,-0.024811923503875732,-0.06570854783058167,0.16863214451659328,-0.87923179593589,0.6749039062937873,-0.738002889018713,-0.21078262157525585,0.4942967269308154,0.6290236448222618,-1.25,0.0,0.0006134510040283203,0.0006749629974365234,0
1.0194189548492432,0.044820766896009445,-0.02499060332775116,-0.06580562144517899,0.16863823222283106,-0.87920833908341,0.6788737733439979,-0.7341050028314643,-0.21078717218624074,0.4911800737953656,0.6314603195026425,-1.25,0.0,0.0011615753173828125,0.0012652873992919922,0
1.0295276641845703,0.045000363141298294,-0.02516055665910244,-0.06589563935995102,0.16866453002947981,-0.8791924993641441,0.6828302591971923,-0.730095360635668,-0.21080021929142342,0.4879821890183722,0.6339348414473192,-1.25,0.0,0.0011601448059082031,0.0012621879577636719,0
1.0395755767822266,0.045338183641433716,-0.02547552064061165,-0.06608948111534119,0.16863450549137252,-0.8791805192011422,0.6868506239761557,-0.7258454342072183,-0.21079809306326108,0.4847911831206677,0.6363784320421799,-1.25,0.0,0.0011341571807861328,0.0012362003326416016,0
1.0492427349090576,0.045494724065065384,-0.02562299743294716,-0.06617488712072372,0.1686303853092979,-0.8791670828600646,0.690858976264394,-0.72176994436776,-0.21079505963526946,0.4817095464376294,0.6387142654355338,-1.25,0.0,0.0006265640258789062,0.0006844997406005859,0
1.0594513416290283,0.045641880482435226,-0.025765011087059975,-0.0662527084350586,0.16860618122183116,-0.87915350112569,0.6948638149880688,-0.7177617960374244,-0.2107838597028753,0.47844309402763585,0.6411647259302892,-1.25,0.0,0.0005838871002197266,0.0006444454193115234,0
1.069488286972046,0.04577900841832161,-0.025900809094309807,-0.0663241446018219,0.16859471538704643,-0.8791395092216752,0.6988554777918726,-0.7138242203047341,-0.21077172006215514,0.47521941508052556,0.6435576955724508,-1.25,0.0,0.0005953311920166016,0.0006639957427978516,0
1.0793089866638184,0.04602682217955589,-0.026153111830353737,-0.06644491106271744,0.16859260008763077,-0.8791297155956175,0.7028741357052569,-0.7098968519134697,-0.21076242907637016,0.47205360522494183,0.6458834212101553,-1.25,0.0,0.0005850791931152344,0.0006425380706787109,0
1.1192741394042969,0.04613661766052246,-0.026270542293787003,-0.06654588878154755,0.16860191969332064,-0.8791246525372544,0.7097938295963242,-0.7027015255527584,-0.21075942023845434,0.4590538061873948,0.655186693259918,-1.25,0.0,0.0006062984466552734,0.0006694793701171875,0
1.1292839050292969,0.0465514212846756,-0.026771292090415955,-0.0669429749250412,0.16853135223520369,-0.879106015329514,0.7161127291403862,-0.6963676131530713,-0.21073085125511945,0.45576893788363687,0.6574759883527471,-1.25,0.0,0.0006070137023925781,0.0006647109985351562,0
1.1394059658050537,0.04660915210843086,-0.026857230812311172,-0.06700277328491211,0.16852932759743425,-0.8790939977971622,0.7216292860176476,-0.690734742081099,-0.21071009372762145,0.45243560910556097,0.6597742186636881,-1.25,0.0,0.0006086826324462891,0.0006704330444335938,0
1.149413824081421,0.04666019231081009,-0.02693796716630459,-0.06705669313669205,0.16851836117958133,-0.8790837384682321,0.726583328148651,-0.6856150015545489,-0.21069145105167802,0.44912849512067904,0.6620299048159639,-1.25,0.0,0.0006031990051269531,0.0006723403930664062,0
1.1593973636627197,0.04673761501908302,-0.0270839836448431,-0.06714670360088348,0.16851818794591925,-0.8790701078869932,0.7311113268350261,-0.6809665472288016,-0.21067833621589435,0.4458182123379156,0.6642635934234431,-1.25,0.0,0.0005953311920166016,0.0006527900695800781,0
1.1693637371063232,0.04676501080393791,-0.02714727446436882,-0.0671846941113472,0.1684971255043293,-0.8790577573436756,0.7352333004064032,-0.6765312188590643,-0.21066125741524955,0.4425025412181778,0.666476932095519,-1.25,0.0,0.0006074905395507812,0.0006849765777587891,0
1.1793806552886963,0.046785783022642136,-0.027199899777770042,-0.06723666191101074,0.1684766400806004,-0.8789464450632051,0.7383962870249382,-0.6718360771856614,-0.21064162022089986,0.43915898272222587,0.6686848195483278,-1.25,0.0,0.0005919933319091797,0.0006494522094726562,0
1.189542531967163,0.046806007623672485,-0.027226485311985016,-0.06738758832216263,0.16846191244469758,-0.8785293820507463,0.739242437574372,-0.6655169110151616,-0.21062235132139148,0.4357557823666218,0.6709075183168344,-1.25,0.0,0.0006487369537353516,0.0007221698760986328,0
1.1994357109069824,0.046877067536115646,-0.027152536436915398,-0.06830519437789917,0.16823516674185895,-0.8772201560805015,0.7325220276962495,-0.6528408058109668,-0.21052383345317124,0.43243176064709526,0.6730548063743794,-1.25,0.0,0.0005762577056884766,0.0006341934204101562,0
1.2092840671539307,0.046928297728300095,-0.027050167322158813,-0.06914053112268448,0.16803035933799151,-0.8754651079393263,0.7238199930260482,-0.6384308670203453,-0.21037806816896684,0.4291122895968349,0.6751760088428514,-1.25,0.0,0.0005755424499511719,0.0006353855133056641,0
1.2194898128509521,0.04698988050222397,-0.02690730057656765,-0.07026088237762451,0.16774436481458135,-0.873318911202561,0.7131905495780647,-0.6221394576134811,-0.21016878452374502,0.42566138034356965,0.6773569142512734,-1.25,0.0,0.0005815029144287109,0.0006473064422607422,0
1.2295186519622803,0.04706069082021713,-0.026727506890892982,-0.0716700628399849,0.16735330689625028,-0.8708555958376564,0.7006968366482362,-0.6039463814428339,-0.20987563925271566,0.4222594913310772,0.6794828342061483,-1.25,0.0,0.0006077289581298828,0.0006840229034423828,0
1.2393112182617188,0.04722455516457558,-0.026268983259797096,-0.07534488290548325,0.16619282087331147,-0.8677679534523429,0.6768703386004872,-0.5753153859947411,-0.20923525530439338,0.41892750274496166,0.6815421831727441,-1.25,0.0,0.0005757808685302734,0.0006327629089355469,0
1.249464511871338,0.04731883481144905,-0.025987636297941208,-0.07761052250862122,0.16543760706644964,-0.8643862976703743,0.6530470941325377,-0.5465658947260905,-0.20850378136299472,0.4154621703002208,0.6836601385552842,-1.25,0.0,0.0005762577056884766,0.0006434917449951172,0
1.2592997550964355,0.04742290452122688,-0.025667542591691017,-0.08016098290681839,0.16457437642080855,-0.8607857509591482,0.6288581221779227,-0.5174819033213981,-0.20766803811190032,0.41209517842648485,0.6856949496078002,-1.25,0.0,0.0005881786346435547,0.0006544589996337891,0
1.2694809436798096,0.04754018038511276,-0.02530543878674507,-0.08299419283866882,0.16360287293932732,-0.8570159799482643,0.6042387836737805,-0.48782790067652776,-0.20671870403057893,0.40859925916946643,0.6877838653284645,-1.25,0.0,0.0006036758422851562,0.0006668567657470703,0
1.2792751789093018,0.04782828688621521,-0.024439511820673943,-0.0894562378525734,0.16131680026353148,-0.852838108736142,0.5674757327949235,-0.44654690669220626,-0.20519689292023108,0.4052262146947235,0.689776568842539,-1.25,0.0,0.000621795654296875,0.0006883144378662109,0
1.2896196842193604,0.048004936426877975,-0.02392822504043579,-0.09309167414903641,0.160024302982013,-0.8484093231261475,0.5335958200128678,-0.40801012070416737,-0.20364693866241818,0.40165311157864053,0.6918632653633203,-1.25,0.0,0.0012240409851074219,0.0013303756713867188,0
1.2994871139526367,0.04820553958415985,-0.023358095437288284,-0.0969865545630455,0.15864105917141227,-0.8438470909553709,0.5019502938565304,-0.3716411024259971,-0.20204325425297393,0.39823478093054687,0.6938364787593683,-1.25,0.0,0.0011341571807861328,0.0012335777282714844,0
1.3094680309295654,0.048434462398290634,-0.022724471986293793,-0.10113438218832016,0.15717112661142552,-0.8392291735710922,0.4718949676321231,-0.3368251910476296,-0.20036945045636798,0.3947672742140406,0.6958152047847306,-1.25,0.0,0.0006368160247802734,0.0007069110870361328,0
1.3192555904388428,0.048990361392498016,-0.021250907331705093,-0.11016474664211273,0.15398218474923578,-0.8343458168071259,0.43042855736800184,-0.29209666627029923,-0.19800193460042337,0.391357394296508,0.697738769117388,-1.25,0.0,0.0005862712860107422,0.0006453990936279297,0
1.329390525817871,0.04932267218828201,-0.020399728789925575,-0.11506049335002899,0.15229419635006927,-0.8293447932435338,0.3933549951236321,-0.2516727656857359,-0.19571167785157462,0.3878166158936209,0.6997129929026756,-1.25,0.0,0.0005879402160644531,0.0006594657897949219,0
1.3394262790679932,0.049696385860443115,-0.019464973360300064,-0.12018045783042908,0.15057734744050258,-0.8243401565274332,0.35955375694265496,-0.2144668576646661,-0.19346467978629295,0.3843006747328513,0.7016501916196384,-1.25,0.0,0.0005965232849121094,0.0006618499755859375,0
1.3494296073913574,0.050235386937856674,-0.018907679244875908,-0.12492121011018753,0.1488158728690652,-0.8194224019834092,0.32852961847140405,-0.17960559971483084,-0.19123122817630675,0.38078646380104714,0.7035635500691418,-1.25,0.0,0.0006415843963623047,0.0007066726684570312,0
1.3595163822174072,0.05144551768898964,-0.017495565116405487,-0.1350587159395218,0.14517287906795343,-0.8143692266461544,0.2869259467065573,-0.13629941294092324,-0.18830168937390018,0.3772332925051738,0.7054750477697322,-1.25,0.0,0.000591278076171875,0.0006525516510009766,0
1.3694179058074951,0.052123233675956726,-0.016633449122309685,-0.1404392570257187,0.14331321420323942,-0.8093403894437333,0.2503485301784172,-0.09769063322936344,-0.18555363788794765,0.3737360448662104,0.7073339867189771,-1.25,0.0,0.0005888938903808594,0.0006623268127441406,0
1.3793795108795166,0.05285371094942093,-0.01566295325756073,-0.1460176557302475,0.1414567514016423,-0.8044272865949013,0.21759265742434813,-0.06250786500784226,-0.18293382829718183,0.3702083326324495,0.7091867105702854,-1.25,0.0,0.0005888938903808594,0.0006504058837890625,0
1.3896853923797607,0.053637854754924774,-0.014583317562937737,-0.15178464353084564,0.1395883055041909,-0.7996772242290577,0.18762298964699917,-0.029876567825100182,-0.1803992943721014,0.3665490366817662,0.7110849483062269,-1.25,0.0,0.0006654262542724609,0.0007321834564208984,0
1.399301528930664,0.055368103086948395,-0.012093935161828995,-0.16386301815509796,0.13585553887735483,-0.7948072103045055,0.14750491418525427,0.009506349695450701,-0.17722533313948222,0.3631258680292901,0.7128391150659276,-1.25,0.0,0.001150369644165039,0.0012459754943847656,0
1.4093992710113525,0.056317128241062164,-0.01068013347685337,-0.170155867934227,0.13399987860057674,-0.7900445743923077,0.11275133631227796,0.04430033937694936,-0.17430768767285673,0.359522222326485,0.7146633974490547,-1.25,0.0,0.0010266304016113281,0.0010957717895507812,0
1.4193053245544434,0.05732380598783493,-0.009150463156402111,-0.17660623788833618,0.13215383824468077,-0.7854607015086225,0.08178811245240257,0.07571723506093272,-0.17157307071275774,0.3559780798835775,0.7164353471475297,-1.25,0.0,0.0006105899810791016,0.00067138671875,0
1.4294085502624512,0.058389365673065186,-0.007503115106374025,-0.18320490419864655,0.1303170846936246,-0.7810815332580441,0.05366937651024854,0.10463085554342685,-0.16897005625904224,0.3523543992118791,0.718224461680355,-1.25,0.0,0.0006337165832519531,0.0006985664367675781,0
1.4393537044525146,0.06069996580481529,-0.0038566775619983673,-0.1968165934085846,0.1267640605831322,-0.7766016594819256,0.016404895315346037,0.13869133476562598,-0.1658155621000073,0.34877863118218166,0.7199676842960966,-1.25,0.0,0.0005986690521240234,0.0006580352783203125,0
1.449275016784668,0.06194354593753815,-0.001855059526860714,-0.2038278877735138,0.12503663177065974,-0.7722921555425575,-0.01554128096595099,0.16850563550942368,-0.16295963038400538,0.3452028423151208,0.7216889895637607,-1.25,0.0,0.0005786418914794922,0.0006477832794189453,0
1.45927095413208,0.06461108475923538,0.002506895689293742,-0.21819709241390228,0.12169994066421831,-0.7678681236697145,-0.05396907943376522,0.2013012664361974,-0.15970921901788887,0.34159156684880565,0.7234052816076049,-1.25,0.0,0.0006341934204101562,0.0006959438323974609,0
1.4695141315460205,0.06461108475923538,0.002506895689293742,-0.21819709241390228,0.12169994066421831,-0.7639801351733514,-0.07580497435899407,0.22389870117708152,-0.15743393106160636,0.33788211864712064,0.7251452777882051,-1.25,0.0,0.000621795654296875,0.0006997585296630859,0
1.479243516921997,0.06752363592386246,0.007348786108195782,-0.23298215866088867,0.11855554959232098,-0.7599953749199093,-0.1065156085710914,0.25059498504634353,-0.1546620828402476,0.3343505256081576,0.7267803836273712,-1.25,0.0,0.0005884170532226562,0.0006453990936279297,0
1.4895553588867188,0.06907112151384354,0.0099484296515584,-0.24051588773727417,0.1170706089412017,-0.7562298408369983,-0.13289661379851783,0.27427914536659403,-0.15216493634112646,0.33059887588372255,0.7284946007105468,-1.25,0.0,0.0006444454193115234,0.0007069110870361328,0
1.4993507862091064,0.0706784725189209,0.012665408663451672,-0.2481338530778885,0.11563218498867057,-0.7526951777000848,-0.15616894219575614,0.2956158227072204,-0.14987752480954228,0.32702696706143314,0.7301050354672267,-1.25,0.0,0.0006096363067626953,0.0006725788116455078,0
1.5093939304351807,0.07234455645084381,0.015497943386435509,-0.25582829117774963,0.11425789651365673,-0.7493830011535594,-0.17714304567873,0.3152145118624303,-0.14776097855930298,0.32335658420614005,0.731738012850595,-1.25,0.0,0.0005946159362792969,0.0006661415100097656,0
1.5193324089050293,0.07585188001394272,0.02150728367269039,-0.2714606523513794,0.11163720136478109,-0.7459418548261241,-0.20471849219787905,0.3368461123456317,-0.14529663550330746,0.31971642555929636,0.733335807954028,-1.25,0.0,0.0006046295166015625,0.0006666183471679688,0
1.5295026302337646,0.07769003510475159,0.024681633338332176,-0.27937081456184387,0.11040615569024693,-0.7427201096650483,-0.22797887015420268,0.3557659054317398,-0.14310995323616,0.3159832142322708,0.7349521129457639,-1.25,0.0,0.0011725425720214844,0.0013246536254882812,0
1.5394930839538574,0.0795823410153389,0.027969053015112877,-0.2873355746269226,0.10922506758040941,-0.7397137544237337,-0.24821067549731965,0.37258593513466,-0.1411363676079675,0.3123080347200915,0.7365213448701091,-1.25,0.0,0.0011222362518310547,0.0012187957763671875,0
1.5494558811187744,0.08352577686309814,0.03487774729728699,-0.30340588092803955,0.10699256714182172,-0.736600792192153,-0.2732532696263741,0.3897604528955188,-0.13891767000376262,0.3086352686607712,0.73806793111386,-1.25,0.0,0.0011801719665527344,0.0012850761413574219,0
1.55930757522583,0.0855749249458313,0.03849586099386215,-0.3115030527114868,0.10593907212731171,-0.7337163453374901,-0.29398138674010593,0.404601917966592,-0.13696952105037766,0.3049959292686054,0.7395792608839028,-1.25,0.0,0.0005896091461181641,0.0006496906280517578,0
1.569549798965454,0.08767284452915192,0.0422193668782711,-0.3196529448032379,0.10492806194221085,-0.7310439052541754,-0.3115195878636382,0.41763207737457664,-0.13522668796359516,0.3012044783215282,0.7411314743276365,-1.25,0.0,0.0006482601165771484,0.0007107257843017578,0
1.579380989074707,0.08981850743293762,0.04604655131697655,-0.3278336822986603,0.10398513560510493,-0.7285655010841179,-0.3269049186367629,0.4292128796378076,-0.13365310742643252,0.2975577517770691,0.7426031136195002,-1.25,0.0,0.0006220340728759766,0.0006878376007080078,0
1.5895869731903076,0.09201230853796005,0.04997818171977997,-0.33604028820991516,0.10309506282705375,-0.7262656516365164,-0.34077060499333667,0.43972354827452925,-0.13221782375864935,0.29376439616083605,0.74411187300584,-1.25,0.0,0.0006959438323974609,0.0007848739624023438,0
1.5992624759674072,0.0965370237827301,0.0581439845263958,-0.35251477360725403,0.10138609539686551,-0.7238489842958299,-0.35834468269143127,0.44910923892549115,-0.13057226240488076,0.2901611443550448,0.7455243190577829,-1.25,0.0,0.0006101131439208984,0.0006694793701171875,0
1.609278678894043,0.09886263310909271,0.062372561544179916,-0.3607746958732605,0.10056615430832341,-0.7216264941015635,-0.37276545681348466,0.45726304865510436,-0.12911289154903927,0.28642385975931933,0.7469681201768746,-1.25,0.0,0.0006053447723388672,0.0006628036499023438,0
1.6194674968719482,0.10122664272785187,0.06669552624225616,-0.3690454065799713,0.09978931884445276,-0.7195758258269006,-0.38495475457510153,0.4642889799866397,-0.12780001865099858,0.28261479834189945,0.7484175811391443,-1.25,0.0,0.0005915164947509766,0.0006527900695800781,0
1.629453420639038,0.10362616181373596,0.07111097127199173,-0.3773234784603119,0.09903363211456576,-0.7176782950798997,-0.3954976455682245,0.4703186104219932,-0.12659762509866235,0.2788744706732787,0.7498193313103488,-1.25,0.0,0.0006802082061767578,0.0007460117340087891,0
1.6392946243286133,0.10853074491024017,0.08020821213722229,-0.39395689964294434,0.09759104897603368,-0.7156893077644505,-0.4080695193499195,0.4741184435797791,-0.12521498093507766,0.27518154708466935,0.7511824785923111,-1.25,0.0,0.0006046295166015625,0.0006625652313232422,0
1.6492886543273926,0.11103352904319763,0.08488421142101288,-0.40227004885673523,0.09692172438117755,-0.7138638482539342,-0.418028731540843,0.4773907570625286,-0.12399613329749716,0.2714244569371385,0.7525481806345554,-1.25,0.0,0.0006449222564697266,0.0007123947143554688,0
1.659456491470337,0.11356676369905472,0.0896424800157547,-0.4105788767337799,0.09627021732842447,-0.7121827965721501,-0.4261939511769446,0.4800057389595513,-0.12289862480640829,0.26759507210483163,0.7539183492827389,-1.25,0.0,0.0006341934204101562,0.0007002353668212891,0
1.6694011688232422,0.11612794548273087,0.09448233246803284,-0.4188793897628784,0.09562169950555902,-0.7106301889480754,-0.4330065422435812,0.4820487605854714,-0.12188717467906969,0.2638430421613874,0.7552395971498214,-1.25,0.0,0.0006470680236816406,0.0007121562957763672,0
1.6793179512023926,0.12133076041936874,0.10439188033342361,-0.4354490041732788,0.0943727730754056,-0.7090015502672998,-0.4405630794340299,0.48087160702022363,-0.12071081217862298,0.2600950407726516,0.7565385447982625,-1.25,0.0,0.0006091594696044922,0.0006716251373291016,0
1.689542531967163,0.12396785616874695,0.10945732146501541,-0.44370555877685547,0.09375047760073164,-0.7075088137856954,-0.4462653017156186,0.4797202694899301,-0.11965399762530968,0.25622401404204903,0.7578583341417972,-1.25,0.0,0.0006754398345947266,0.0007486343383789062,0
1.6993920803070068,0.1266266405582428,0.11459334194660187,-0.45194563269615173,0.09314029373278768,-0.7061339795085334,-0.45055570651799476,0.4783323370763859,-0.11868540848751144,0.25248864083478967,0.759110984144875,-1.25,0.0,0.0006222724914550781,0.0006945133209228516,0
1.709498643875122,0.12930382788181305,0.11979756504297256,-0.46016886830329895,0.09255916404540822,-0.7048544433125092,-0.4537544257361773,0.47662600966763075,-0.11778947245828543,0.2486494317275376,0.7603771827859991,-1.25,0.0,0.0006639957427978516,0.0007302761077880859,0
1.7192888259887695,0.13470321893692017,0.13039854168891907,-0.47655612230300903,0.09139018612870878,-0.7035323757902843,-0.4566344643228793,0.47075393070296817,-0.11672395051906297,0.24492435199258208,0.7615852295055451,-1.25,0.0,0.0006008148193359375,0.0006616115570068359,0
1.7292869091033936,0.1374187469482422,0.135789155960083,-0.48471590876579285,0.0908146047587455,-0.7023101724891061,-0.45819294865852983,0.4652969278906401,-0.11576224214787459,0.24111411126365623,0.7628000952736813,-1.25,0.0,0.0006918907165527344,0.0007724761962890625,0
1.739424228668213,0.14014263451099396,0.14123468101024628,-0.49285030364990234,0.09022195456024053,-0.7011798863336246,-0.45861791359600484,0.46009105983758297,-0.11486680246360174,0.23724465639177605,0.7640124167927823,-1.25,0.0,0.0006535053253173828,0.0007555484771728516,0
1.7492647171020508,0.14595931768417358,0.15175361931324005,-0.50930255651474,0.0890094894390521,-0.7000118608834066,-0.45779581010136017,0.4507278927945812,-0.11378532026416309,0.23348267218490948,0.7651704658371193,-1.25,0.0,0.0006093978881835938,0.0006687641143798828,0
1.7593073844909668,0.14886651933193207,0.15709568560123444,-0.5174924731254578,0.0884204603442227,-0.6989184290537848,-0.4559119781604579,0.44243643070123245,-0.11280739681399865,0.2296375686031596,0.7663332089150445,-1.25,0.0,0.0006132125854492188,0.0006794929504394531,0
1.769294261932373,0.1517692655324936,0.1624888926744461,-0.5256496667861938,0.08784597341765489,-0.6978967317043084,-0.4531701500493446,0.4346939504452177,-0.11190741780141898,0.22580808365226815,0.767470331255411,-1.25,0.0,0.0006494522094726562,0.0007097721099853516,0
1.7795326709747314,0.15466603636741638,0.16793085634708405,-0.5337729454040527,0.08724732658246051,-0.6969401197137306,-0.4497690120315181,0.4273375513360181,-0.11105293992941682,0.22187630443699088,0.7686162277296673,-1.25,0.0,0.0006148815155029297,0.0006756782531738281,0
1.78959059715271,0.15755648910999298,0.17341765761375427,-0.5418604612350464,0.08663472357036131,-0.6960456517027949,-0.4456975765741144,0.42016585639285653,-0.11022507928947523,0.21800817241877166,0.7697223114595465,-1.25,0.0,0.0006382465362548828,0.0007069110870361328,0
1.799379587173462,0.16330759227275848,0.1845143437385559,-0.5579268336296082,0.08537210284940436,-0.6951482509905674,-0.43966690402693875,0.4077612079345425,-0.10917209407116034,0.21423817414242158,0.7707801273645563,-1.25,0.0,0.0005757808685302734,0.0006330013275146484,0
1.8094284534454346,0.1661604791879654,0.19011949002742767,-0.5659169554710388,0.08473387804025048,-0.694289681118102,-0.43339264432103575,0.396482870829543,-0.10819567011490715,0.21036275301640173,0.7718468190925972,-1.25,0.0,0.0006504058837890625,0.0007145404815673828,0
1.8193464279174805,0.1689966320991516,0.19575881958007812,-0.5738675594329834,0.08409982730768054,-0.6934746985403699,-0.42687189417244137,0.3859893721223007,-0.10727440432081613,0.20653260361177922,0.7728805105870763,-1.25,0.0,0.0006744861602783203,0.0007474422454833984,0
1.829345941543579,0.17181459069252014,0.20142969489097595,-0.5817774534225464,0.08345591354716067,-0.6927029182165158,-0.4200693430410771,0.3759440686177945,-0.10638805060475742,0.2026658237115626,0.7739034590304619,-1.25,0.0,0.0006248950958251953,0.0007040500640869141,0
1.8392953872680664,0.17738430202007294,0.21285070478916168,-0.59747314453125,0.08212651810611084,-0.6919542017435768,-0.41073128534429176,0.3607245050126489,-0.10526907971312288,0.19881337659212187,0.7749020849681844,-1.25,0.0,0.0007078647613525391,0.0007748603820800781,0
1.849301815032959,0.18013320863246918,0.21859389543533325,-0.6052565574645996,0.08143379452709823,-0.6912246510762114,-0.4014836865474989,0.34716290208670886,-0.10422602874684889,0.19493390354013873,0.7758870879519804,-1.25,0.0,0.0006277561187744141,0.0006871223449707031,0
1.859466552734375,0.18285726010799408,0.2243558168411255,-0.6129959225654602,0.08072598690384883,-0.69051879705805,-0.39233948816162717,0.33487167717382665,-0.10323046521173852,0.1909880585369916,0.7768677889424112,-1.25,0.0,0.0006883144378662109,0.0007646083831787109,0
1.8694064617156982,0.18555505573749542,0.23013615608215332,-0.6206908226013184,0.08001657082502803,-0.689843565123276,-0.3833214560614775,0.3233864866778135,-0.10226753970760344,0.18712471813498063,0.7778073925226631,-1.25,0.0,0.0007414817810058594,0.0008189678192138672,0
1.8792622089385986,0.19085995852947235,0.2417428195476532,-0.6359821557998657,0.07860091282593397,-0.6892102642656498,-0.3717973577611689,0.30681741520528216,-0.10106262010504885,0.1832895250657311,0.7787200716568046,-1.25,0.0,0.0006928443908691406,0.0007574558258056641,0
1.8894069194793701,0.19346433877944946,0.2475632131099701,-0.6435568928718567,0.0778814354299622,-0.6885804319715452,-0.3608835542516985,0.2921570812031089,-0.09994937235977112,0.17933723924035805,0.7796397595182321,-1.25,0.0,0.0006952285766601562,0.0007584095001220703,0
1.8994250297546387,0.19603437185287476,0.2533921003341675,-0.6510833501815796,0.07712564650481314,-0.6879664222187881,-0.35035360417290423,0.2788188649623189,-0.09888667809114393,0.17542974719056484,0.780528285074061,-1.25,0.0,0.0007331371307373047,0.00080108642578125,0
1.9094836711883545,0.19856888055801392,0.25922635197639465,-0.6585612893104553,0.0763574251169177,-0.6873773444215798,-0.34001233783786955,0.2665597477244537,-0.09785470908264235,0.17150201800388287,0.7814007024699913,-1.25,0.0,0.0007753372192382812,0.0008442401885986328,0
1.9194691181182861,0.2035255879163742,0.2708998918533325,-0.6733651161193848,0.07477150812331092,-0.6868533574986634,-0.3269660904632598,0.24940287473780107,-0.096537611904088,0.1675985790536881,0.7822472219824017,-1.25,0.0,0.0006625652313232422,0.0007264614105224609,0
1.9293227195739746,0.20594117045402527,0.2767360210418701,-0.680718719959259,0.07393863261458769,-0.6863257109595348,-0.31474662962006794,0.23408656369653286,-0.09530331556332894,0.16374258437588607,0.7830634495760264,-1.25,0.0,0.0006129741668701172,0.0006811618804931641,0
1.9393250942230225,0.21064548194408417,0.2883983254432678,-0.6952648162841797,0.07228264254434727,-0.6858480253926885,-0.3005149762916638,0.2150121986622943,-0.09381831184845682,0.1598243059527647,0.7838725605777492,-1.25,0.0,0.0006160736083984375,0.0006830692291259766,0
1.9496288299560547,0.21064548194408417,0.2883983254432678,-0.6952648162841797,0.07228264254434727,-0.685311687653034,-0.29006251773373687,0.20410626411266442,-0.09277880924804743,0.1557837949577569,0.7846855479926718,-1.25,0.0,0.0011103153228759766,0.0012359619140625,0
1.9592947959899902,0.21517056226730347,0.30002740025520325,-0.7095919847488403,0.0706807019098561,-0.6848685808490024,-0.2768726800961553,0.18792097113621836,-0.09145042968982596,0.15198961842019365,0.785429281280297,-1.25,0.0,0.0012450218200683594,0.0013113021850585938,0
1.9697558879852295,0.21736055612564087,0.3058251738548279,-0.7166703939437866,0.06983951635926847,-0.6844284868806135,-0.26465136577228066,0.17364093191806157,-0.09020511941760509,0.14787933406138873,0.786213522242883,-1.25,0.0,0.0010943412780761719,0.0011572837829589844,0
1.9793946743011475,0.21950067579746246,0.3116111159324646,-0.7236921191215515,0.06897660575320533,-0.6840002698090969,-0.25316562645347795,0.16053371444893372,-0.08900981074977675,0.14408855929934547,0.7869170776384504,-1.25,0.0,0.0006775856018066406,0.0007512569427490234,0
1.989440679550171,0.2215905636548996,0.31738153100013733,-0.7306585311889648,0.06813112375808418,-0.683588108761041,-0.24207296959447636,0.14862734887583462,-0.08785603893412644,0.14013407166112157,0.7876309046499355,-1.25,0.0,0.0007119178771972656,0.0007786750793457031,0
1.9993093013763428,0.2256198227405548,0.32886478304862976,-0.7444644570350647,0.06647438457841506,-0.6832431378700411,-0.22874990036166293,0.13247892977379203,-0.08642712147079311,0.13624596571512507,0.7883127785507178,-1.25,0.0,0.000614166259765625,0.0006775856018066406,0
2.009516716003418,0.2275550365447998,0.33457696437835693,-0.7512809038162231,0.06564951323835391,-0.6828856962941732,-0.2165387702630924,0.11847704704758849,-0.08511755249393693,0.1322208910363941,0.7889978681679324,-1.25,0.0,0.0012946128845214844,0.0014011859893798828,0
2.0194520950317383,0.22943614423274994,0.34026676416397095,-0.7580382823944092,0.06479097788444423,-0.6825360738431353,-0.20509308535171777,0.10603081642741582,-0.08387890345242367,0.12829977925463684,0.7896449623996924,-1.25,0.0,0.0011820793151855469,0.0012824535369873047,0
2.029400110244751,0.2312624156475067,0.34593117237091064,-0.7647365927696228,0.06394699356148717,-0.6822043055646189,-0.19410737705879788,0.0947649533613391,-0.08269535500225543,0.1243705082876932,0.7902733556613565,-1.25,0.0,0.0006844997406005859,0.0007534027099609375,0
2.0393056869506836,0.23474563658237457,0.3571736216545105,-0.7779497504234314,0.0622616961623488,-0.6819585962876875,-0.18092343036902556,0.07946494136549863,-0.08123488456245853,0.12045494220997627,0.7908796412205787,-1.25,0.0,0.0006613731384277344,0.0007269382476806641,0
2.0493102073669434,0.23639962077140808,0.3627510070800781,-0.7845063209533691,0.06141915727048299,-0.6817001224805714,-0.16890167779012102,0.0662510443193874,-0.0798966031701488,0.1164972659050626,0.7914722907573235,-1.25,0.0,0.0006237030029296875,0.0006945133209228516,0
2.05936336517334,0.23953330516815186,0.3738163709640503,-0.7974331378936768,0.059777966477148746,-0.681491090785082,-0.15548247092745238,0.05016910305927859,-0.07834435964803649,0.11251741300349503,0.7920478721459966,-1.25,0.0,0.0006449222564697266,0.0007092952728271484,0
2.0695483684539795,0.23953330516815186,0.3738163709640503,-0.7974331378936768,0.059777966477148746,-0.6812071294590271,-0.1456767850103654,0.04119772065345166,-0.07725778918255363,0.10848246636310709,0.7926105944862063,-1.25,0.0,0.0006282329559326172,0.0006897449493408203,0
2.0793023109436035,0.2424294799566269,0.3847447633743286,-0.8101091980934143,0.05818818082677371,-0.6810159937696524,-0.1337855881074997,0.028263739789012043,-0.07590102023782787,0.10461565249203203,0.7931302322151556,-1.25,0.0,0.0006303787231445312,0.0006916522979736328,0
2.0894010066986084,0.24378545582294464,0.3901550769805908,-0.8163511753082275,0.057386323290155944,-0.6808228829138588,-0.12285871114807011,0.017235197784568307,-0.07465058540028816,0.10060954542201855,0.7936483600247498,-1.25,0.0,0.0006465911865234375,0.0007512569427490234,0
2.0993270874023438,0.24508072435855865,0.39552801847457886,-0.822528600692749,0.05660030539216733,-0.6806410297723451,-0.11270778647261637,0.007528764468254007,-0.07348052430226461,0.09666941366336017,0.7941379127468869,-1.25,0.0,0.0006535053253173828,0.0007181167602539062,0
2.109377145767212,0.24748212099075317,0.40615740418434143,-0.8347116708755493,0.05507913986401761,-0.6805195944131759,-0.1010340952181451,-0.005416620377867096,-0.07209104446059202,0.09267764377798772,0.7946136509925817,-1.25,0.0,0.0006649494171142578,0.0007340908050537109,0
2.119492769241333,0.24858614802360535,0.4114103317260742,-0.8407168984413147,0.054339107954167326,-0.6803866241187301,-0.09047308297660721,-0.016292003157011896,-0.07084089660522733,0.08865746925071646,0.7950722314016874,-1.25,0.0,0.0006113052368164062,0.0006735324859619141,0
2.129512310028076,0.24962718784809113,0.41662120819091797,-0.8466581702232361,0.05360355819321174,-0.6802527424619206,-0.08076315143697427,-0.025517808796607727,-0.06968996194611368,0.08467324403516216,0.7955064058475971,-1.25,0.0,0.0006008148193359375,0.0006644725799560547,0
2.1395742893218994,0.25060561299324036,0.4217887222766876,-0.8525350093841553,0.05286441539760592,-0.6801313998340085,-0.07166945978717604,-0.03346635191811851,-0.06860712913637819,0.0806700048524712,0.7959223268115441,-1.25,0.0,0.0006508827209472656,0.0007224082946777344,0
2.1493659019470215,0.2517518401145935,0.42711058259010315,-0.8584453463554382,0.05213582683481491,-0.6800146627372857,-0.06328194840428082,-0.040255138602438796,-0.06757592545852134,0.07677237208258825,0.7963077312727868,-1.25,0.0,0.0006422996520996094,0.0007121562957763672,0
2.159287691116333,0.2538408041000366,0.4376095235347748,-0.8700695633888245,0.050697915023949734,-0.6799519707907579,-0.05392374246357361,-0.04953361445712695,-0.06631486595494626,0.0728210448739716,0.7966787906198225,-1.25,0.0,0.0006287097930908203,0.0006940364837646484,0
2.169447898864746,0.2547837793827057,0.4427846372127533,-0.8758190274238586,0.05001050730868631,-0.6798812177574325,-0.045566479113467145,-0.05708063075875598,-0.06517434640921595,0.06877291161034743,0.7970384473967584,-1.25,0.0,0.0006246566772460938,0.0006866455078125,0
2.17940092086792,0.2564675509929657,0.4529840052127838,-0.8871186971664429,0.04863883865855214,-0.6798566175769089,-0.03652133054330511,-0.06631248555256794,-0.06386160698340838,0.06480560577863864,0.7973708255634036,-1.25,0.0,0.0006003379821777344,0.0006604194641113281,0
2.189657211303711,0.25720882415771484,0.4580051600933075,-0.8926665186882019,0.04797888133255792,-0.679829040152222,-0.028453219213903418,-0.07352435201116281,-0.06269520538809524,0.06071573819181976,0.7976926721086401,-1.25,0.0,0.0006725788116455078,0.0007405281066894531,0
