time,x,y,z,yaw,throttle,roll_rate,pitch_rate,yaw_rate,x_ref,y_ref,z_ref,yaw_ref,pred_time,nr_time,metadata
2.6226043701171875e-06,0.12167034298181534,-0.022732965648174286,-0.09466636925935745,0.0183887011522075,-0.7362464960851542,0.18204445782448753,-0.3659541314686203,-0.006895762932076899,0.7368483866855761,0.31153564007808776,-1.25,0.0,0.002110719680786133,0.0021767616271972656,Sim
0.008148670196533203,0.12166193127632141,-0.02273843251168728,-0.09465125948190689,0.018401352362451353,-0.7603421300313905,0.31349407620544334,-0.49616789202803424,-0.011727541188373491,0.7355733861454713,0.31453424868285085,-1.25,0.0,0.0021216869354248047,0.0022788047790527344,Nonlinear
0.01822042465209961,0.12164369225502014,-0.022749507799744606,-0.0946347638964653,0.018408634066957384,-0.7793731074673927,0.40348286181104986,-0.587317524419624,-0.015112516606970014,0.7339801099073409,0.31823450199563186,-1.25,0.0,0.0005314350128173828,0.0005621910095214844,0OrderHold
0.028310298919677734,0.12161581218242645,-0.022766876965761185,-0.09461743384599686,0.018411531863249196,-0.7949258463633451,0.46196422772167206,-0.6511222670937369,-0.017483086073597658,0.73236530327376,0.3219333200535998,-1.25,0.0,0.0005550384521484375,0.0005838871002197266,EulerYawError
0.03807568550109863,0.1215377226471901,-0.02281937561929226,-0.09458570927381516,0.018410783804293975,-0.8078530857741414,0.49765491033058,-0.6957855869656159,-0.0191422041781291,0.730784677826624,0.3255053834483194,-1.25,0.0,0.0005295276641845703,0.0005555152893066406,0
0.04827260971069336,0.12148725241422653,-0.022853923961520195,-0.09457125514745712,0.018418202456214307,-0.8186731351199106,0.5175175959307728,-0.7270499108759312,-0.02030636884577033,0.7291156100508371,0.3292270146573573,-1.25,0.0,0.0005598068237304688,0.0005900859832763672,0
0.058090925216674805,0.1213628426194191,-0.02294147200882435,-0.09454667568206787,0.01847128471020045,-0.8277301409989184,0.5267716984786193,-0.7489349376131519,-0.02114118995836429,0.7274906034277061,0.3328023766808046,-1.25,0.0,0.0005736351013183594,0.0006072521209716797,0
0.06822919845581055,0.1213628426194191,-0.02294147200882435,-0.09454667568206787,0.01847128471020045,-0.8352895579128311,0.529220286897534,-0.7642544563292063,-0.021725564737180347,0.7257942431055838,0.3364858342854758,-1.25,0.0,0.0005631446838378906,0.0005927085876464844,0
0.07816696166992188,0.12120860815048218,-0.023051371797919273,-0.09451860189437866,0.018453049481129715,-0.8415738280100433,0.5277233634507161,-0.7749781194304444,-0.02212778887144983,0.7241133318793429,0.34008805123761215,-1.25,0.0,0.0005559921264648438,0.0005822181701660156,0
0.08848953247070312,0.12111911922693253,-0.023114867508411407,-0.0945013239979744,0.018463918379384905,-0.8467751499137044,0.5242419669243533,-0.7824846836013111,-0.022413421602284184,0.722348403420841,0.3438208604424141,-1.25,0.0,0.001088857650756836,0.0011372566223144531,0
0.09823155403137207,0.12102219462394714,-0.023185182362794876,-0.09448116272687912,0.01848091701065637,-0.8510640618607006,0.5200084014825018,-0.7877392785209177,-0.02261973900059513,0.7206650854542526,0.34733533452157567,-1.25,0.0,0.0009899139404296875,0.0010297298431396484,0
0.10842370986938477,0.12091784924268723,-0.023261699825525284,-0.09445981681346893,0.018510504343106218,-0.8545844409553888,0.5157670725241111,-0.7914174949646424,-0.022775256429081403,0.7188856873673145,0.35100337391316305,-1.25,0.0,0.0006749629974365234,0.0007159709930419922,0
0.1180276870727539,0.12068729847669601,-0.023429060354828835,-0.0943700447678566,0.01849530448181571,-0.8574730077726787,0.5119845086362756,-0.7939922464752497,-0.02287841868103795,0.7171918912337779,0.35445139462064046,-1.25,0.0,0.0005326271057128906,0.0005574226379394531,0
0.1281874179840088,0.12056227028369904,-0.02351936139166355,-0.09432150423526764,0.018482477519706355,-0.8598429687026033,0.5089791181859896,-0.7957945725326748,-0.022945822146616408,0.7153820800221489,0.3580900439598731,-1.25,0.0,0.0005545616149902344,0.0005803108215332031,0
0.13821840286254883,0.12043076753616333,-0.023613225668668747,-0.09427029639482498,0.01847592498861619,-0.8617821236523574,0.5068105247111107,-0.7970562007728724,-0.02299054737336257,0.7135770918857941,0.36167351843314854,-1.25,0.0,0.0005509853363037109,0.0005807876586914062,0
0.14824748039245605,0.12029280513525009,-0.023711413145065308,-0.09421901404857635,0.01847560722314714,-0.8633643794890563,0.5055096368349985,-0.7979393405410107,-0.023021735870033987,0.711754501965216,0.36524721618685546,-1.25,0.0,0.0005724430084228516,0.0005993843078613281,0
0.15810585021972656,0.11999763548374176,-0.02392180636525154,-0.09410818666219711,0.01844792709714962,-0.864661129576652,0.5051366303867849,-0.7985575383787075,-0.023033187770454898,0.7099454915043638,0.3687511343611397,-1.25,0.0,0.0005927085876464844,0.0006227493286132812,0
0.16802501678466797,0.11983940005302429,-0.024034807458519936,-0.09404926002025604,0.018449503027280014,-0.865720795459263,0.5055344622243007,-0.7989902768650953,-0.023041795074548437,0.7081079156282396,0.37226761855502555,-1.25,0.0,0.0005631446838378906,0.0005888938903808594,0
0.17815065383911133,0.11967451125383377,-0.024152705445885658,-0.09399048984050751,0.01845525855606869,-0.8665936286494218,0.506654672505241,-0.7992931938055667,-0.023049978510709668,0.706214125145305,0.3758478541181943,-1.25,0.0,0.0005843639373779297,0.0006129741668701172,0
0.18825221061706543,0.11932159960269928,-0.024404754862189293,-0.09387210011482239,0.018433769435955115,-0.8673147162950037,0.508517664822829,-0.7995052356638968,-0.023047648495979935,0.704306801127368,0.3794099759965915,-1.25,0.0,0.0005981922149658203,0.0006268024444580078,0
0.1981520652770996,0.1191352978348732,-0.024538060650229454,-0.09381154179573059,0.018441694934104434,-0.8679204543058794,0.5108022681290705,-0.7996536649647278,-0.023048989547475116,0.7024201286194299,0.3828915811431005,-1.25,0.0,0.0005235671997070312,0.0005481243133544922,0
0.2082211971282959,0.11894331872463226,-0.02467539720237255,-0.09374915063381195,0.01846346190588146,-0.8684341591719352,0.5134829101284375,-0.7997575654753095,-0.023058090897938133,0.7004835418038491,0.3864230941105038,-1.25,0.0,0.0005629062652587891,0.0005917549133300781,0
0.21826505661010742,0.11910099536180496,-0.02440551295876503,-0.09369432926177979,0.01847352015894035,-0.8688773943055714,0.5162981162066896,-0.7998302958327167,-0.023068233688159325,0.6985341273305683,0.3899359857137086,-1.25,0.0,0.0005688667297363281,0.0006005764007568359,0
0.2282853126525879,0.11924517154693604,-0.024147767573595047,-0.09364734590053558,0.018453688712334573,-0.8692611306607053,0.5191860986817173,-0.7998812070829017,-0.02306789684883699,0.6965717392272543,0.393430822521467,-1.25,0.0,0.0005464553833007812,0.0005729198455810547,0
0.23802828788757324,0.11949498951435089,-0.02366700768470764,-0.09355419874191284,0.018416243584783023,-0.8696024825113481,0.5220359938937649,-0.7999168449580312,-0.023053619138479524,0.6946468881355459,0.39681948138114703,-1.25,0.0,0.0005545616149902344,0.0005795955657958984,0
0.24814558029174805,0.11960231512784958,-0.023443039506673813,-0.09350556135177612,0.018415197935997687,-0.8699073351716786,0.5250475183504778,-0.7999417914706218,-0.02304323262293479,0.6926306393807958,0.4003283619617151,-1.25,0.0,0.0005564689636230469,0.0005850791931152344,0
0.2582094669342041,0.11969698965549469,-0.023230282589793205,-0.09345704317092896,0.018409955492306083,-0.8701757801761809,0.5282357858270738,-0.7999592540294354,-0.02303399614566913,0.6906074494120826,0.40380855713634634,-1.25,0.0,0.0011069774627685547,0.0011501312255859375,0
0.2682788372039795,0.11985046416521072,-0.022836245596408844,-0.0933595821261406,0.018405451899424354,-0.8704214737793664,0.5314462186828273,-0.7999714778206047,-0.023025841764252524,0.6885656563019773,0.40728041563697537,-1.25,0.0,0.0005733966827392578,0.0006022453308105469,0
0.27805662155151367,0.11990657448768616,-0.0226553026586771,-0.0932805985212326,0.01842024133589628,-0.8706436940004101,0.534774660676697,-0.7999800344744233,-0.023025679735937873,0.6865662854179648,0.41064185822609195,-1.25,0.0,0.0005357265472412109,0.0005621910095214844,0
0.28828859329223633,0.11995083838701248,-0.02248581126332283,-0.09320155531167984,0.01843929258689616,-0.8708544136094808,0.5383153556032647,-0.7999860241320964,-0.023032710535242574,0.6844564718007992,0.41414893240234485,-1.25,0.0,0.0005521774291992188,0.0005791187286376953,0
0.2982640266418457,0.11998432874679565,-0.022326849400997162,-0.09312091767787933,0.01844242396259179,-0.8710562236763078,0.5419330305636386,-0.7999902168924675,-0.023038806360641723,0.6823823091265866,0.4175576417586771,-1.25,0.0,0.0005517005920410156,0.0005817413330078125,0
0.3082718849182129,0.12000736594200134,-0.022177679464221,-0.09304029494524002,0.01843493003250554,-0.8712473630319778,0.5456231467074382,-0.7999931518247273,-0.02304026321463878,0.6802843458235728,0.42096699256282993,-1.25,0.0,0.00054931640625,0.0005767345428466797,0
0.31807827949523926,0.12002278864383698,-0.021910550072789192,-0.09288030117750168,0.01842335157101285,-0.8714312766675938,0.5493266933593395,-0.7999952062773091,-0.023036941089376966,0.678212092419149,0.42429748726151983,-1.25,0.0,0.0005712509155273438,0.0005998611450195312,0
0.3280766010284424,0.12001493573188782,-0.02179119735956192,-0.09280157834291458,0.018410705072973845,-0.8716070818074734,0.5530468179437584,-0.7999966443941164,-0.02302987316492907,0.6760824951146804,0.42768266249581394,-1.25,0.0,0.0005466938018798828,0.0005717277526855469,0
0.3383309841156006,0.11999762058258057,-0.02168026566505432,-0.09272274374961853,0.0183978843761097,-0.8717819838947696,0.5568238201580248,-0.7999976510758815,-0.023020117856491485,0.673880807351325,0.4311434302915057,-1.25,0.0,0.0005469322204589844,0.0005743503570556641,0
0.3483452796936035,0.11997149139642715,-0.021577663719654083,-0.09264424443244934,0.018402171990589154,-0.8719484806643532,0.5606326473544696,-0.7999983557531171,-0.023014896996014972,0.6717135699048725,0.43451223228541225,-1.25,0.0,0.0005717277526855469,0.0006017684936523438,0
0.35816121101379395,0.11989101767539978,-0.02140219509601593,-0.09249268472194672,0.01840234019075051,-0.8721114761499142,0.5644720481952267,-0.799998849027182,-0.023011305468741923,0.6695729172068979,0.4378037329021358,-1.25,0.0,0.0005412101745605469,0.0005662441253662109,0
0.3683054447174072,0.1198388859629631,-0.021327534690499306,-0.09241822361946106,0.018403685511065214,-0.8722705885002087,0.5683084800671525,-0.7999991943190274,-0.0230092958947688,0.6673437222151172,0.4411942388790595,-1.25,0.0,0.0006089210510253906,0.0006368160247802734,0
0.37830209732055664,0.11977989226579666,-0.021260850131511688,-0.0923444852232933,0.01839436315599776,-0.8724299299040514,0.5721831261499338,-0.7999994360233192,-0.02300439330983732,0.6651301624336864,0.44452431544397886,-1.25,0.0,0.0011055469512939453,0.0011556148529052734,0
0.388378381729126,0.1197124496102333,-0.021201210096478462,-0.09227047860622406,0.018391424951865323,-0.8725894036065922,0.5760535515977634,-0.7999996052163235,-0.02299985967383562,0.6628821537530363,0.447869679969225,-1.25,0.0,0.0010771751403808594,0.001119852066040039,0
0.39818477630615234,0.11955200880765915,-0.021100841462612152,-0.09211757779121399,0.018401757888424155,-0.8727535674500082,0.5798301556580234,-0.7999997236514265,-0.02300056097984399,0.6606782008788339,0.45111452524110485,-1.25,0.0,0.0010721683502197266,0.0011143684387207031,0
0.4081413745880127,0.11946103721857071,-0.02106119878590107,-0.09204042702913284,0.018394719753404478,-0.8729111777197294,0.5836284628759264,-0.7999998065559986,-0.02299841259341747,0.6584242401719878,0.4543979752969205,-1.25,0.0,0.0005762577056884766,0.0006036758422851562,0
0.4181809425354004,0.11936399340629578,-0.021028894931077957,-0.09196457266807556,0.018399357171652996,-0.8730681211166225,0.5874450983102802,-0.799999864589199,-0.022998647754762104,0.6561349745316659,0.4576973838644155,-1.25,0.0,0.0005626678466796875,0.0005910396575927734,0
0.4283158779144287,0.1191512793302536,-0.0209818035364151,-0.09181354194879532,0.018405653075824334,-0.8732321288278438,0.5912892171618347,-0.7999999052124394,-0.0230011733317676,0.6538071932519023,0.461016435772164,-1.25,0.0,0.0006072521209716797,0.0006387233734130859,0
0.4380667209625244,0.11903461068868637,-0.020971661433577538,-0.09173676371574402,0.018388211224687614,-0.8733978342752352,0.5951633127476809,-0.7993936949994592,-0.022996400541495175,0.6515517823058441,0.46419852969831554,-1.25,0.0,0.0005447864532470703,0.0005710124969482422,0
0.44814300537109375,0.11891089379787445,-0.020969152450561523,-0.09165819734334946,0.018376451340964797,-0.8735579583002423,0.5991225093850533,-0.7981704269587799,-0.02298864963190842,0.649204824884165,0.4674752350094289,-1.25,0.0,0.0006031990051269531,0.00063323974609375,0
0.4581332206726074,0.11864254623651505,-0.020984195172786713,-0.09148915112018585,0.018392416900383315,-0.873709817535364,0.6030335891040443,-0.7965667586757339,-0.02298921107997964,0.6468616463011686,0.47071223751304986,-1.25,0.0,0.00057220458984375,0.0006406307220458984,0
0.4680318832397461,0.11849719285964966,-0.021000448614358902,-0.09139987081289291,0.018404224754341916,-0.873845677211776,0.6069013175980285,-0.7945644364888281,-0.022994032038863965,0.6445240223033515,0.47390799178100906,-1.25,0.0,0.0006718635559082031,0.0007007122039794922,0
0.47831225395202637,0.11834543943405151,-0.021022675558924675,-0.09131234884262085,0.018400899903725752,-0.8739634806075637,0.6107938964502655,-0.7922392954033686,-0.022996159891101934,0.6420795434820965,0.47721468946567724,-1.25,0.0,0.0005724430084228516,0.0006022453308105469,0
0.48818325996398926,0.11818753182888031,-0.021050384268164635,-0.09122614562511444,0.018393384150347882,-0.874068753749365,0.6146440746781413,-0.7897083837902763,-0.022994830980151808,0.6397164382570084,0.48037784984714604,-1.25,0.0,0.0006604194641113281,0.0006914138793945312,0
0.49816131591796875,0.11802364140748978,-0.02108229696750641,-0.09113997220993042,0.018408591857367783,-0.8741599962319652,0.6184357216290097,-0.7870954696848089,-0.022999603632619187,0.6373118682841614,0.48356342142903225,-1.25,0.0,0.0006358623504638672,0.0006678104400634766,0
0.5082285404205322,0.1178533211350441,-0.021117420867085457,-0.09105440229177475,0.018419813016049134,-0.8742363052184937,0.6221960898895879,-0.7844365159618232,-0.023007152423851863,0.6348697339517974,0.48676526263895836,-1.25,0.0,0.0007331371307373047,0.0007646083831787109,0
0.5180206298828125,0.11749284714460373,-0.021202057600021362,-0.09088948369026184,0.0183885955206782,-0.874302471268904,0.6260651694598276,-0.7819778616123064,-0.02300073001695063,0.6324789096771931,0.48986776666111553,-1.25,0.0,0.0005636215209960938,0.0005898475646972656,0
0.5281960964202881,0.1173020750284195,-0.02125275880098343,-0.09080933034420013,0.01839200925795772,-0.8743587502336048,0.6299804440352894,-0.7794412889066625,-0.022997514483599584,0.6299784180456772,0.49307929666197303,-1.25,0.0,0.0005698204040527344,0.0005972385406494141,0
0.5382299423217773,0.11690519750118256,-0.021370314061641693,-0.0906512439250946,0.018393058716460933,-0.8744115304880282,0.634023991154961,-0.7769416997336295,-0.022995657157192557,0.627496759473573,0.4962336313171095,-1.25,0.0,0.0005645751953125,0.0005943775177001953,0
0.5481719970703125,0.11669982224702835,-0.021436573937535286,-0.09057056158781052,0.018393193914473714,-0.8744645102709535,0.6380364459827474,-0.7743648445706861,-0.02299440772796243,0.6250222256120275,0.49934679080874034,-1.25,0.0,0.0005717277526855469,0.0005984306335449219,0
0.5581929683685303,0.11648917198181152,-0.02150585874915123,-0.09048935770988464,0.018388224043953263,-0.8745156604483908,0.6419881147979143,-0.7717405066070773,-0.022991669426056176,0.6225124205867982,0.5024721745680703,-1.25,0.0,0.0005781650543212891,0.0006077289581298828,0
0.5682075023651123,0.1162741556763649,-0.02157813124358654,-0.09040732681751251,0.018381365932992354,-0.8745676063205788,0.645947150948869,-0.7690017709598181,-0.022987180823111453,0.6199886147390186,0.5055829482824683,-1.25,0.0,0.0005638599395751953,0.0005905628204345703,0
0.5780797004699707,0.11583152413368225,-0.021736474707722664,-0.09022250026464462,0.01832574460978822,-0.8746205628542781,0.6499865954618611,-0.7663509787999332,-0.022963180804848604,0.6174854643424836,0.5086371017982737,-1.25,0.0,0.0005662441253662109,0.0005941390991210938,0
0.5886387825012207,0.11560279130935669,-0.02182302623987198,-0.09012088924646378,0.01831541594708355,-0.874671471300251,0.65409559172413,-0.7635919761429908,-0.022942507543550348,0.6147915006395669,0.5118900377438006,-1.25,0.0,0.0011246204376220703,0.0011696815490722656,0
0.5981082916259766,0.11536984145641327,-0.021914049983024597,-0.09001906961202621,0.018306336616804832,-0.874722926909038,0.6581026559297996,-0.7608825892503609,-0.022924631511787058,0.6123609448489734,0.514795175991066,-1.25,0.0,0.0010783672332763672,0.0011210441589355469,0
0.6083381175994873,0.11513175070285797,-0.022008687257766724,-0.08991582691669464,0.018301738614447307,-0.8747764320497317,0.6621233315669597,-0.7581520432289895,-0.022910394038668683,0.6097198134206616,0.5179206011757727,-1.25,0.0,0.0005424022674560547,0.0005691051483154297,0
0.6182737350463867,0.11561951786279678,-0.021595707163214684,-0.08960410952568054,0.018281483057987626,-0.8748425451738898,0.6658895135848901,-0.7550270790938195,-0.022892831973813442,0.6071393698631994,0.520943169224933,-1.25,0.0,0.0012493133544921875,0.0013043880462646484,0
0.6281721591949463,0.11584100127220154,-0.021405741572380066,-0.08945177495479584,0.018284984112753724,-0.874899610210237,0.6695848727955716,-0.7517756758051213,-0.022881851423952052,0.6045536863324246,0.5239416382975078,-1.25,0.0,0.0005397796630859375,0.0005655288696289062,0
0.6383247375488281,0.11604852974414825,-0.02122834511101246,-0.08929868787527084,0.018267470076934765,-0.8749486925575168,0.6732528876431744,-0.7483387187842416,-0.022867597275616974,0.6018862292191918,0.5270037638160686,-1.25,0.0,0.0005524158477783203,0.0005831718444824219,0
0.6482458114624023,0.11624229699373245,-0.021061496809124947,-0.0891481414437294,0.01826254396846163,-0.8749954217061163,0.6768553382738932,-0.7448565834914305,-0.022855772081104994,0.5992646130236928,0.5299829464969262,-1.25,0.0,0.0005357265472412109,0.000560760498046875,0
0.6582775115966797,0.11642134189605713,-0.02090432681143284,-0.08899848163127899,0.01825485171530896,-0.8750381575902529,0.6804343099304369,-0.7413753045916136,-0.02284460985001435,0.5965987708135029,0.5329820885018722,-1.25,0.0,0.00055694580078125,0.0005846023559570312,0
0.6683444976806641,0.11658644676208496,-0.020757615566253662,-0.08884944766759872,0.018247419644940054,-0.8750814905994766,0.6840468448671017,-0.737822346643205,-0.022834009261862562,0.5939084627950952,0.5359782997662937,-1.25,0.0,0.0005888938903808594,0.0006203651428222656,0
0.6781711578369141,0.11687763035297394,-0.020489515736699104,-0.08854961395263672,0.01823685638489383,-0.875138421681481,0.6874062092255115,-0.7342173100418314,-0.02282262762763898,0.5912678663871883,0.5388898868766625,-1.25,0.0,0.0005428791046142578,0.0005688667297363281,0
0.6882672309875488,0.11700308322906494,-0.020368514582514763,-0.08840050548315048,0.01823585659556872,-0.8751860741362164,0.690864208632169,-0.730590495537793,-0.022814285562685555,0.5885400085547952,0.5418677498526016,-1.25,0.0,0.0005657672882080078,0.0005948543548583984,0
0.6982851028442383,0.11711616069078445,-0.02025797590613365,-0.08825203776359558,0.018230477772364997,-0.8752303188165143,0.694382794134289,-0.7269746567608564,-0.022806429058516757,0.5858184560097539,0.5448088991548763,-1.25,0.0,0.0005626678466796875,0.0005941390991210938,0
0.7081522941589355,0.11721730977296829,-0.020157799124717712,-0.08812222629785538,0.01820839730067039,-0.8752706501450623,0.6979764094166143,-0.7234125610451478,-0.022792649328713117,0.5831234705913435,0.5476924484101516,-1.25,0.0,0.0005781650543212891,0.000606536865234375,0
0.7181329727172852,0.11738521605730057,-0.019985822960734367,-0.08786121755838394,0.018214452881046197,-0.875314590950482,0.7015564644416433,-0.7197488147975876,-0.022785274360491506,0.5803830499088091,0.5505956005804523,-1.25,0.0,0.0005431175231933594,0.0005726814270019531,0
0.7281589508056641,0.11745376884937286,-0.019910801202058792,-0.08773234486579895,0.018204164127935376,-0.8753532455125625,0.705061522790302,-0.7160728495365165,-0.022776253600319818,0.5776156392407591,0.5534981240297833,-1.25,0.0,0.00054931640625,0.0005781650543212891,0
0.7381815910339355,0.11751119792461395,-0.01984217017889023,-0.08760418742895126,0.01818900873487752,-0.8753868939149576,0.7085810739465448,-0.7124376526538251,-0.022764255795802938,0.574834641657671,0.5563857787096081,-1.25,0.0,0.0005609989166259766,0.0005993843078613281,0
0.748246431350708,0.11755780130624771,-0.01978159509599209,-0.08747678995132446,0.01817419591582439,-0.8754172280614831,0.7121169257874193,-0.7088190592258545,-0.0227503025254962,0.5720274075664459,0.5592715306475123,-1.25,0.0,0.0005910396575927734,0.0006206035614013672,0
0.7581746578216553,0.11761827766895294,-0.019681239500641823,-0.08721736073493958,0.01816584910281829,-0.8754533029888691,0.7155416503132647,-0.7052192390960814,-0.022737405181404203,0.5692440837059246,0.5621042369221232,-1.25,0.0,0.0005364418029785156,0.0005621910095214844,0
0.7682244777679443,0.11763222515583038,-0.01964046247303486,-0.0870874747633934,0.018159504756726254,-0.8754807619934432,0.7189556498908743,-0.7016916534545509,-0.02272599791075529,0.5664123857944475,0.5649575286856898,-1.25,0.0,0.0005776882171630859,0.0006048679351806641,0
0.7781953811645508,0.11763372272253036,-0.01960550993680954,-0.08695933222770691,0.018138605371796925,-0.8755055155472589,0.7223732693841234,-0.6982757760389329,-0.022710175551952545,0.5635887899925921,0.5677743176603588,-1.25,0.0,0.0005776882171630859,0.0006082057952880859,0
0.7882301807403564,0.11760517209768295,-0.019558332860469818,-0.08670201152563095,0.0181180519680926,-0.8755355180490715,0.72588975741179,-0.6948771102698692,-0.0226913923744015,0.5607329572421887,0.5705949094256185,-1.25,0.0,0.0005753040313720703,0.0006036758422851562,0
0.7981863021850586,0.11757611483335495,-0.01954495720565319,-0.08657477051019669,0.01811096352832944,-0.8755628111256495,0.7294229330695622,-0.6914408622186488,-0.022675585985204593,0.5578855650946012,0.5733791906400837,-1.25,0.0,0.0005433559417724609,0.0005698204040527344,0
0.8081052303314209,0.11753974854946136,-0.019538721069693565,-0.08645029366016388,0.01809563095718694,-0.8755950226165353,0.733032749501409,-0.6878856489814615,-0.022658771798588318,0.5550350623137091,0.576138941230687,-1.25,0.0,0.0005955696105957031,0.0006227493286132812,0
0.8182308673858643,0.11749641597270966,-0.01954011246562004,-0.08632373809814453,0.01809554105093738,-0.8756334437047268,0.7366778194511271,-0.6843285339995752,-0.02264696815311334,0.5521110745181401,0.5789415872041193,-1.25,0.0,0.00055694580078125,0.0005848407745361328,0
0.828345775604248,0.11744412779808044,-0.019547268748283386,-0.08619522303342819,0.018077649214233625,-0.8756745773248871,0.7402871509192164,-0.6808148178342176,-0.022631996162516942,0.5491760556009144,0.5817264477008256,-1.25,0.0,0.0005865097045898438,0.0006148815155029297,0
0.8381705284118652,0.1173127293586731,-0.019580641761422157,-0.08593503385782242,0.018068227098944754,-0.8757218196517434,0.7439265432745207,-0.6773569240196738,-0.02261798247586614,0.5463117816272601,0.5844171774128896,-1.25,0.0,0.0005433559417724609,0.0005695819854736328,0
0.8482086658477783,0.11723651736974716,-0.019606774672865868,-0.08580401539802551,0.01806005469939034,-0.8757704799091376,0.7475047559768879,-0.6738414887413978,-0.022605108245377672,0.5433716828995706,0.5871517812481613,-1.25,0.0,0.0006210803985595703,0.0006492137908935547,0
0.8583121299743652,0.11715301126241684,-0.01963752694427967,-0.08567279577255249,0.018063863382874492,-0.8758181007107105,0.7510308456316782,-0.6702748611966899,-0.022597524540342306,0.540398628629086,0.5898892456858348,-1.25,0.0,0.0005605220794677734,0.0005905628204345703,0
0.8682742118835449,0.11706273257732391,-0.019673040136694908,-0.08554235845804214,0.018073237678664776,-0.87586371736389,0.7544485749163957,-0.6666476853714484,-0.022595731307738905,0.5374536744488213,0.59257366446836,-1.25,0.0,0.0005812644958496094,0.0006089210510253906,0
0.8781249523162842,0.11686096340417862,-0.019756700843572617,-0.08533236384391785,0.018074766598282353,-0.8759087497489242,0.7578203810734505,-0.6630798737958926,-0.022595049389773116,0.534528522467332,0.5952136243979055,-1.25,0.0,0.000553131103515625,0.0005819797515869141,0
0.8881540298461914,0.11674956977367401,-0.019805695861577988,-0.08522682636976242,0.018066860273265452,-0.8759476138086622,0.7612399074381861,-0.6594670783225649,-0.022591607175315723,0.5315370926772499,0.5978865436754842,-1.25,0.0,0.000560760498046875,0.00058746337890625,0
0.8981332778930664,0.11663155257701874,-0.019860586151480675,-0.08512203395366669,0.01805495550937433,-0.875981305496069,0.7646553387160387,-0.6558775118734583,-0.022584733338736382,0.5285472593417443,0.6005312603373207,-1.25,0.0,0.0005474090576171875,0.0005738735198974609,0
0.9083187580108643,0.11650661379098892,-0.019920460879802704,-0.0850173607468605,0.018048556240044776,-0.8760144427996915,0.7680726021186511,-0.6522745688902154,-0.022577521927132256,0.5254820687694223,0.6032152148295069,-1.25,0.0,0.0006296634674072266,0.0006592273712158203,0
0.9180691242218018,0.116237111389637,-0.020056227222085,-0.08480553328990936,0.018006705637200218,-0.8760513093191076,0.771513642112925,-0.6487824350690751,-0.022556779962942655,0.5225350511326474,0.6057698575678734,-1.25,0.0,0.0005359649658203125,0.0005609989166259766,0
0.9282176494598389,0.11609266698360443,-0.02013005129992962,-0.08470091968774796,0.017981370834196285,-0.8760895717673978,0.7749408134864777,-0.6452058935725775,-0.022532760036883467,0.519454501840884,0.6084135275593723,-1.25,0.0,0.0005793571472167969,0.0006086826324462891,0
0.9382317066192627,0.1159425750374794,-0.020207295194268227,-0.08459538221359253,0.017963828764800092,-0.8761294771975199,0.7783046076792525,-0.641618086929368,-0.022509367812618454,0.5164016592132686,0.6110068136786883,-1.25,0.0,0.00055694580078125,0.00058746337890625,0
0.948042631149292,0.11562380194664001,-0.020372996106743813,-0.08438171446323395,0.017946668469639236,-0.8761699167759631,0.7817192913013047,-0.6381746546949908,-0.022486558144947624,0.5133981871472165,0.6135326408871428,-1.25,0.0,0.0006072521209716797,0.0006339550018310547,0
0.9582099914550781,0.1154552772641182,-0.02046320214867592,-0.0842738077044487,0.017943788539581253,-0.8762111087535602,0.7851239959527078,-0.634655414860942,-0.02246951140380631,0.5102725628053085,0.6161346538282867,-1.25,0.0,0.0005519390106201172,0.0005800724029541016,0
0.9680812358856201,0.1152811348438263,-0.020556502044200897,-0.08416497707366943,0.017946379260616287,-0.8762547953221614,0.7884761036729296,-0.631112272090607,-0.022458550205395524,0.5072253520661939,0.6186456515820067,-1.25,0.0,0.0005681514739990234,0.0005953311920166016,0
0.9781324863433838,0.11510098725557327,-0.020653996616601944,-0.08405490219593048,0.017935453866208453,-0.8762976721617233,0.7918643080648228,-0.6275829485067523,-0.022446780343605033,0.5041098785006959,0.6211869528555906,-1.25,0.0,0.0005583763122558594,0.0005855560302734375,0
0.9886069297790527,0.11471996456384659,-0.020862771198153496,-0.08384829759597778,0.017922561309824194,-0.8763434276417117,0.7943050156453759,-0.6241297646426059,-0.022433706731707595,0.50084968610159,0.623818556899311,-1.25,0.0,0.0011396408081054688,0.0011849403381347656,0
0.9982383251190186,0.11452291905879974,-0.020972752943634987,-0.0837513729929924,0.017920761153720013,-0.8763786098306374,0.7960135109517632,-0.6205671522507287,-0.02242388014484032,0.4978397685647269,0.6262232547865172,-1.25,0.0,0.001058340072631836,0.0011014938354492188,0
1.00821852684021,0.11432195454835892,-0.021086953580379486,-0.08365332335233688,0.01790862805803808,-0.8763989349529713,0.7972094576662343,-0.6169620753565299,-0.022412451623152505,0.4947086659633474,0.6286997183240702,-1.25,0.0,0.0005712509155273438,0.0005998611450195312,0
1.0182623863220215,0.11442983895540237,-0.02036093734204769,-0.08412420004606247,0.01788923023805846,-0.8763879724924915,0.798046620366364,-0.6131304269754322,-0.022397177475478678,0.49154515521245357,0.6311761722270296,-1.25,0.0,0.0011181831359863281,0.0011703968048095703,0
1.0281906127929688,0.11446646600961685,-0.020018085837364197,-0.08434906601905823,0.017904331893655614,-0.8763530451262576,0.7986326342564548,-0.6092161656558235,-0.02239214869295593,0.48840588167166743,0.633608471177999,-1.25,0.0,0.0010826587677001953,0.0011250972747802734,0
1.0382492542266846,0.11449146270751953,-0.01968894526362419,-0.08456825464963913,0.017900497550179993,-0.8762906743086989,0.7990428439795184,-0.6052687120884594,-0.02238719066638665,0.48521309802244617,0.6360567973911293,-1.25,0.0,0.001077413558959961,0.0011205673217773438,0
1.0482115745544434,0.11450586467981339,-0.019373532384634018,-0.08480513840913773,0.017900663263495067,-0.8762123486841267,0.7993299907856629,-0.6012309632568938,-0.022383782190281303,0.4820387908125441,0.6384658206607308,-1.25,0.0,0.001135110855102539,0.0011830329895019531,0
1.058178424835205,0.11450668424367905,-0.018773194402456284,-0.08525513857603073,0.017891553101531586,-0.8761135575076862,0.799530993549964,-0.5971854047227974,-0.02237797994627126,0.47885107177001596,0.6408600869649375,-1.25,0.0,0.0011303424835205078,0.0011785030364990234,0
1.0683109760284424,0.11450668424367905,-0.018773194402456284,-0.08525513857603073,0.017891553101531586,-0.8760034654079094,0.7996716954849749,-0.5931531923451824,-0.022373918375464225,0.4755981664821775,0.6432778435783336,-1.25,0.0,0.000591278076171875,0.0006213188171386719,0
1.0780725479125977,0.11446687579154968,-0.01820974051952362,-0.08567894995212555,0.017869338924258817,-0.875877252578076,0.7997701868394824,-0.5891590419647986,-0.022362744959422014,0.4724528126365772,0.6455914651169015,-1.25,0.0,0.0005583763122558594,0.0005850791931152344,0
1.1192386150360107,0.11443230509757996,-0.017943572252988815,-0.08588024973869324,0.017854182659349925,-0.8757354947718685,0.7998391307876377,-0.5813694002392952,-0.022349239968851634,0.4590654436616733,0.6551785393583273,-1.25,0.0,0.0005960464477539062,0.0006258487701416016,0
1.1281230449676514,0.11412523686885834,-0.016767162829637527,-0.0868406593799591,0.017817114709590486,-0.8755432970490635,0.7998873915513464,-0.5749928348649359,-0.022325885994292586,0.4561504798963416,0.6572113356374321,-1.25,0.0,0.0006153583526611328,0.0006449222564697266,0
1.138242244720459,0.11403650045394897,-0.01655692420899868,-0.08701881021261215,0.017801462449021057,-0.8753364764359349,0.7999211740859424,-0.5694146126611476,-0.0223036686143877,0.45281942907988415,0.6595108525625397,-1.25,0.0,0.0005850791931152344,0.0006144046783447266,0
1.148179054260254,0.1139407530426979,-0.01635538600385189,-0.08719002455472946,0.01777626816481994,-0.8751263324460413,0.7999448218601597,-0.5643123803919298,-0.02227866859187885,0.4495371367724692,0.6617524935067569,-1.25,0.0,0.0011873245239257812,0.0012617111206054688,0
1.1581900119781494,0.11372823268175125,-0.015978051349520683,-0.08751313388347626,0.017768849749911796,-0.8749138431241985,0.7999613753021118,-0.5596331280803448,-0.022258386670532128,0.446219130964277,0.6639943427179824,-1.25,0.0,0.0011682510375976562,0.0012133121490478516,0
1.1682724952697754,0.11361011862754822,-0.015801023691892624,-0.08768004924058914,0.017789856407699277,-0.8746975567270204,0.7999729627114782,-0.5552520646189234,-0.022252066822259716,0.44286611908884777,0.6662353942588028,-1.25,0.0,0.0006756782531738281,0.0007066726684570312,0
1.1781482696533203,0.11348451673984528,-0.01563112623989582,-0.08784377574920654,0.017791769439460727,-0.8744759135509026,0.7999810738980347,-0.5510526223475206,-0.022248360315379575,0.43957093810633135,0.6684140860068105,-1.25,0.0,0.0005970001220703125,0.0006260871887207031,0
1.188333511352539,0.1133531779050827,-0.015463990159332752,-0.08802718669176102,0.01778939853632113,-0.8741392354250898,0.7999867517286243,-0.5465272964256439,-0.022244876671886127,0.43616127323228976,0.6706439768851935,-1.25,0.0,0.0006034374237060547,0.00063323974609375,0
1.1980810165405273,0.11311214417219162,-0.015070860274136066,-0.08880208432674408,0.01789030496704693,-0.8730482053358837,0.7999907262100371,-0.5380556751229022,-0.022280278032962883,0.4328875531898197,0.6727617455632648,-1.25,0.0,0.0005848407745361328,0.0006136894226074219,0
1.2081139087677002,0.1130223199725151,-0.0148231890052557,-0.0895344614982605,0.01797883073127984,-0.8715896201001498,0.799993508347026,-0.5279414839105256,-0.022338256147303975,0.4295072475624059,0.6749248286226891,-1.25,0.0,0.000606536865234375,0.0006356239318847656,0
1.2183706760406494,0.11295478045940399,-0.01454258058220148,-0.09054141491651535,0.018053257899000277,-0.8698088928874107,0.7984900366748096,-0.5162093310003512,-0.022406751015237907,0.4260403412111526,0.6771186215580581,-1.25,0.0,0.0006248950958251953,0.0006558895111083984,0
1.2283384799957275,0.11290723085403442,-0.014232366345822811,-0.09183232486248016,0.01808400692175496,-0.8677675844436551,0.7914847937154911,-0.502962025686826,-0.022466228306324637,0.42266037108846527,0.6792335465150119,-1.25,0.0,0.0005812644958496094,0.0006113052368164062,0
1.238128662109375,0.11284907162189484,-0.013537576422095299,-0.09524226188659668,0.01805216982662319,-0.8651031714004427,0.7698049836426993,-0.4821852313744044,-0.022495923499410965,0.4193304104418066,0.6812943614024016,-1.25,0.0,0.0005795955657958984,0.0006086826324462891,0
1.248208999633789,0.1128312274813652,-0.013158856891095638,-0.09736185520887375,0.018006211968473875,-0.8621689900011364,0.7465246703825925,-0.4607282240904894,-0.02249947593776538,0.41589126024497847,0.6833991949452703,-1.25,0.0,0.0006053447723388672,0.0006356239318847656,0
1.258300542831421,0.11282180994749069,-0.012756647542119026,-0.09975650906562805,0.017921540483531364,-0.8590196908383864,0.7216324642218673,-0.43819555765153007,-0.022470210837760032,0.4124377043833139,0.6854889787611631,-1.25,0.0,0.0006048679351806641,0.0006368160247802734,0
1.268202543258667,0.11282305419445038,-0.012326754629611969,-0.10242414474487305,0.01777832353706035,-0.8556920073133982,0.6951822851165733,-0.4143592911282266,-0.0223960189128296,0.40903880725896635,0.687522548107451,-1.25,0.0,0.0005950927734375,0.0006237030029296875,0
1.2780840396881104,0.11286650598049164,-0.011367877945303917,-0.1085687205195427,0.017403495172170904,-0.8519401980592425,0.6544335764709571,-0.3803175003107822,-0.022203523928544834,0.40563695276543354,0.6895351061049564,-1.25,0.0,0.0006210803985595703,0.000652313232421875,0
1.2881956100463867,0.11291198432445526,-0.01082963403314352,-0.11204089969396591,0.017154868142920134,-0.8479006105531485,0.6161283064052309,-0.3478488434019202,-0.021975542303576366,0.4021456420223105,0.691577098089912,-1.25,0.0,0.0005788803100585938,0.0006093978881835938,0
1.2981812953948975,0.11297588795423508,-0.010245353914797306,-0.11576873064041138,0.016877436885096377,-0.8436863429182523,0.5798114654900243,-0.3166041819319934,-0.02171191844441452,0.3986877082915071,0.6935763197062499,-1.25,0.0,0.0005524158477783203,0.0005793571472167969,0
1.3083875179290771,0.1131758838891983,-0.008919897489249706,-0.12396346032619476,0.01623340606512815,-0.8391324325843229,0.5312140791883816,-0.2768640734110655,-0.021285870185513093,0.3951431352713478,0.6956018276628732,-1.25,0.0,0.0005967617034912109,0.000629425048828125,0
1.3180317878723145,0.11331859230995178,-0.0081653306260705,-0.1284181922674179,0.015861422785056225,-0.8343737522327334,0.4875119897906007,-0.24081739228015858,-0.020848142674255117,0.3917842682514331,0.6974991664157666,-1.25,0.0,0.0005598068237304688,0.0005857944488525391,0
1.3281869888305664,0.11349283903837204,-0.007343024015426636,-0.13310186564922333,0.015476023910643977,-0.829541537951069,0.4476881439485342,-0.20745846736484785,-0.020397208838470134,0.3882376108828299,0.6994794904041093,-1.25,0.0,0.0006000995635986328,0.0006277561187744141,0
1.3382377624511719,0.113702192902565,-0.006447682622820139,-0.1380089968442917,0.015081892984367929,-0.824722497586177,0.4106710177623305,-0.17604393375553823,-0.019933756056067127,0.3847175683077455,0.701421693872791,-1.25,0.0,0.0006203651428222656,0.0006561279296875,0
1.3480615615844727,0.11424286663532257,-0.004423823673278093,-0.14848895370960236,0.014234763253826688,-0.8197190996821441,0.3614438720067823,-0.13715380834668794,-0.019291665459431805,0.38126762826321503,0.7033029188326627,-1.25,0.0,0.0005939006805419922,0.0006229877471923828,0
1.3580996990203857,0.11457851529121399,-0.0032878960482776165,-0.15404655039310455,0.013776036452169538,-0.814666140714688,0.3179703197045724,-0.10230836545775679,-0.018670179491165517,0.37773291514844465,0.7052076607733767,-1.25,0.0,0.0005993843078613281,0.0006270408630371094,0
1.3681871891021729,0.11496074497699738,-0.002063983818516135,-0.15980012714862823,0.013323832652986556,-0.8096739859274023,0.2788997771181835,-0.07049389555441749,-0.01806556288868564,0.37417123795504303,0.7071038712149655,-1.25,0.0,0.001314401626586914,0.0013740062713623047,0
1.3781177997589111,0.11539064347743988,-0.0007503833621740341,-0.1657404899597168,0.012872943721763863,-0.8048058542096143,0.2431553425905349,-0.04093696270034411,-0.017473247917741217,0.37065565331490996,0.7089530214800536,-1.25,0.0,0.0006246566772460938,0.0006566047668457031,0
1.3885149955749512,0.11587151139974594,0.0006579984910786152,-0.17186008393764496,0.012397058109424175,-0.8000966085697545,0.20968626169761057,-0.012937141156757079,-0.016880170333452738,0.3669650996700671,0.7108703226497346,-1.25,0.0,0.0006232261657714844,0.0006575584411621094,0
1.398164987564087,0.11699650436639786,0.003770995419472456,-0.18460796773433685,0.01150592628059346,-0.795254782217729,0.16429847673899114,0.021536088535872668,-0.016130841588639724,0.36353089494607926,0.7126326461927651,-1.25,0.0,0.0005719661712646484,0.0005996227264404297,0
1.4081881046295166,0.11764263361692429,0.005477370694279671,-0.19121095538139343,0.011071125082065226,-0.7904978269715671,0.12479942999752433,0.05227792238989599,-0.015443261017822505,0.3599549445167214,0.7144455458031522,-1.25,0.0,0.0005953311920166016,0.0006253719329833984,0
1.4181394577026367,0.11947264522314072,0.008488564752042294,-0.20332542061805725,0.010293479961882812,-0.7856308676123535,0.07759973316884852,0.08702296370495492,-0.014670337698181744,0.3563956534885762,0.716227713911191,-1.25,0.0,0.0006344318389892578,0.000667572021484375,0
1.4281809329986572,0.11947264522314072,0.008488564752042294,-0.20332542061805725,0.010293479961882812,-0.7812137841716845,0.05009269576886143,0.11088220703578233,-0.014129291374433113,0.35279518518171316,0.7180080482227207,-1.25,0.0,0.0006182193756103516,0.0006492137908935547,0
1.438124656677246,0.12151527404785156,0.011948778294026852,-0.21603602170944214,0.009580803790181915,-0.7767475307656736,0.012230959860663762,0.13989843944409178,-0.013483305383421343,0.34922100263834865,0.7197532155650759,-1.25,0.0,0.0006129741668701172,0.0006425380706787109,0
1.4480798244476318,0.12261738628149033,0.013851132243871689,-0.22259502112865448,0.00928563059544032,-0.7724895016609518,-0.020655483883055922,0.16589373476237107,-0.012920425241685256,0.34563405922485446,0.721482568814902,-1.25,0.0,0.0006322860717773438,0.0006668567657470703,0
1.45833158493042,0.12377419322729111,0.015870168805122375,-0.22927825152873993,0.009001872320940652,-0.768455733280003,-0.04984545366779958,0.18963053693013365,-0.012419999789532381,0.34193130147907524,0.7232447615218695,-1.25,0.0,0.0011305809020996094,0.0011754035949707031,0
1.4684369564056396,0.1262539178133011,0.02025575563311577,-0.24301019310951233,0.008526179751221963,-0.7643325390830189,-0.08695332947492435,0.21650779495192615,-0.011891317259380859,0.338272623855596,0.7249631935138849,-1.25,0.0,0.0010416507720947266,0.001081228256225586,0
1.4780809879302979,0.1275768280029297,0.022623227909207344,-0.25004419684410095,0.008315120344172722,-0.7604196626060464,-0.11828415509685714,0.2400517806030444,-0.011442092210631432,0.3347729207344119,0.726585914770546,-1.25,0.0,0.0005807876586914062,0.0006077289581298828,0
1.4882490634918213,0.12895458936691284,0.02510511688888073,-0.2571750581264496,0.008158881456141987,-0.756735408621164,-0.14548176535499835,0.2612646155737182,-0.011069045093495296,0.33107461990389564,0.7282785154427467,-1.25,0.0,0.0005893707275390625,0.0006186962127685547,0
1.4982545375823975,0.1303877830505371,0.027701418846845627,-0.26439741253852844,0.008035907751281069,-0.7532751904244548,-0.16969733323302766,0.28068629156129365,-0.010761796972177148,0.3274271062366037,0.7299256743679619,-1.25,0.0,0.0006208419799804688,0.0006546974182128906,0
1.5081744194030762,0.13187572360038757,0.03041223995387554,-0.2717054486274719,0.007951252348848104,-0.750027423660531,-0.19183698024127438,0.2987010408068753,-0.010514977511342023,0.32380270535585587,0.7315407083711944,-1.25,0.0,0.0006072521209716797,0.0006394386291503906,0
1.5181419849395752,0.13501198589801788,0.036175183951854706,-0.28655555844306946,0.007884271094056561,-0.7466539948971819,-0.22084798008434553,0.318326840473896,-0.010317085918210567,0.3201528591596453,0.7331453790155841,-1.25,0.0,0.0006070137023925781,0.0006341934204101562,0
1.5281047821044922,0.13665829598903656,0.03922535479068756,-0.2941080629825592,0.00789790506913437,-0.7434961015652743,-0.24550273975051645,0.33576179233361253,-0.010183674543672774,0.31649681273045954,0.7347310851811434,-1.25,0.0,0.0005958080291748047,0.0006225109100341797,0
1.5381605625152588,0.13835544884204865,0.04238742217421532,-0.3017210364341736,0.00793890694786572,-0.7405474506856045,-0.266912838222335,0.3514895016927598,-0.01010566228602058,0.3127986806075107,0.7363131028375093,-1.25,0.0,0.000606536865234375,0.0006361007690429688,0
1.5482456684112549,0.1401023268699646,0.04565854370594025,-0.3093896806240082,0.008028969582664547,-0.7377932300488724,-0.2859381211058567,0.36593715257437165,-0.010084827193713614,0.3090818217241689,0.7378810388400484,-1.25,0.0,0.0006444454193115234,0.0006754398345947266,0
1.558173656463623,0.14373983442783356,0.05252198502421379,-0.3248720169067383,0.008327165981007379,-0.7349184560283579,-0.3099689728396758,0.380380128454453,-0.010182066278477283,0.3054151916267763,0.7394062217236068,-1.25,0.0,0.0005872249603271484,0.0006144046783447266,0
1.5682692527770996,0.14562729001045227,0.056113410741090775,-0.3326782286167145,0.008508996851315478,-0.7322535553029768,-0.3300986080324183,0.3931722860726459,-0.010318320214177414,0.3016789430920352,0.7409384693042147,-1.25,0.0,0.0006103515625,0.0006422996520996094,0
1.5783827304840088,0.1475585401058197,0.059808868914842606,-0.34052059054374695,0.008724305603807348,-0.7297844015159305,-0.34728681774263626,0.4045594186788292,-0.01049443875135196,0.2979283696652153,0.7424545013323219,-1.25,0.0,0.0006067752838134766,0.0006425380706787109,0
1.5883667469024658,0.14953285455703735,0.06360658258199692,-0.348395437002182,0.008978498733567509,-0.7274900103993596,-0.36245835039168056,0.41487669679931277,-0.010713044151034253,0.2942183338917979,0.7439325050042743,-1.25,0.0,0.0005917549133300781,0.0006206035614013672,0
1.5980744361877441,0.15360651910305023,0.07150234282016754,-0.3642563223838806,0.009514284146877184,-0.7250829939430032,-0.3811088511268169,0.42388424442378986,-0.011066987460802874,0.29060394940979845,0.7453518260442027,-1.25,0.0,0.0006206035614013672,0.0006501674652099609,0
1.6081204414367676,0.15570281445980072,0.07559529691934586,-0.3722200095653534,0.009846109024211703,-0.722866755692216,-0.3964992220963023,0.4319814097846613,-0.011439182106641431,0.286856394933028,0.74680212150611,-1.25,0.0,0.0005970001220703125,0.0006256103515625,0
1.618126630783081,0.15783818066120148,0.07978349924087524,-0.3802018165588379,0.010193513167003478,-0.7208188565630036,-0.4094779771019584,0.4391927378661749,-0.011829994912275339,0.2831164986668279,0.7482279386541484,-1.25,0.0,0.0006074905395507812,0.0006365776062011719,0
1.6281800270080566,0.16000932455062866,0.08406466990709305,-0.38819798827171326,0.010540138241867749,-0.7189245761618129,-0.42069209023216697,0.4454375752387261,-0.012233548279293089,0.27935182169600203,0.7496416208530081,-1.25,0.0,0.000629425048828125,0.0006604194641113281,0
1.6380424499511719,0.16444441676139832,0.0928938239812851,-0.4042210876941681,0.011317055025374745,-0.7169312649435894,-0.43381357080386146,0.44920448501414195,-0.012807379430020615,0.27565179884664126,0.7510100437361746,-1.25,0.0,0.0005781650543212891,0.0006062984466552734,0
1.6481025218963623,0.16670556366443634,0.09743701666593552,-0.4122927784919739,0.011709872708628022,-0.7151019750859275,-0.44429450065387427,0.45246958942365706,-0.013356367866749985,0.27187072007873064,0.7523870756225631,-1.25,0.0,0.0006086826324462891,0.0006380081176757812,0
1.658292531967163,0.1689932495355606,0.10206332057714462,-0.4203656017780304,0.01210147347674553,-0.7134155942058297,-0.4527860677077582,0.4552238715731697,-0.013887510060504607,0.2680337919764138,0.7537624867017093,-1.25,0.0,0.0012018680572509766,0.0012521743774414062,0
1.668100357055664,0.17130687832832336,0.10677019506692886,-0.4284365177154541,0.012504333882757979,-0.7118600254333654,-0.4597710381695887,0.45739758315873524,-0.014410382248387511,0.26433419859794066,0.7550678323512297,-1.25,0.0,0.0006504058837890625,0.0006811618804931641,0
1.6780831813812256,0.17600370943546295,0.11641404032707214,-0.44456082582473755,0.013299376943774166,-0.7102271569046676,-0.46744710490829794,0.45633196321476177,-0.015074533927786482,0.2605620666553647,0.7563778218723004,-1.25,0.0,0.0006158351898193359,0.0006477832794189453,0
1.688145399093628,0.1783793866634369,0.12134817242622375,-0.45261362195014954,0.013713641314713665,-0.7087219860014703,-0.473240349422547,0.4551652194177041,-0.015694789242467946,0.2567533658770217,0.7576791597442947,-1.25,0.0,0.0006122589111328125,0.0006425380706787109,0
1.6981794834136963,0.18077053129673004,0.1263546198606491,-0.4606561064720154,0.014108015138599297,-0.7073345777753911,-0.4775801752888052,0.45387687425873185,-0.016276858146702475,0.25294884220998415,0.7589577611597556,-1.25,0.0,0.0005679130554199219,0.0005960464477539062,0
1.708329677581787,0.1831771582365036,0.13143090903759003,-0.4686856269836426,0.014481560714189956,-0.7060498261192677,-0.4807781656760308,0.45236539112178825,-0.016824385970512775,0.24909381687880577,0.7602317215117691,-1.25,0.0,0.0005974769592285156,0.0006279945373535156,0
1.7180416584014893,0.18802888691425323,0.14177700877189636,-0.48470672965049744,0.015237267397444822,-0.7047182837356675,-0.483469441720781,0.4468096423186729,-0.01749104545340052,0.24539921654815666,0.7614323505851002,-1.25,0.0,0.0005621910095214844,0.0005881786346435547,0
1.7281148433685303,0.19046896696090698,0.14704057574272156,-0.4926910996437073,0.015593312303153329,-0.7034843054495366,-0.48468888840976204,0.4418534872534795,-0.01809122393106265,0.24156109576172569,0.762658663501828,-1.25,0.0,0.0005846023559570312,0.0006122589111328125,0
1.7383778095245361,0.19291679561138153,0.15236005187034607,-0.5006556510925293,0.015930192841654,-0.7023391881428797,-0.4848199970968966,0.4371160777719382,-0.018637679067363792,0.23764436251035273,0.763888183549823,-1.25,0.0,0.0006089210510253906,0.0006411075592041016,0
1.74808669090271,0.19536951184272766,0.15773603320121765,-0.5085984468460083,0.01627805406437435,-0.7012755240620177,-0.48425362213834194,0.43226375393962285,-0.01915064562129519,0.2339333270848866,0.7650328087598567,-1.25,0.0,0.0005850791931152344,0.0006117820739746094,0
1.758249282836914,0.2002803385257721,0.16864414513111115,-0.5244123935699463,0.01694541929571283,-0.7001896040845802,-0.48245631911098064,0.4228713669996682,-0.019759984170799258,0.23004296566502358,0.766211611728797,-1.25,0.0,0.0006148815155029297,0.0006480216979980469,0
1.76808762550354,0.20273423194885254,0.174170583486557,-0.5322838425636292,0.017267096766162806,-0.6991669715054457,-0.479897763989951,0.41448880768356,-0.020307150206870697,0.2262710713577842,0.7673339574569866,-1.25,0.0,0.0006296634674072266,0.0006721019744873047,0
1.7780828475952148,0.20763009786605835,0.18535538017749786,-0.5479433536529541,0.017864419447665616,-0.6981444399204095,-0.47578051345857997,0.40178460230131235,-0.020914162437684278,0.22243342497895174,0.7684551850642516,-1.25,0.0,0.0006201267242431641,0.0006492137908935547,0
1.7885401248931885,0.20763009786605835,0.18535538017749786,-0.5479433536529541,0.017864419447665616,-0.6972327136229822,-0.47223167705782026,0.3957095380218401,-0.02133907099925373,0.21841242829676186,0.7696076995232778,-1.25,0.0,0.0006146430969238281,0.0006492137908935547,0
1.7980222702026367,0.21249374747276306,0.19669325649738312,-0.563486635684967,0.01837531683945428,-0.696336836116249,-0.4667395082465071,0.38409498206937437,-0.021828093514272902,0.21476122123946825,0.7706345553190126,-1.25,0.0,0.0006206035614013672,0.00064849853515625,0
1.8081202507019043,0.214907705783844,0.20241548120975494,-0.5712090134620667,0.018567499172333933,-0.6954949227948823,-0.4609023855294494,0.37347831093310363,-0.0222424776496162,0.21086757404185816,0.7717090554203064,-1.25,0.0,0.0006787776947021484,0.0007116794586181641,0
1.818171501159668,0.21797889471054077,0.20837907493114471,-0.5788491368293762,0.01874735404503294,-0.6946962277807717,-0.454912118535886,0.36395647061633435,-0.022599992121618645,0.2069866069433386,0.7727590468872454,-1.25,0.0,0.0006911754608154297,0.0007257461547851562,0
1.8281006813049316,0.22101980447769165,0.21436895430088043,-0.5864566564559937,0.01891735099509819,-0.6939387141601758,-0.4487840757507545,0.3552641993623197,-0.022914001108295105,0.20314763999991758,0.7737771231837136,-1.25,0.0,0.0006453990936279297,0.0006742477416992188,0
1.8380565643310547,0.22700504958629608,0.22640889883041382,-0.6015984416007996,0.0191673248405009,-0.6932037930659195,-0.4402323604883583,0.3421152575626697,-0.02322754759099437,0.19929332166040842,0.774778789036949,-1.25,0.0,0.0006878376007080078,0.0007178783416748047,0
1.8480737209320068,0.2299443483352661,0.23245367407798767,-0.6091172695159912,0.01926872700251028,-0.6924873435716835,-0.43185346536125124,0.3304824270491177,-0.02348505593963738,0.19541029793777662,0.7757672430954207,-1.25,0.0,0.0006580352783203125,0.0006864070892333984,0
1.8580760955810547,0.23571093380451202,0.24458657205104828,-0.6240437626838684,0.01939453806934324,-0.6917988469054825,-0.4215382974820927,0.31489636319249953,-0.023712490933749948,0.19152811302429507,0.7767348208503034,-1.25,0.0,0.0006682872772216797,0.0006971359252929688,0
1.868619441986084,0.23571093380451202,0.24458657205104828,-0.6240437626838684,0.01939453806934324,-0.6911144729025934,-0.4138233078566675,0.30666584472760317,-0.023871695429628727,0.18743077852082654,0.7777336968802863,-1.25,0.0,0.0006275177001953125,0.0006601810455322266,0
1.878028154373169,0.24131785333156586,0.25675880908966064,-0.6388198137283325,0.019452038227955513,-0.6904809992504002,-0.40329988100510905,0.2933546542041645,-0.024004701136223466,0.18376998167381464,0.7786068287881927,-1.25,0.0,0.0005924701690673828,0.0006225109100341797,0
1.8881843090057373,0.244057759642601,0.2628498673439026,-0.6461672186851501,0.019436927332476615,-0.6898601670029081,-0.3929808576753516,0.2814158236761981,-0.024092138545035183,0.1798138035698658,0.7795299840581745,-1.25,0.0,0.0005953311920166016,0.0006237030029296875,0
1.8980751037597656,0.24940235912799835,0.2750353217124939,-0.6607370376586914,0.01936709694989982,-0.6892871966591675,-0.3803777944138692,0.26526311200667035,-0.02412715833773707,0.1759565349007346,0.7804096987004496,-1.25,0.0,0.0006022453308105469,0.00063323974609375,0
1.9082088470458984,0.24940235912799835,0.2750353217124939,-0.6607370376586914,0.01936709694989982,-0.6886842248819425,-0.3711172005097922,0.25646603088030806,-0.024151672192628388,0.17200005737024382,0.781291226281617,-1.25,0.0,0.0006115436553955078,0.0006418228149414062,0
1.918062448501587,0.25456300377845764,0.2872038185596466,-0.6751357316970825,0.019252396265028858,-0.6881551349284706,-0.3587845422559132,0.2427282675445353,-0.024125819134225707,0.16814871925446398,0.7821291505966796,-1.25,0.0,0.0006258487701416016,0.0006544589996337891,0
1.9280476570129395,0.2570708394050598,0.29327818751335144,-0.6822680830955505,0.019181053617304288,-0.6876326180501702,-0.3471544675417037,0.23038053706811082,-0.024080968500447088,0.1642417785095336,0.7829588994270551,-1.25,0.0,0.0006289482116699219,0.0006561279296875,0
1.9381740093231201,0.2595280408859253,0.2993452548980713,-0.6893548369407654,0.019066249680543622,-0.6871304125497122,-0.3360487091558623,0.21910394474574904,-0.024006521580516797,0.16027543139099287,0.7837804450816767,-1.25,0.0,0.0007753372192382812,0.0008065700531005859,0
1.9482815265655518,0.26193368434906006,0.30540263652801514,-0.6963943243026733,0.018930819841575432,-0.686652808051474,-0.3252403042476946,0.20860786155569133,-0.023903622546952514,0.15631236431956444,0.7845804259353071,-1.25,0.0,0.0006103515625,0.0006411075592041016,0
1.9580638408660889,0.26658502221107483,0.3174733519554138,-0.7103537917137146,0.018635067620034886,-0.686251823245409,-0.31163399860105445,0.1934525558313262,-0.023720686140379785,0.15247300370100758,0.7853355863211552,-1.25,0.0,0.0005948543548583984,0.0006222724914550781,0
1.9681181907653809,0.268827348947525,0.3234836459159851,-0.7172598838806152,0.01845351655735452,-0.6858325107676468,-0.29901997193860697,0.18020280310961737,-0.023524549007273736,0.1485230742617275,0.7860921678860854,-1.25,0.0,0.0006039142608642578,0.0006365776062011719,0
1.978224277496338,0.27101439237594604,0.3294771611690521,-0.7241184115409851,0.018271631796063195,-0.685409348826595,-0.287136206369353,0.1683202621407683,-0.02331904622861525,0.14454903721764134,0.7868326225058624,-1.25,0.0,0.0006144046783447266,0.0006470680236816406,0
1.988290786743164,0.2731442451477051,0.3354499340057373,-0.7309284210205078,0.01807209280523583,-0.6850018319045104,-0.275613220306355,0.157461302268593,-0.02310036716199414,0.14058689403049454,0.7875502048929062,-1.25,0.0,0.00061798095703125,0.0006475448608398438,0
1.998145580291748,0.27722662687301636,0.34732088446617126,-0.7443954944610596,0.01768250692041409,-0.6846684490824025,-0.26156943714862463,0.14230510876948044,-0.022801197108551222,0.13670463072623856,0.7882333689574446,-1.25,0.0,0.0006237030029296875,0.0006554126739501953,0
2.0080912113189697,0.27917569875717163,0.3532181978225708,-0.7510530948638916,0.017458506080968907,-0.6843122481034433,-0.24857230644236974,0.12891977955922218,-0.022507777756349233,0.1327832174821698,0.7889034270144115,-1.25,0.0,0.0005812644958496094,0.0006091594696044922,0
2.0182089805603027,0.2810628116130829,0.35908782482147217,-0.7576605081558228,0.017220683302081843,-0.6839528394243185,-0.23635292889823728,0.11699754821711988,-0.022213200667725065,0.12879056397981778,0.7895650642155848,-1.25,0.0,0.0005855560302734375,0.0006222724914550781,0
2.0281319618225098,0.2846490442752838,0.37073832750320435,-0.7707191705703735,0.016700711404130673,-0.6836644414161149,-0.2219308904884136,0.10136426315016248,-0.021812007243956426,0.12487157520708932,0.7901943366699741,-1.25,0.0,0.0006482601165771484,0.0006854534149169922,0
2.038080930709839,0.2863471806049347,0.37651562690734863,-0.7771674990653992,0.01644389886861244,-0.6833550108022354,-0.20875339145748192,0.08797133299927783,-0.02143486714649905,0.12093923698215654,0.7908057289614017,-1.25,0.0,0.000621795654296875,0.0006527900695800781,0
2.0480895042419434,0.2879807651042938,0.38225871324539185,-0.783560037612915,0.016206726406914805,-0.6830527839317155,-0.1964549486472859,0.07617355968237585,-0.021081929405142433,0.11698032052510242,0.7914010390502684,-1.25,0.0,0.0006208419799804688,0.0006508827209472656,0
2.058119297027588,0.28954872488975525,0.3879648745059967,-0.7898964881896973,0.015959862730982512,-0.6827627629650368,-0.18480637003057718,0.06556684126405794,-0.02074229910771819,0.1130100719675695,0.7919777292537239,-1.25,0.0,0.0006554126739501953,0.0006866455078125,0
2.068206310272217,0.29248732328414917,0.3992629945278168,-0.8024227619171143,0.015515631817097277,-0.6825435024640515,-0.17108959948131952,0.05144674582968638,-0.020337971306814265,0.10901430666608963,0.7925376211525305,-1.25,0.0,0.0005805492401123047,0.0006086826324462891,0
2.0782110691070557,0.2938593626022339,0.4048536717891693,-0.8086109757423401,0.015299515830404143,-0.6823071662619075,-0.1586550367886867,0.039372384191413964,-0.019973898351171585,0.10504838534401853,0.7930730336713099,-1.25,0.0,0.0006511211395263672,0.0006816387176513672,0
2.088186264038086,0.2951641082763672,0.4104045033454895,-0.8147422671318054,0.015054957417126393,-0.6820716404918401,-0.1471253400980511,0.02875787254469576,-0.01962733787724255,0.10109156609514235,0.7935871062866581,-1.25,0.0,0.0006361007690429688,0.0006670951843261719,0
2.0981101989746094,0.2964002788066864,0.4159141778945923,-0.8208168745040894,0.014827722933288956,-0.6818455181235272,-0.1364143932216611,0.019158972630605998,-0.019299532614053046,0.09715258435785176,0.7940789478084598,-1.25,0.0,0.0006082057952880859,0.0006380081176757812,0
2.1082704067230225,0.29756659269332886,0.4213821291923523,-0.8268350958824158,0.014585057159657987,-0.6816316288299312,-0.12625084650192994,0.010403420806386454,-0.01897906926470899,0.09311734454207299,0.7945622443493228,-1.25,0.0,0.0006301403045654297,0.0006639957427978516,0
2.1180100440979004,0.29969266057014465,0.4321819841861725,-0.8387027978897095,0.014115715112496008,-0.681491653905935,-0.11409230667992169,-0.0018153396989049903,-0.018578741652482435,0.08924688162700456,0.7950062855851239,-1.25,0.0,0.0005655288696289062,0.0005896091461181641,0
2.1282730102539062,0.3006537854671478,0.4375137984752655,-0.8445999622344971,0.013897015049352281,-0.6813383672202691,-0.10306777026600483,-0.01207600535495709,-0.018216499800245013,0.08516616320235376,0.7954537853611549,-1.25,0.0,0.0009219646453857422,0.0009527206420898438,0
2.1381685733795166,0.3015466630458832,0.442798912525177,-0.8504365682601929,0.013670198349121665,-0.6811885029918314,-0.09281514467846932,-0.021035615245287183,-0.017877874241092034,0.08122940523239348,0.7958654306637472,-1.25,0.0,0.0006132125854492188,0.0006437301635742188,0
2.148188829421997,0.3031245768070221,0.4532206654548645,-0.8619300723075867,0.01325483823500775,-0.6811025893505983,-0.08106370849666797,-0.03271144001779225,-0.01748507630689221,0.07724101473549379,0.7962624100399511,-1.25,0.0,0.0005819797515869141,0.0006098747253417969,0
2.1580471992492676,0.30381232500076294,0.4583575427532196,-0.8675859570503235,0.013043895881876178,-0.680998685661145,-0.07049147551266692,-0.04236161902094665,-0.017131014370528008,0.07331516761519226,0.7966334704226005,-1.25,0.0,0.0005762577056884766,0.0006060600280761719,0
2.1681363582611084,0.3044327199459076,0.4634432792663574,-0.8731826543807983,0.012837339580294116,-0.6808880115535523,-0.0607740452698982,-0.05044624063685943,-0.01680571240198008,0.0692955709287284,0.796993176789903,-1.25,0.0,0.0006248950958251953,0.0006577968597412109,0
2.178295373916626,0.30498450994491577,0.4684775471687317,-0.8787199854850769,0.012639282703551549,-0.6807849789315705,-0.05184567348801496,-0.05740216383676661,-0.016503729695217798,0.06524636129786612,0.7973348809235605,-1.25,0.0,0.0005731582641601562,0.0006017684936523438,0
