time,x,y,z,yaw,throttle,roll_rate,pitch_rate,yaw_rate,x_ref,y_ref,z_ref,yaw_ref,pred_time,nr_time,metadata
1.430511474609375e-06,0.037400320172309875,-0.04598880186676979,0.019301846623420715,-0.062056799015535624,-0.7395142160079246,0.21920413484433313,-0.38641174253468474,0.023271317372270818,0.7368485723751568,0.311535200882169,-1.25,0.0,0.18187165260314941,0.18197298049926758,Sim
0.18297052383422852,0.037400320172309875,-0.04598880186676979,0.019301846623420715,-0.062056799015535624,-0.7656570264675636,0.3934428943910332,-0.5104882197742793,0.039561225847892345,0.7053063063551537,0.3775486911851903,-1.25,0.0,0.000751495361328125,0.0008115768432617188,Jax
0.18991827964782715,0.03784728795289993,-0.04564976692199707,0.012329142540693283,-0.062087385149676606,-0.7860985719811417,0.5117076404137194,-0.5973417538419955,0.0509755968434303,0.703990495182831,0.37999655615838474,-1.25,0.0,0.0009033679962158203,0.0009765625,1stOrderHold
0.19977736473083496,0.03789413720369339,-0.04556667059659958,0.011912675574421883,-0.062077735211725216,-0.8029397604364069,0.5857286851963085,-0.6581392276893969,0.058962054448779846,0.7021087399758764,0.38346227617522866,-1.25,0.0,0.0008041858673095703,0.0008716583251953125,QuatYawError
0.20984578132629395,0.03793935477733612,-0.045488398522138596,0.011508719995617867,-0.06204857910522677,-0.8170750355658536,0.6281122705434159,-0.7006974593825779,0.06454164059586869,0.7001694223161795,0.38699196380988016,-1.25,0.0,0.0008308887481689453,0.0009090900421142578,0
0.21952533721923828,0.03802407905459404,-0.045349106192588806,0.010720792226493359,-0.06203033114898693,-0.8289707650383825,0.6486972191178482,-0.7304882215678046,0.06844050391400261,0.6982882742801862,0.39037608277505864,-1.25,0.0,0.0007815361022949219,0.0008509159088134766,0
0.22976279258728027,0.038063403218984604,-0.04529070854187012,0.010336050763726234,-0.06204700043749867,-0.8389528735893234,0.6549598363923612,-0.7513417550974633,0.07117598334602024,0.6962809061083214,0.3939453005037311,-1.25,0.0,0.0008535385131835938,0.0009407997131347656,0
0.23983359336853027,0.03810169920325279,-0.04523858428001404,0.009963215328752995,-0.06205397845656346,-0.8472630904406863,0.6523311673879102,-0.7659392285682243,0.07309342141464312,0.6942884149989823,0.397446344552571,-1.25,0.0,0.0010232925415039062,0.0011093616485595703,0
0.24982285499572754,0.03813781589269638,-0.045193348079919815,0.009602304548025131,-0.06204913930239275,-0.8541285559598523,0.6446312606230703,-0.776157459997757,0.07443380943870034,0.6922946655348313,0.4009090870409601,-1.25,0.0,0.0011911392211914062,0.0012857913970947266,0
0.26017165184020996,0.0382072813808918,-0.045119188725948334,0.008920814841985703,-0.06206813630692886,-0.8597529782710319,0.634374536913448,-0.7833102219984299,0.0753792134514861,0.690210943578324,0.40448591244284354,-1.25,0.0,0.0010807514190673828,0.0011630058288574219,0
0.26996922492980957,0.03823982551693916,-0.04508950561285019,0.008598866872489452,-0.062089279639039756,-0.8643247281569348,0.6235728907578344,-0.788317155398901,0.07604894108302353,0.6882211794958377,0.4078622415636904,-1.25,0.0,0.0012989044189453125,0.0014047622680664062,0
0.2797739505767822,0.03827018663287163,-0.045065540820360184,0.008299453184008598,-0.0621192322224573,-0.8680219065334182,0.613304839322215,-0.7918220087792307,0.07652896311594352,0.6862134287659587,0.41123123687442154,-1.25,0.0,0.001069784164428711,0.0011606216430664062,0
0.2901003360748291,0.03829851374030113,-0.04504745081067085,0.008012214675545692,-0.06213420688515293,-0.8709953598244663,0.6043154665415078,-0.7942754061454615,0.07687059775733125,0.68408102534902,0.4147687919280252,-1.25,0.0,0.0011835098266601562,0.0012958049774169922,0
0.2996809482574463,0.0383257195353508,-0.04503472521901131,0.007736476603895426,-0.062153331203658624,-0.8733804957818454,0.5966423375304601,-0.7959927843018231,0.07711691799381987,0.6820863146776127,0.4180409780506126,-1.25,0.0,0.0011146068572998047,0.0012140274047851562,0
0.30972933769226074,0.038382530212402344,-0.04501982405781746,0.00721445307135582,-0.06214784074130009,-0.8752795791458978,0.5904059102323895,-0.7971949490112762,0.07728727711356737,0.6799773954653556,0.4214626218968315,-1.25,0.0,0.0007975101470947266,0.0008726119995117188,0
0.3198730945587158,0.03841039165854454,-0.045019928365945816,0.006968027446419001,-0.06215651616453277,-0.8767957855224998,0.5857404462654532,-0.7980364643078933,0.0774097855129287,0.6778310516137518,0.42490594896776335,-1.25,0.0,0.0013272762298583984,0.0014405250549316406,0
0.32999277114868164,0.03843610733747482,-0.04502493143081665,0.006732411216944456,-0.062150031098028524,-0.8780066919603638,0.5824756782485776,-0.7986255250155253,0.07749311278476277,0.6756724285108001,0.4283302106439818,-1.25,0.0,0.001651763916015625,0.0018095970153808594,0
0.3404972553253174,0.03848082944750786,-0.04505021497607231,0.006313913501799107,-0.06211930556949863,-0.8789602652502013,0.5805181673206987,-0.7990378675108677,0.07753991895983038,0.6734134253498588,0.43187308153966975,-1.25,0.0,0.0017800331115722656,0.0019164085388183594,0
0.3500211238861084,0.038500308990478516,-0.04507073760032654,0.006128234788775444,-0.06211021775755343,-0.879719873980578,0.5795459752905975,-0.7993265072576075,0.07756927612058816,0.671349246737405,0.4350749233236948,-1.25,0.0,0.0012559890747070312,0.001332998275756836,0
0.35978055000305176,0.038517143577337265,-0.04509530961513519,0.005948257632553577,-0.06211839634382654,-0.8803269469905595,0.579442352138546,-0.7995285550803253,0.07759289515829194,0.6692182214442937,0.4383457221040676,-1.25,0.0,0.0013995170593261719,0.0015273094177246094,0
0.36994171142578125,0.03854723647236824,-0.0451587438583374,0.005606805440038443,-0.062166324273275286,-0.8808141539376859,0.5800670927261187,-0.7996699885562277,0.07762739736318763,0.6669825431922419,0.4417400673210538,-1.25,0.0,0.001657724380493164,0.0018095970153808594,0
0.38066744804382324,0.038560643792152405,-0.04519583284854889,0.0054461779072880745,-0.0621728763020033,-0.8812133985714227,0.5813910224736376,-0.7997689919893595,0.0776540036242414,0.6646039694350092,0.44531063743327465,-1.25,0.0,0.0017435550689697266,0.001890420913696289,0
0.3899953365325928,0.03857206925749779,-0.045236457139253616,0.005292025860399008,-0.062190495980567924,-0.8815464505364435,0.5831151372288236,-0.7998382943925516,0.0776792364726579,0.6625198446355942,0.4484054587803634,-1.25,0.0,0.0012812614440917969,0.0013926029205322266,0
0.3999185562133789,0.038581982254981995,-0.045280929654836655,0.005141530651599169,-0.06219744711259256,-0.8818260028829783,0.5853237958300145,-0.7998868060747861,0.0776995073803523,0.6602868860287332,0.4516870909584187,-1.25,0.0,0.0012662410736083984,0.0013682842254638672,0
0.40987634658813477,0.038591522723436356,-0.04532932862639427,0.004996833391487598,-0.0621961984693753,-0.8820654038645913,0.5878970496872722,-0.7999207642523503,0.07771323032568955,0.6580298085967744,0.45496897806124387,-1.25,0.0,0.0014188289642333984,0.0015518665313720703,0
0.4211876392364502,0.03860602527856827,-0.045439742505550385,0.0047229682095348835,-0.06221349779022889,-0.8822659440744354,0.5910539093202717,-0.7999445349766452,0.07772931850652941,0.6554461547329369,0.4586832657137243,-1.25,0.0,0.001651763916015625,0.0017757415771484375,0
0.4300661087036133,0.03861011937260628,-0.04550189524888992,0.004596310667693615,-0.062201764677237044,-0.8824540963713835,0.5942301063660905,-0.7999611744836517,0.07773618124078419,0.6534035003717229,0.46158841590965,-1.25,0.0,0.001482248306274414,0.0016160011291503906,0
0.4398181438446045,0.038613367825746536,-0.045638080686330795,0.004364406690001488,-0.0622081374819703,-0.8826257368592493,0.597597312214044,-0.7999728221385561,0.07774337567706963,0.6511450285665157,0.46476892298551076,-1.25,0.0,0.0013022422790527344,0.0014181137084960938,0
0.45005083084106445,0.038613367825746536,-0.045638080686330795,0.004364406690001488,-0.0622081374819703,-0.8827916587815561,0.6010893517786647,-0.7999809754969893,0.07774841445364981,0.6487585990000458,0.4680943069761667,-1.25,0.0,0.0015773773193359375,0.0016965866088867188,0
0.45974230766296387,0.03860876336693764,-0.04578937217593193,0.004152212291955948,-0.06223142301108365,-0.8829444801648972,0.6046265971590625,-0.7999866828478925,0.07776067339467037,0.6464827285196301,0.4712325134430077,-1.25,0.0,0.001220703125,0.0013332366943359375,0
0.4698009490966797,0.038606151938438416,-0.04586910083889961,0.0040522669441998005,-0.06223620110439976,-0.8830914270745313,0.6082280623545384,-0.7999906779935247,0.07777104598458993,0.6441045829969214,0.4744779090351437,-1.25,0.0,0.0010118484497070312,0.0011014938354492188,0
0.4800567626953125,0.03860398754477501,-0.04595187306404114,0.0039566634222865105,-0.06223239010050463,-0.8832343840260396,0.6119412333725281,-0.7999934745954673,0.07777687813913357,0.6416630466798483,0.47777456454434114,-1.25,0.0,0.0017292499542236328,0.0018644332885742188,0
0.4900977611541748,0.038600239902734756,-0.04603917524218559,0.003865618258714676,-0.06222316381702386,-0.8833731013451275,0.6157337959442151,-0.7999954322168271,0.07777750088337557,0.6392563032493563,0.4809899986028473,-1.25,0.0,0.00145721435546875,0.001573324203491211,0
0.5003340244293213,0.03858780115842819,-0.04622679948806763,0.003697301261126995,-0.06221936496172775,-0.883506664426781,0.6196678041480311,-0.799996802551779,0.07777651312953604,0.6367861711400055,0.4842554824107331,-1.25,0.0,0.0012798309326171875,0.0013775825500488281,0
0.5101535320281982,0.03857455775141716,-0.04607990011572838,0.0032939023803919554,-0.0622328951004838,-0.8836334396176663,0.6234549939525738,-0.7999977617862453,0.0777808967658438,0.6344009304303355,0.4873760965303127,-1.25,0.0,0.0019130706787109375,0.002073526382446289,0
0.5197136402130127,0.03855953738093376,-0.04594165086746216,0.0029544970020651817,-0.062235503278658566,-0.8837581793304178,0.6270675624568254,-0.7999984332503717,0.07778494231515926,0.6320640075240154,0.49040298774852664,-1.25,0.0,0.0010371208190917969,0.0011332035064697266,0
0.5301949977874756,0.03854363411664963,-0.04581142216920853,0.0026259184814989567,-0.06224133063217874,-0.8838791884486001,0.6306453929257035,-0.7999989032752601,0.07778995710392493,0.6294852950443866,0.4937086826488689,-1.25,0.0,0.0022423267364501953,0.0024063587188720703,0
0.5398402214050293,0.03850824385881424,-0.04557686671614647,0.0019949711859226227,-0.06224369983234368,-0.8839772904463008,0.6341324481460553,-0.7999992322926821,0.07779435867986093,0.6270970188110053,0.49673869287418077,-1.25,0.0,0.0017268657684326172,0.0018992424011230469,0
0.5498812198638916,0.03848901763558388,-0.045471277087926865,0.0016904877265915275,-0.062249529546102966,-0.8840703777769848,0.6375786615863279,-0.7999994626048775,0.07779962626867654,0.6245952499597963,0.49988075950936506,-1.25,0.0,0.0014026165008544922,0.0015316009521484375,0
0.560028076171875,0.03846951574087143,-0.04537171870470047,0.0013942524092271924,-0.06225538857630042,-0.8841650179949593,0.6410643110661789,-0.7999996238234143,0.07780550800066115,0.6220511132990423,0.5030431516713274,-1.25,0.0,0.00186920166015625,0.002040863037109375,0
0.5700669288635254,0.03844832256436348,-0.045279890298843384,0.0011074930662289262,-0.06227126671751027,-0.884263029526378,0.6445418976001019,-0.79999973667639,0.0778155776557544,0.6195182996923978,0.5061591413243868,-1.25,0.0,0.0016553401947021484,0.0017867088317871094,0
0.5803520679473877,0.03840344399213791,-0.04511769115924835,0.000571215059608221,-0.06229785987653447,-0.8843506621960141,0.6480176398322046,-0.799999815673473,0.07783260090256892,0.6169071607027398,0.5093383502875904,-1.25,0.0,0.0012888908386230469,0.0013899803161621094,0
0.5902309417724609,0.03837939724326134,-0.04504641145467758,0.0003182526561431587,-0.06229996218589395,-0.8844405664844474,0.6513927148701115,-0.7999998709714311,0.07784530610236758,0.6143838006380555,0.5123792984826164,-1.25,0.0,0.0012218952178955078,0.001318216323852539,0
0.5998008251190186,0.03835400193929672,-0.04497900232672691,7.277104305103421e-05,-0.06230096936283758,-0.8845383476547881,0.6546321378376068,-0.7999999096800018,0.07785457766507661,0.6119250715858012,0.5153132122939524,-1.25,0.0,0.001119375228881836,0.0012125968933105469,0
0.6100544929504395,0.03832824155688286,-0.04491449147462845,-0.00016473224968649447,-0.06230317193647883,-0.8846395927795028,0.6578325468869037,-0.7999999367760012,0.07786189202207837,0.6092751158733496,0.518443664420269,-1.25,0.0,0.0014293193817138672,0.0015561580657958984,0
0.6196770668029785,0.038275960832834244,-0.04479711875319481,-0.0006209485582076013,-0.0622994394504488,-0.8847340675544504,0.6609159451956975,-0.7999999557432009,0.07786561558437484,0.6067736923888405,0.5213690499299061,-1.25,0.0,0.000978708267211914,0.0010688304901123047,0
0.629847526550293,0.03824840113520622,-0.04474562034010887,-0.0008377741323783994,-0.0622975723658965,-0.8848332271675391,0.6640571289381942,-0.7999999690202406,0.07786752128718069,0.6041145769134361,0.5244478791650322,-1.25,0.0,0.0012149810791015625,0.0013308525085449219,0
0.6397368907928467,0.038219891488552094,-0.044699348509311676,-0.001031774329021573,-0.06230037112687147,-0.8849379699503502,0.6672734238621589,-0.7999999783141685,0.07786990606543091,0.601513974179332,0.5274286102089895,-1.25,0.0,0.0011088848114013672,0.0012044906616210938,0
0.6498508453369141,0.03819190710783005,-0.04465899616479874,-0.0012194699374958873,-0.0623126336366222,-0.8850462443516296,0.6705507997924556,-0.7995055151131356,0.0778761726999182,0.5988390998051125,0.5304636957837949,-1.25,0.0,0.0012776851654052734,0.0013897418975830078,0
0.660252571105957,0.038135167211294174,-0.04459002986550331,-0.0015778547385707498,-0.06233165900487725,-0.8851466210171981,0.6737765208043052,-0.7980792109542614,0.07788769024765053,0.5960721443219498,0.533570987557825,-1.25,0.0,0.0011756420135498047,0.0012674331665039062,0
0.6697649955749512,0.03810679912567139,-0.044563937932252884,-0.001749480259604752,-0.0623287955301115,-0.885234663322275,0.6770170132618046,-0.7960519384210099,0.07789467981759371,0.5935276350043852,0.5363999874031518,-1.25,0.0,0.0012514591217041016,0.0013446807861328125,0
0.6796596050262451,0.03807761147618294,-0.04454401507973671,-0.001916824490763247,-0.06232287091867583,-0.8853065960696582,0.6802894365729009,-0.7936476022364825,0.07789735299817388,0.5908666481130779,0.5393297730958455,-1.25,0.0,0.0009691715240478516,0.0010535717010498047,0
0.690037727355957,0.038046203553676605,-0.04452892020344734,-0.002080045873299241,-0.062326856599485225,-0.8853636418561217,0.6835888706979225,-0.7909013064426147,0.07790071735673496,0.5880600905669159,0.542388541437253,-1.25,0.0,0.001142740249633789,0.0012373924255371094,0
0.6996908187866211,0.03798319399356842,-0.04451284185051918,-0.00236691115424037,-0.062338082748235824,-0.8854020424986088,0.6869067956604435,-0.7879371243725931,0.07790728645056445,0.58543538806385,0.5452205117221192,-1.25,0.0,0.0011055469512939453,0.0012176036834716797,0
0.7098450660705566,0.03795085474848747,-0.04451308771967888,-0.0024928441271185875,-0.06233887958938266,-0.8854246626919168,0.6903010571852064,-0.7847880914189859,0.07791217978344453,0.5826597025844217,0.5481857996922516,-1.25,0.0,0.0018439292907714844,0.0019881725311279297,0
0.7200863361358643,0.03791802376508713,-0.04451785981655121,-0.0026169405318796635,-0.0623695092570955,-0.8854353953183365,0.6937033799669721,-0.7814954337886127,0.07792709213246402,0.57984501652625,0.5511621873910373,-1.25,0.0,0.002069234848022461,0.0022580623626708984,0
0.7301599979400635,0.037883732467889786,-0.044527336955070496,-0.002738501876592636,-0.06238631598258104,-0.8854376237429783,0.6971402339479117,-0.7781780700294698,0.0779438354369756,0.5770615623053658,0.554075764954298,-1.25,0.0,0.0022122859954833984,0.00238037109375,0
0.73996901512146,0.0378493033349514,-0.04454190284013748,-0.0028559165075421333,-0.06238159524556064,-0.8854381909496061,0.7005640606097483,-0.7747627138168393,0.07795378278836282,0.5743371634861569,0.5568992930850922,-1.25,0.0,0.0014600753784179688,0.0015790462493896484,0
0.750002384185791,0.03778206557035446,-0.04458833113312721,-0.003082104492932558,-0.062423067779646235,-0.8854245840325601,0.7040676802399407,-0.7713408648773107,0.07797629685310162,0.5715361599430892,0.5597735416018764,-1.25,0.0,0.0013785362243652344,0.0014939308166503906,0
0.759803056716919,0.037746720016002655,-0.04461730644106865,-0.003204686800017953,-0.06243652358577334,-0.8854090248907038,0.7075176576350809,-0.7680169307258874,0.07799710737408631,0.5687862301154326,0.5625675287741678,-1.25,0.0,0.001148223876953125,0.0012431144714355469,0
0.7699761390686035,0.03771040961146355,-0.04465010389685631,-0.003322161501273513,-0.06242473411150362,-0.8853977739431546,0.7110053761121786,-0.7646893381511145,0.07800724953089304,0.5659173614963472,0.5654533932668658,-1.25,0.0,0.001180410385131836,0.00127410888671875,0
0.7799949645996094,0.03763556852936745,-0.04472517594695091,-0.0035407182294875383,-0.06243908315716995,-0.8853838014934116,0.7144829068533934,-0.761354131690737,0.07801973181858783,0.5630776832852624,0.5682812002750942,-1.25,0.0,0.0011301040649414062,0.0012309551239013672,0
0.7899150848388672,0.03759653866291046,-0.044768981635570526,-0.00364567618817091,-0.06245349235319032,-0.8853650421660851,0.7179261441459538,-0.7580508146111267,0.07803387387080127,0.5602520594650943,0.5710670975158003,-1.25,0.0,0.0010440349578857422,0.0011339187622070312,0
0.7998735904693604,0.03755751997232437,-0.044816479086875916,-0.0037489444948732853,-0.06247763897238512,-0.885346419977604,0.721346693803196,-0.7546269409866937,0.07805282533746487,0.5574016386231156,0.573849643426103,-1.25,0.0,0.0011773109436035156,0.0012753009796142578,0
0.8098175525665283,0.03751825913786888,-0.04486644268035889,-0.003849404864013195,-0.0624823638339409,-0.8853292228986144,0.7247270669759284,-0.7512118282030313,0.07806786200195925,0.5545415911905517,0.5766139294535393,-1.25,0.0,0.0011327266693115234,0.0012290477752685547,0
0.8202791213989258,0.03743765130639076,-0.04497426375746727,-0.004015860613435507,-0.062489165414377545,-0.8853036718073922,0.7281407293617878,-0.7477725934498787,0.07808094221134339,0.55151787537013,0.579506715359898,-1.25,0.0,0.0011959075927734375,0.0012874603271484375,0
0.8300011157989502,0.03739803656935692,-0.04503360018134117,-0.004084543325006962,-0.06250342528184971,-0.885279768641104,0.7315408244869751,-0.744291845133459,0.07809544630800616,0.5486943899671209,0.5821807849960432,-1.25,0.0,0.0012311935424804688,0.00133514404296875,0
0.8397495746612549,0.03735874220728874,-0.04509584605693817,-0.00415132287889719,-0.06252830795616937,-0.8852571279110538,0.7349199813771997,-0.7408020643759073,0.07811492530160014,0.5458502005283284,0.5848483210056978,-1.25,0.0,0.0014061927795410156,0.0015411376953125,0
0.8501200675964355,0.03731913864612579,-0.0451606810092926,-0.004216664936393499,-0.06254558309219682,-0.8852365789540043,0.7383219365327848,-0.7372515210222701,0.07813503925146037,0.5428102933661973,0.5876708138198653,-1.25,0.0,0.0017421245574951172,0.0018765926361083984,0
0.8598446846008301,0.037240661680698395,-0.04530107602477074,-0.004339925944805145,-0.06257456272904216,-0.8852169164250486,0.7417959121280611,-0.7337336765348291,0.07815999246024746,0.539946451271159,0.5903031676686836,-1.25,0.0,0.0013041496276855469,0.001422882080078125,0
0.8696393966674805,0.03720143064856529,-0.045376066118478775,-0.004397451411932707,-0.06257026043649994,-0.8851994331333726,0.7452718321557968,-0.7302103450776362,0.07817584273785158,0.537049062996657,0.5929403881794635,-1.25,0.0,0.0008404254913330078,0.0009095668792724609,0
0.879892110824585,0.03716225549578667,-0.04545418918132782,-0.004467792809009552,-0.06254462719291175,-0.8851839299994454,0.7487834691227594,-0.7266458938812782,0.07817732501389943,0.5340023954689761,0.5956856903043714,-1.25,0.0,0.001073598861694336,0.0011684894561767578,0
0.8898634910583496,0.037122733891010284,-0.04553559795022011,-0.004536051768809557,-0.06253623293139299,-0.8851714686352217,0.7522647800668563,-0.7229997350665044,0.07817521273780845,0.531025866650602,0.5983406462442419,-1.25,0.0,0.0010418891906738281,0.0011353492736816406,0
0.89984130859375,0.03708431497216225,-0.04561936482787132,-0.004601951688528061,-0.0625512287924157,-0.8851627846446597,0.7557473254073549,-0.7192512679106117,0.07817935937276974,0.5280342037434945,0.6009824287589228,-1.25,0.0,0.0011005401611328125,0.0011875629425048828,0
0.9099128246307373,0.03702356666326523,-0.04556923732161522,-0.005050474777817726,-0.06258427111062037,-0.885147034460223,0.7592079741466536,-0.7156472201285929,0.0781946559949586,0.5250011192916348,0.6036338498978754,-1.25,0.0,0.001077413558959961,0.0011720657348632812,0
0.9198520183563232,0.03699854016304016,-0.04544152319431305,-0.005423977971076965,-0.06260567520768134,-0.8851293179289058,0.7624663664234123,-0.7120618642868853,0.07821338484335251,0.5219948318176981,0.6062354291491161,-1.25,0.0,0.0019011497497558594,0.0020759105682373047,0
0.9303414821624756,0.03697225823998451,-0.04531886428594589,-0.0057885064743459225,-0.06261423748455375,-0.8851065634040423,0.7655250094610048,-0.7083729134483614,0.07822970650062819,0.5188081248033832,0.6089648016412749,-1.25,0.0,0.0016684532165527344,0.001819610595703125,0
0.9402177333831787,0.036916423588991165,-0.045089446008205414,-0.0064809261821210384,-0.06262395596720659,-0.8850713941527351,0.7683058360655359,-0.7047016307448954,0.07824477708650539,0.515794666765022,0.6115193061030535,-1.25,0.0,0.001971721649169922,0.0023584365844726562,0
0.9500548839569092,0.03688577190041542,-0.04498356208205223,-0.006808403413742781,-0.06262814619978219,-0.8850299143179222,0.7710702493672805,-0.7010777767958236,0.07825690079057544,0.512780636007777,0.6140488737351937,-1.25,0.0,0.0017292499542236328,0.0018603801727294922,0
0.9599626064300537,0.03685301914811134,-0.044883958995342255,-0.007129091769456863,-0.06262688721047871,-0.884981880855008,0.7738589989766483,-0.697413342110713,0.07826491252959063,0.5097324435410434,0.6165815728690545,-1.25,0.0,0.0014519691467285156,0.0015697479248046875,0
0.969853401184082,0.036819275468587875,-0.04479056969285011,-0.007442139554768801,-0.06263194561441843,-0.8849318701523127,0.7766787731675924,-0.6937225202078082,0.07827241511039876,0.5066769818379694,0.6190948522444408,-1.25,0.0,0.0009038448333740234,0.0009768009185791016,0
0.9797389507293701,0.036747537553310394,-0.04462298005819321,-0.0080460449680686,-0.06261721640266771,-0.884870788159906,0.7794763994502681,-0.6901460855201401,0.07827214914336804,0.5036107585746581,0.6215916697059715,-1.25,0.0,0.0009577274322509766,0.0010368824005126953,0
0.9900872707366943,0.036708343774080276,-0.044550150632858276,-0.008336861617863178,-0.06261454076255424,-0.8848100936534022,0.7823993386871827,-0.6864878684978443,0.07827095574946985,0.5003878168679633,0.6241891001372211,-1.25,0.0,0.0009884834289550781,0.001068115234375,0
0.9996652603149414,0.036624591797590256,-0.044424861669540405,-0.008877914398908615,-0.06262841650992845,-0.8847467758154522,0.7852629853691812,-0.6829937958845899,0.07827532596421023,0.49739285189207205,0.6265782879151427,-1.25,0.0,0.0009233951568603516,0.000997304916381836,0
1.0099992752075195,0.036624591797590256,-0.044424861669540405,-0.008877914398908615,-0.06262841650992845,-0.8846963369018833,0.7882692798212692,-0.6793635436804851,0.07827838786433572,0.49414869194470434,0.6291399448845525,-1.25,0.0,0.0012116432189941406,0.001308441162109375,0
1.0198566913604736,0.036536138504743576,-0.044319432228803635,-0.009391332976520061,-0.06265090010541297,-0.8846425225624417,0.791070099569095,-0.6756806951318036,0.0782889602647941,0.4910418554132727,0.631567808103208,-1.25,0.0,0.0011518001556396484,0.0012555122375488281,0
1.0298571586608887,0.03649083897471428,-0.04427287355065346,-0.00963960587978363,-0.06265209055038445,-0.8845911215726614,0.7937490696983666,-0.6720021292409246,0.07829680755720604,0.4878777433822219,0.6340152265618476,-1.25,0.0,0.0011858940124511719,0.0012760162353515625,0
1.0399143695831299,0.03644365817308426,-0.044230103492736816,-0.009881901554763317,-0.06266703660820117,-0.8845378212313622,0.7956243487888566,-0.6683145343342586,0.07830790321159131,0.4846833759498947,0.6364605447926942,-1.25,0.0,0.0012607574462890625,0.0013697147369384766,0
1.049851655960083,0.03639503940939903,-0.044192418456077576,-0.010119238868355751,-0.0626875606367534,-0.8844776595740825,0.7969370441521996,-0.6645717314353751,0.07832336557397636,0.481515060833402,0.6388608973717247,-1.25,0.0,0.001255035400390625,0.0013666152954101562,0
1.059924602508545,0.03629568591713905,-0.04413637891411781,-0.010564344003796577,-0.06265915698930158,-0.8843990208266945,0.7978559309065397,-0.6607953734404626,0.0783235388285078,0.4782913615430345,0.6412779221782943,-1.25,0.0,0.0010764598846435547,0.001161813735961914,0
1.0700387954711914,0.03624540939927101,-0.04411665350198746,-0.01077503152191639,-0.06265058251874667,-0.8843053429794119,0.7984991516345779,-0.6569227720777835,0.07832044783547185,0.4750422550897348,0.6436884773547367,-1.25,0.0,0.0012555122375488281,0.001363992691040039,0
1.0797300338745117,0.036194946616888046,-0.044101495295763016,-0.010980802588164806,-0.06264086772778299,-0.8842000375826023,0.7989494061442045,-0.6530986246596249,0.0783146375785002,0.47191762105872703,0.6459827853234726,-1.25,0.0,0.0010569095611572266,0.0011439323425292969,0
1.1168544292449951,0.036144107580184937,-0.044091466814279556,-0.011181555688381195,-0.06264622762522842,-0.8840846249046901,0.7992645843009432,-0.6458496123119954,0.07831257947143079,0.45984615097316794,0.6546308253016829,-1.25,0.0,0.0008471012115478516,0.00092315673828125,0
1.119602918624878,0.03593254089355469,-0.04409484937787056,-0.011917155236005783,-0.06263166221054961,-0.8839219275038761,0.7994852090106602,-0.6406665114106808,0.07830567838617357,0.45894609409998516,0.6552621480830154,-1.25,0.0,0.0008013248443603516,0.0008747577667236328,0
1.129716396331787,0.03587537258863449,-0.04410392791032791,-0.012075922451913357,-0.06262076200136768,-0.8837485621125479,0.7996396463074622,-0.6359118365202183,0.07829676108932918,0.45562675090509064,0.6575745310302632,-1.25,0.0,0.0007226467132568359,0.0007879734039306641,0
1.139509677886963,0.03575547784566879,-0.04413410648703575,-0.012379877269268036,-0.06262868668508315,-0.8835653626884656,0.7997477524152236,-0.6315257546636712,0.07829348931394049,0.45240139521836176,0.6597976792960701,-1.25,0.0,0.0007770061492919922,0.0008428096771240234,0
1.14992094039917,0.03569424897432327,-0.044154152274131775,-0.012524878606200218,-0.06260586231996877,-0.8833808341260083,0.7998234266906565,-0.6272414078847635,0.07828264246450677,0.4489606176010666,0.6621437637275375,-1.25,0.0,0.0009500980377197266,0.0010371208190917969,0
1.1598055362701416,0.03563225641846657,-0.04417678713798523,-0.012666494585573673,-0.06260463090989044,-0.8831930542031694,0.7998763986834596,-0.6230864884638444,0.07827458472544074,0.44568263595294905,0.6643545649802003,-1.25,0.0,0.0014214515686035156,0.0015511512756347656,0
1.170154094696045,0.03556884452700615,-0.044203389436006546,-0.012805100530385971,-0.06262145118049744,-0.8830032556669724,0.7999134790784217,-0.618997793885631,0.07827525600104542,0.4422391291222174,0.6666517476713181,-1.25,0.0,0.0018417835235595703,0.002000570297241211,0
1.1808288097381592,0.035435423254966736,-0.04426462948322296,-0.013082960620522499,-0.06261487090520612,-0.8827210211542719,0.7999394353548952,-0.6146364123235553,0.07827325836845811,0.43867468819332606,0.6690026292463194,-1.25,0.0,0.0019404888153076172,0.0020971298217773438,0
1.1899917125701904,0.035379841923713684,-0.04428206756711006,-0.013316318392753601,-0.0625594327173804,-0.882173357136586,0.7999576047484267,-0.6090726422897957,0.07825106530691081,0.4356050920561261,0.6710053679180026,-1.25,0.0,0.0012407302856445312,0.001352071762084961,0
1.2008485794067383,0.03534909337759018,-0.04422449320554733,-0.01435981784015894,-0.06235052770712146,-0.8808498712449377,0.7999703233238987,-0.5980817095051257,0.07815719280200852,0.4319561838169847,0.6733601230116522,-1.25,0.0,0.002097606658935547,0.002285003662109375,0
1.2101211547851562,0.035384561866521835,-0.04413513466715813,-0.015246229246258736,-0.06216628230943311,-0.8792280265346962,0.7972609697323244,-0.5857611891686263,0.07802239408022142,0.42882966127641986,0.6753555519943188,-1.25,0.0,0.0016672611236572266,0.0018122196197509766,0
1.2199897766113281,0.035450246185064316,-0.04400622099637985,-0.016406582668423653,-0.06195508295183405,-0.87730871548842,0.7897291464931798,-0.5719930568751567,0.07784883116761687,0.4254920400903604,0.6774633007180118,-1.25,0.0,0.0013358592987060547,0.0014400482177734375,0
1.2301278114318848,0.035539355129003525,-0.04384354129433632,-0.017855346202850342,-0.06171827776643912,-0.8750894841543648,0.7780782409904742,-0.5565628253714264,0.07763853360524435,0.42205251504657576,0.6796114143706387,-1.25,0.0,0.001214742660522461,0.0012900829315185547,0
1.2396283149719238,0.03577541932463646,-0.04342751204967499,-0.021585887297987938,-0.06119799951608895,-0.8722329096002647,0.7521139481187563,-0.5319521029466575,0.07729622432759076,0.4188194400879273,0.6816085948727724,-1.25,0.0,0.0011708736419677734,0.0012776851654052734,0
1.250063180923462,0.03577541932463646,-0.04342751204967499,-0.021585887297987938,-0.06119799951608895,-0.869397565577881,0.7367341696575421,-0.5146956355870688,0.07705660334521341,0.41525750860676924,0.6837844700969006,-1.25,0.0,0.0012857913970947266,0.001394510269165039,0
1.2598350048065186,0.036078449338674545,-0.04288749024271965,-0.026488889008760452,-0.060640374969058275,-0.8661110036620233,0.705681201517037,-0.485724700788053,0.07667976281830213,0.4119116546594246,0.6858052119630873,-1.25,0.0,0.0014078617095947266,0.0015521049499511719,0
1.2698783874511719,0.0362546406686306,-0.04256369546055794,-0.02937687747180462,-0.06036281758031859,-0.8625414856601524,0.6743999663510535,-0.4563375608957805,0.07631189353879111,0.4084625733958353,0.6878650493627743,-1.25,0.0,0.001220703125,0.0013360977172851562,0
1.2806525230407715,0.03667380288243294,-0.041788820177316666,-0.036011774092912674,-0.05984096698661068,-0.8585105501608963,0.6295815713242147,-0.4159425834750905,0.0758586917364095,0.40475108878455646,0.6900554732249548,-1.25,0.0,0.0012772083282470703,0.0013897418975830078,0
1.2900066375732422,0.03692345321178436,-0.04133288562297821,-0.039747316390275955,-0.05960198284444651,-0.8541321307356904,0.5882574870427966,-0.37811760560815577,0.07545183242963412,0.40151924465641015,0.6919409629228103,-1.25,0.0,0.0014293193817138672,0.0015599727630615234,0
1.300231695175171,0.03720305860042572,-0.0408245250582695,-0.04373709484934807,-0.059377405819181384,-0.8495425347887539,0.5498144967511994,-0.34228764615263363,0.07508280714984554,0.39797644453198755,0.6939846897429928,-1.25,0.0,0.001294851303100586,0.0014002323150634766,0
1.3101413249969482,0.03747941553592682,-0.04031489044427872,-0.047394026070833206,-0.059151615819132086,-0.8448664393545227,0.5136576905857972,-0.3078496572483956,0.07473982256471264,0.39453300772404776,0.6959480625852885,-1.25,0.0,0.0018470287322998047,0.0019676685333251953,0
1.3198580741882324,0.03779672831296921,-0.03974184766411781,-0.051320210099220276,-0.05895276664090021,-0.8401673998829686,0.47936713969469946,-0.274434809988063,0.0744251668327942,0.39114718840764134,0.6978566306920048,-1.25,0.0,0.0011916160583496094,0.001291513442993164,0
1.3300328254699707,0.03815849870443344,-0.03910240903496742,-0.05550682172179222,-0.05875890075780932,-0.8354930970817627,0.44655999330808377,-0.24170762081901725,0.07413220479011491,0.38759188319236626,0.6998375040560453,-1.25,0.0,0.0012614727020263672,0.0013706684112548828,0
1.339883804321289,0.03902680054306984,-0.037600670009851456,-0.06462709605693817,-0.058416069411658444,-0.8306317644126178,0.4007810467672686,-0.1994498692581056,0.07379856816215641,0.38414015333775176,0.7017380868911482,-1.25,0.0,0.001264810562133789,0.0013766288757324219,0
1.3498198986053467,0.03954131156206131,-0.03672786056995392,-0.0695469081401825,-0.058281667141663274,-0.8256788039371202,0.3597107180019584,-0.16097007624477996,0.07351462653264264,0.3806491592153625,0.7036378454777981,-1.25,0.0,0.001176595687866211,0.00127410888671875,0
1.3598928451538086,0.040112413465976715,-0.03577004373073578,-0.07469186931848526,-0.05815439849201986,-0.8207377827204194,0.3224929116866892,-0.12538071653501504,0.07326814384357151,0.3771004932190448,0.7055460424479421,-1.25,0.0,0.0012238025665283203,0.0013239383697509766,0
1.3698756694793701,0.04074262082576752,-0.034722886979579926,-0.08005678653717041,-0.05800524530029039,-0.8158812362754145,0.2881139671188803,-0.092002630439665,0.07303966302611553,0.37357413917668736,0.7074195095828197,-1.25,0.0,0.001138448715209961,0.0012466907501220703,0
1.380162000656128,0.042193587869405746,-0.03235093131661415,-0.09141252934932709,-0.05764920604107227,-0.8108768473489167,0.24242279541827327,-0.050923060390086206,0.07274621845500195,0.3699308386297946,0.7093314984058279,-1.25,0.0,0.0011477470397949219,0.0012488365173339844,0
1.390166997909546,0.04301993176341057,-0.031022654846310616,-0.09738613665103912,-0.05746295238884035,-0.8058916737284373,0.2026846005226787,-0.014246100264442237,0.07247096408103834,0.36637779483444444,0.7111731937103998,-1.25,0.0,0.0011801719665527344,0.0012805461883544922,0
1.399751901626587,0.043915264308452606,-0.029594969004392624,-0.10354684293270111,-0.05722791204687949,-0.8010179983361735,0.1673199415009116,0.019002081415769888,0.0721901396082824,0.3629653371867859,0.7129208679796677,-1.25,0.0,0.0010747909545898438,0.0011680126190185547,0
1.410022497177124,0.04488065466284752,-0.028066102415323257,-0.10988745838403702,-0.05697522829898371,-0.7963082741008488,0.13517446762386917,0.04978415411264507,0.071898816639621,0.35929950641029285,0.7147753945774294,-1.25,0.0,0.0012636184692382812,0.0013668537139892578,0
1.4198381900787354,0.04702727496623993,-0.02469731494784355,-0.12306301295757294,-0.05644996482551967,-0.791469435469452,0.09292654077099147,0.08633346387152574,0.07149790348344877,0.3557871854025922,0.7165301659409056,-1.25,0.0,0.0011444091796875,0.0012464523315429688,0
1.4298367500305176,0.048209838569164276,-0.0228564515709877,-0.12988243997097015,-0.05616926480064466,-0.7867549111066443,0.056715136259581286,0.11868950535199047,0.07111200674323746,0.35220061936335395,0.7182998842545292,-1.25,0.0,0.0011110305786132812,0.0012011528015136719,0
1.439805269241333,0.050800621509552,-0.018856098875403404,-0.14396116137504578,-0.05548353653642479,-0.781884378101181,0.013363971813992681,0.15480181458956896,0.07058473414126848,0.3486160662659408,0.72004641401875,-1.25,0.0,0.0009005069732666016,0.0009694099426269531,0
1.4497315883636475,0.05221126228570938,-0.016696114093065262,-0.15120723843574524,-0.05508729283330282,-0.7771781778024276,-0.02265246030890479,0.18615505162242246,0.07006705496184595,0.3450380819807834,0.7217677756612734,-1.25,0.0,0.0009522438049316406,0.0010325908660888672,0
1.4597508907318115,0.053699515759944916,-0.014427721500396729,-0.1585814356803894,-0.05463419158997862,-0.7726999283435483,-0.053408726477361376,0.21418061456205353,0.06953476372486884,0.34141796267969204,0.7234872319257946,-1.25,0.0,0.001055002212524414,0.00113677978515625,0
1.4698436260223389,0.05526583641767502,-0.012050091288983822,-0.1660749465227127,-0.05414968581889301,-0.7684726260397247,-0.08035947276975963,0.23971570477264886,0.06898046120366985,0.3377626483805418,0.7252009330930033,-1.25,0.0,0.0009796619415283203,0.0010616779327392578,0
1.4798011779785156,0.05691036954522133,-0.009563034400343895,-0.17367446422576904,-0.05364549638096471,-0.7644918552544067,-0.10472328588495794,0.2634716179288639,0.06840338673962724,0.33414786405520275,0.7268735825075402,-1.25,0.0,0.0010025501251220703,0.00109100341796875,0
1.4900038242340088,0.058632586151361465,-0.0069661871530115604,-0.1813807338476181,-0.053122585030386915,-0.7607422620546626,-0.1271495484764584,0.2857637053611371,0.06780334394947836,0.3304355152817342,0.7285687134653086,-1.25,0.0,0.0009019374847412109,0.000982522964477539,0
1.4998018741607666,0.062302786856889725,-0.0014476993819698691,-0.19708682596683502,-0.051931909362326056,-0.7568495452983681,-0.15742452937298826,0.3111433740976322,0.06693680991755979,0.3268622879524117,0.7301787758587035,-1.25,0.0,0.0010340213775634766,0.0011229515075683594,0
1.5096511840820312,0.06424897164106369,0.0014722268097102642,-0.20507214963436127,-0.05127877333920772,-0.7531763647763473,-0.1830676044658783,0.333707693964535,0.06608530711887445,0.32326246039528245,0.731779599127489,-1.25,0.0,0.0007996559143066406,0.0008671283721923828,0
1.5198314189910889,0.0662689059972763,0.004498249851167202,-0.21313820779323578,-0.050576000741889615,-0.7497260756516637,-0.2053597785373001,0.35428634815571497,0.06522571494540853,0.31953344462726,0.7334155559876255,-1.25,0.0,0.0010118484497070312,0.0011081695556640625,0
1.5297677516937256,0.06836162507534027,0.0076279775239527225,-0.22127756476402283,-0.04984097711533231,-0.74649210543544,-0.22515431051784246,0.3732135472492424,0.06434836852422153,0.31588578566768,0.7349939934537646,-1.25,0.0,0.0009593963623046875,0.0010521411895751953,0
1.5398385524749756,0.07276070863008499,0.014195000752806664,-0.23775306344032288,-0.04829009780534932,-0.7431093164746578,-0.2507691827428171,0.3934536355817564,0.06315264425227218,0.3121808075916452,0.7365752801794452,-1.25,0.0,0.0010170936584472656,0.0010976791381835938,0
1.5498168468475342,0.07506546378135681,0.017632223665714264,-0.24607974290847778,-0.04746796709871148,-0.7399541932342701,-0.2721544625996007,0.41137095197480167,0.06200734054965438,0.30850205502042755,0.7381236224699581,-1.25,0.0,0.001055002212524414,0.0011305809020996094,0
1.5596604347229004,0.07743753492832184,0.021169112995266914,-0.25445792078971863,-0.04659059496889028,-0.7370215404072051,-0.29040052292497925,0.4274491807289424,0.060876610200661554,0.3048654407393891,0.7396330597281182,-1.25,0.0,0.0008027553558349609,0.0008726119995117188,0
1.5697846412658691,0.0798749178647995,0.02480340376496315,-0.26288044452667236,-0.04570925461537812,-0.7342936044263987,-0.3063611740000964,0.442079658447943,0.05975459933526747,0.30111745173509513,0.7411668369945884,-1.25,0.0,0.0008947849273681641,0.0009777545928955078,0
1.579747200012207,0.08493587374687195,0.03236173838376999,-0.2798450291156769,-0.043861468726253516,-0.7314351004330613,-0.3266413422187821,0.456185510098198,0.058276272976345626,0.2974217720984139,0.7426575856219602,-1.25,0.0,0.0010232925415039062,0.0011479854583740234,0
1.58982515335083,0.08755701035261154,0.036283016204833984,-0.2883782684803009,-0.04290844683939232,-0.7287917043788582,-0.343312583295612,0.46879065849571366,0.05688405795898222,0.2936757777352169,0.7441468521546104,-1.25,0.0,0.0008690357208251953,0.0009427070617675781,0
1.599714994430542,0.09023681282997131,0.04029729962348938,-0.29692649841308594,-0.04192674900701209,-0.7263505579316218,-0.35742724179072216,0.48006058390727424,0.05554137146412,0.2899924551697947,0.7455899516118727,-1.25,0.0,0.0008072853088378906,0.0008840560913085938,0
1.609680414199829,0.09297255426645279,0.044403161853551865,-0.3054989278316498,-0.04092663318447132,-0.7240855477641686,-0.3697178068089369,0.49019562031005304,0.05422644857262931,0.2862738122489541,0.7470256383956648,-1.25,0.0,0.0008645057678222656,0.0009434223175048828,0
1.6196520328521729,0.09860356152057648,0.05288087576627731,-0.3227044641971588,-0.038858074639757774,-0.7217034907181888,-0.3848385712702863,0.4986506081594846,0.05253029385932985,0.28254574215301714,0.748443654252744,-1.25,0.0,0.0009169578552246094,0.000988006591796875,0
1.6297905445098877,0.10149344056844711,0.0572480671107769,-0.33133020997047424,-0.037792456628201965,-0.7195164785482899,-0.3970208234889436,0.5060551368634387,0.050943376607034484,0.27874807571432486,0.7498663282782879,-1.25,0.0,0.0009279251098632812,0.00101470947265625,0
1.6396939754486084,0.10442861169576645,0.061697546392679214,-0.3399669826030731,-0.036718619987242906,-0.7174980107599143,-0.40703311091600414,0.5124865984624412,0.04942984359352536,0.27503154881780334,0.7512374106465148,-1.25,0.0,0.0008089542388916016,0.0008764266967773438,0
1.649899959564209,0.10740698128938675,0.06622682511806488,-0.34861257672309875,-0.03562203121508567,-0.7156282478781948,-0.41546938058715627,0.5180204693537127,0.047959149977001445,0.2711944259401164,0.7526311070763757,-1.25,0.0,0.0009014606475830078,0.0009763240814208984,0
1.659743070602417,0.11348409950733185,0.07551764696836472,-0.36592239141464233,-0.033442272290178376,-0.7136689606683757,-0.4253801521050487,0.5204841743348894,0.04611225813529228,0.26748704072498536,0.7539566851246762,-1.25,0.0,0.0010287761688232422,0.0011126995086669922,0
1.6697022914886475,0.1165798157453537,0.08027440309524536,-0.3745806813240051,-0.03235665001568133,-0.7118670898067943,-0.43313755696628525,0.522699358748331,0.04441232450477513,0.2637293292910689,0.7552793131495679,-1.25,0.0,0.0008797645568847656,0.0009586811065673828,0
1.679840326309204,0.11971038579940796,0.08510410040616989,-0.38323548436164856,-0.03129817722010885,-0.7102051630288855,-0.439355680764914,0.5245116257532881,0.04282544230807153,0.2598974334516216,0.7566064525797147,-1.25,0.0,0.0009663105010986328,0.001062154769897461,0
1.6898534297943115,0.12287206202745438,0.09000334143638611,-0.39188459515571594,-0.03021092934765912,-0.7086671832765772,-0.4442267401950425,0.5257106460029224,0.04130690914879656,0.2561062026920928,0.7578981547296686,-1.25,0.0,0.0010008811950683594,0.0011115074157714844,0
1.699704885482788,0.1292789876461029,0.099999338388443,-0.40915447473526,-0.028087924472340653,-0.7070690971161708,-0.4495168910260594,0.5228400089378998,0.03944780814649283,0.25236991082469784,0.7591504647369546,-1.25,0.0,0.0011951923370361328,0.0012857913970947266,0
1.7098431587219238,0.13258318603038788,0.10480218380689621,-0.418032705783844,-0.027034150603645557,-0.7055784801576557,-0.4529128000040037,0.5204592757607595,0.037751272601131376,0.2485184474248258,0.7604200032150352,-1.25,0.0,0.0014126300811767578,0.0015327930450439453,0
1.7197942733764648,0.1359100341796875,0.10967081040143967,-0.4268991947174072,-0.02602157484998324,-0.704185929005465,-0.4549459292864743,0.5181198938487295,0.03618398144600046,0.24473187354068127,0.7616471033708906,-1.25,0.0,0.0012004375457763672,0.0013134479522705078,0
1.7298779487609863,0.13925430178642273,0.11460188776254654,-0.4357437193393707,-0.02502472255955146,-0.7028855034579904,-0.45579460472265454,0.5154079560849444,0.034713057095851096,0.24088867818489118,0.7628713159651083,-1.25,0.0,0.0012671947479248047,0.0013675689697265625,0
1.7402186393737793,0.1459789276123047,0.12464144080877304,-0.4533556401729584,-0.023078620065073885,-0.7015504613048054,-0.45575258999300367,0.5078581151292281,0.032953623068907215,0.23694116786292035,0.7641065913678244,-1.25,0.0,0.0025610923767089844,0.002707242965698242,0
1.749690055847168,0.14935724437236786,0.12974536418914795,-0.462118923664093,-0.022114894623131764,-0.7002980325067575,-0.4547824472346762,0.5010003259667232,0.03136062296825486,0.23331993858325847,0.7652201031464768,-1.25,0.0,0.0011246204376220703,0.0012018680572509766,0
1.759793996810913,0.15274298191070557,0.1349020004272461,-0.4708530306816101,-0.021163530706127087,-0.6991228175272449,-0.4529647752058951,0.49453306085739834,0.029888759833823525,0.22945110821764875,0.7663890584668422,-1.25,0.0,0.0010726451873779297,0.0011548995971679688,0
1.7697911262512207,0.1561330258846283,0.14010939002037048,-0.4795556366443634,-0.020259376696285525,-0.6980216171740881,-0.45049361852807857,0.48812367308175325,0.02851939814629518,0.22561741237426955,0.7675264055610979,-1.25,0.0,0.001094818115234375,0.0011761188507080078,0
1.779731035232544,0.16291750967502594,0.15066930651664734,-0.4968457520008087,-0.018470962033964256,-0.6969100940472343,-0.446599464994244,0.4764300621522126,0.026890189594859688,0.22180007035202862,0.7686382301133838,-1.25,0.0,0.0009360313415527344,0.0010097026824951172,0
1.7898926734924316,0.16630785167217255,0.156014084815979,-0.5054311156272888,-0.017614130096833325,-0.695844974512488,-0.4422526688474433,0.46598085215764395,0.02542843143020331,0.21789191248333092,0.769755230235142,-1.25,0.0,0.0011327266693115234,0.001214742660522461,0
1.7997252941131592,0.16969139873981476,0.16139844059944153,-0.5139827132225037,-0.016800544388031025,-0.6948351101339145,-0.4373610308285348,0.4561109716016647,0.02410010728059169,0.21410493892304114,0.7708171476613379,-1.25,0.0,0.0009753704071044922,0.0010526180267333984,0
1.8099064826965332,0.17306582629680634,0.16681815683841705,-0.5224987864494324,-0.0160103932118405,-0.6938773094428542,-0.4319639474174958,0.44656623088996367,0.02287397187826473,0.21017826433091066,0.7718970768197311,-1.25,0.0,0.0014579296112060547,0.0015926361083984375,0
1.8203215599060059,0.17977754771709442,0.1777590960264206,-0.5394206047058105,-0.01449131046860641,-0.6929401836888335,-0.42468367600617796,0.4314181473246299,0.021446023622044924,0.20615574882359203,0.7729811169925073,-1.25,0.0,0.0013110637664794922,0.0014307498931884766,0
1.8298964500427246,0.18311266601085663,0.18327665328979492,-0.5478227138519287,-0.013755885823563574,-0.6920260450819274,-0.41753769154682685,0.41780803998044513,0.020170674834180096,0.2024527958209173,0.7739592143416176,-1.25,0.0,0.0016140937805175781,0.0017402172088623047,0
1.8400683403015137,0.18643002212047577,0.18882285058498383,-0.5561771988868713,-0.013054455662580454,-0.6911491540426721,-0.4103446649245487,0.4053142092602725,0.019014893369287557,0.19851388029318665,0.7749788637962602,-1.25,0.0,0.001312255859375,0.0014290809631347656,0
1.8499948978424072,0.18972563743591309,0.1943942904472351,-0.5644893050193787,-0.01237332547954928,-0.6903192004019126,-0.4029716920648132,0.3933636346203827,0.017950422789639615,0.1946650148392559,0.775954594030883,-1.25,0.0,0.0014905929565429688,0.0016319751739501953,0
1.8603541851043701,0.19624750316143036,0.2056027352809906,-0.5809844136238098,-0.01114448480275021,-0.6895303491088401,-0.3933567542456672,0.3758428766441958,0.01674447509971093,0.19064325324024803,0.7769524760202355,-1.25,0.0,0.0012364387512207031,0.0013430118560791016,0
1.8700647354125977,0.1994701325893402,0.21123526990413666,-0.5891675353050232,-0.01057543746421219,-0.6887418404423825,-0.38412902355392714,0.36021443663555486,0.015686920123464166,0.18686870293001714,0.7778689400311939,-1.25,0.0,0.0012619495391845703,0.0013668537139892578,0
1.8796906471252441,0.20582520961761475,0.22254595160484314,-0.6053977608680725,-0.009476872239881919,-0.6879992836389495,-0.37281254040927847,0.33967219175064783,0.014534674234342904,0.18312270415374277,0.7787593179047175,-1.25,0.0,0.0010352134704589844,0.0011200904846191406,0
1.8902103900909424,0.20582520961761475,0.22254595160484314,-0.6053977608680725,-0.009476872239881919,-0.6872213024148838,-0.3644056607667191,0.32805063287038416,0.013728098013955815,0.17902401595985887,0.77971174270342,-1.25,0.0,0.0013532638549804688,0.001463174819946289,0
1.8997972011566162,0.21203963458538055,0.23390300571918488,-0.6214070320129395,-0.008512230107069476,-0.6865335437145755,-0.3535099458424952,0.31019070314947866,0.01280175315756955,0.1752844990009527,0.7805609165273298,-1.25,0.0,0.001024007797241211,0.0011050701141357422,0
1.9099595546722412,0.21509061753749847,0.2395944744348526,-0.6293242573738098,-0.008078630646340734,-0.6858495547218381,-0.34328541371417165,0.2942517198268258,0.011990714231063173,0.17131608530643333,0.7814414878385194,-1.25,0.0,0.0012919902801513672,0.0013957023620605469,0
1.920058250427246,0.2181006819009781,0.24529170989990234,-0.6371917724609375,-0.007668695190174991,-0.6851910620520244,-0.33330857343912657,0.27958222489699935,0.011269260716636656,0.1673681482297895,0.7822965569131257,-1.25,0.0,0.002530813217163086,0.002676725387573242,0
1.930084228515625,0.22106707096099854,0.25098928809165955,-0.6450079083442688,-0.0072969367340589555,-0.6845665185312805,-0.32340710930475014,0.26577292785333023,0.01062483323491906,0.16344441760451844,0.7831257385336787,-1.25,0.0,0.002150297164916992,0.0024216175079345703,0
1.9405295848846436,0.2268589735031128,0.26238128542900085,-0.6604885458946228,-0.006590688640728536,-0.6840202092816093,-0.3110517494861501,0.24621666671291603,0.00990889139797118,0.1593521934076515,0.7839686718588763,-1.25,0.0,0.001556396484375,0.0017104148864746094,0
1.9500792026519775,0.2296822965145111,0.2680723965167999,-0.6681503653526306,-0.006271654867267884,-0.6834608101792593,-0.29964270603917476,0.22880892523793972,0.00928809563608084,0.15560709053658797,0.7847206084809665,-1.25,0.0,0.0015099048614501953,0.0016138553619384766,0
1.9598877429962158,0.2324564903974533,0.27375784516334534,-0.6757538318634033,-0.0059791556072879,-0.682911301959258,-0.28868722146851583,0.21306772722182207,0.008743850437532431,0.1517567527734558,0.7854743076559897,-1.25,0.0,0.001135110855102539,0.0012278556823730469,0
1.9700591564178467,0.23517835140228271,0.27943292260169983,-0.6833018064498901,-0.0057000517165088915,-0.6823857743391517,-0.2780179672444588,0.1985139354317937,0.00825821473909359,0.14776011549045906,0.7862359367710473,-1.25,0.0,0.0012531280517578125,0.0013649463653564453,0
1.9800748825073242,0.23784618079662323,0.2850973904132843,-0.6907938122749329,-0.005481702878372907,-0.681887259177808,-0.2676678410386618,0.1847997699003846,0.007836388965983198,0.1438209172441904,0.7869660372360676,-1.25,0.0,0.001382589340209961,0.0014958381652832031,0
1.9898874759674072,0.24301722645759583,0.2963891327381134,-0.705612301826477,-0.005048098247311562,-0.6814701278748887,-0.2551230840964203,0.16581977878187282,0.007378508603745764,0.13995811283261536,0.7876621906961975,-1.25,0.0,0.0015554428100585938,0.0016930103302001953,0
2.0000247955322266,0.24551820755004883,0.3020135164260864,-0.7129377722740173,-0.004850670213106145,-0.6810305052254373,-0.24344169853589592,0.14911493972659057,0.00698395652672772,0.13596394040952817,0.7883614697004886,-1.25,0.0,0.0016357898712158203,0.0017654895782470703,0
2.0099775791168213,0.24796058237552643,0.3076196610927582,-0.7202070355415344,-0.004673660054911544,-0.6805893640019312,-0.23227702598708508,0.13404481817827743,0.006641393348763052,0.13203907752062796,0.7890283150860314,-1.25,0.0,0.0014674663543701172,0.0016069412231445312,0
2.019826889038086,0.2526627480983734,0.31876900792121887,-0.7345515489578247,-0.004371465890951053,-0.6802251407871323,-0.21894226890420632,0.11452560320901972,0.00628827600202919,0.1281517999031854,0.7896689915284594,-1.25,0.0,0.0010402202606201172,0.001129150390625,0
2.0296902656555176,0.2549203038215637,0.3243098855018616,-0.741624653339386,-0.004222063609732096,-0.6798377013673682,-0.2067153232257578,0.097565133889063,0.0059850690520517015,0.12425585593418381,0.7902913907325977,-1.25,0.0,0.0010943412780761719,0.0011892318725585938,0
2.0398731231689453,0.2571134865283966,0.3298260569572449,-0.7486387491226196,-0.004111936767208224,-0.6794462655331838,-0.19527886029462874,0.08264865881668192,0.00573152597718471,0.12023055048856104,0.7909137846372496,-1.25,0.0,0.0010833740234375,0.0011720657348632812,0
2.0499143600463867,0.2592421770095825,0.335315465927124,-0.7555941939353943,-0.003988360939719993,-0.6790653334711423,-0.1843962685031894,0.06925847216622756,0.005507703435493353,0.11625817554092117,0.791507445713492,-1.25,0.0,0.0009970664978027344,0.0010802745819091797,0
2.059986114501953,0.26130661368370056,0.3407769501209259,-0.7624907493591309,-0.003905054034758937,-0.6787056567907327,-0.17401820436030144,0.05713531095966972,0.005319787597425849,0.11227078391265917,0.7920828688209568,-1.25,0.0,0.001363992691040039,0.0014803409576416016,0
2.069697856903076,0.26524046063423157,0.3516092300415039,-0.7760975956916809,-0.003735571685706151,-0.6784514688335399,-0.16161758365285428,0.040814129354705506,0.005124688996435916,0.10842322299587913,0.7926187007099857,-1.25,0.0,0.001074075698852539,0.0011665821075439453,0
2.0799217224121094,0.2671084702014923,0.3569798469543457,-0.7828284502029419,-0.0036744358140063937,-0.6781837629327957,-0.1504903010873178,0.026786622207783547,0.004965194133547022,0.10437001049778916,0.7931625942445164,-1.25,0.0,0.00121307373046875,0.0013079643249511719,0
2.0899767875671387,0.2689102590084076,0.36231961846351624,-0.7894958257675171,-0.00357852837409256,-0.6779190747601249,-0.14006914913602045,0.014526842252100493,0.0048175843385979775,0.10038105748484845,0.7936772916609267,-1.25,0.0,0.001115560531616211,0.0012090206146240234,0
2.09989857673645,0.2706444263458252,0.36762535572052,-0.796100378036499,-0.00349111028700122,-0.6776668183519478,-0.13025718375708809,0.0034234092005986858,0.004681476008870476,0.09644248904644648,0.7941655030952466,-1.25,0.0,0.0009572505950927734,0.0010428428649902344,0
2.1096339225769043,0.2743288576602936,0.37857499718666077,-0.8092266917228699,-0.003315012589908406,-0.6774855183396252,-0.11916257963526419,-0.010888119350252787,0.004520162387197539,0.09257562383531825,0.7946255431783588,-1.25,0.0,0.0008606910705566406,0.0009491443634033203,0
2.1197805404663086,0.27627137303352356,0.38420823216438293,-0.8157459497451782,-0.0032521739387703086,-0.6772800774435707,-0.10936898482145566,-0.02274015706131276,0.004383679427817326,0.08854306887838306,0.7950849797056904,-1.25,0.0,0.0011701583862304688,0.0012733936309814453,0
2.12996768951416,0.27813535928726196,0.3897939622402191,-0.8221986293792725,-0.003209163440208495,-0.6770788439972404,-0.10054708917911284,-0.03274555936019866,0.0042720129307764546,0.08449211319275013,0.7955256644560398,-1.25,0.0,0.0009644031524658203,0.0010426044464111328,0
2.139910936355591,0.2799200713634491,0.3953312039375305,-0.8285835981369019,-0.0031606598178535172,-0.6768915879193225,-0.09237634644488944,-0.04141649180718071,0.0041756573450503045,0.08053603126511509,0.7959358941950442,-1.25,0.0,0.0011250972747802734,0.0012297630310058594,0
2.149810791015625,0.28324833512306213,0.40625259280204773,-0.8410866260528564,-0.003064563159440148,-0.6767864577727389,-0.08298170240999747,-0.05299446987793807,0.004072170477662984,0.07659523588219642,0.7963247891659224,-1.25,0.0,0.0010390281677246094,0.0011372566223144531,0
2.159883975982666,0.2847924530506134,0.41163599491119385,-0.8472363948822021,-0.003017003186802203,-0.676671421300998,-0.07448112308095017,-0.062434789598023226,0.003981895092192667,0.0725835178879113,0.7967004662550508,-1.25,0.0,0.0013163089752197266,0.0014224052429199219,0
2.169966697692871,0.28764984011650085,0.42224687337875366,-0.8593360185623169,-0.0028877386760046697,-0.6766097501714922,-0.06522046257570341,-0.0735424715001889,0.003870227994336179,0.06856615799262832,0.7970562602339499,-1.25,0.0,0.001074075698852539,0.0011677742004394531,0
2.179844379425049,0.2889624536037445,0.42747393250465393,-0.8652851581573486,-0.002852111025152926,-0.676536412337295,-0.057079177378828484,-0.08240786170191744,0.0037787016822740803,0.06462880372913954,0.7973851752625831,-1.25,0.0,0.0010616779327392578,0.0011546611785888672,0
2.1899712085723877,0.2889624536037445,0.42747393250465393,-0.8652851581573486,-0.002852111025152926,-0.6764141578980054,-0.05116590639409954,-0.08631229511097228,0.0037146319438354333,0.06059050078391336,0.7977021945655877,-1.25,0.0,0.001451730728149414,0.001561880111694336,0
2.1997995376586914,0.29135847091674805,0.437770813703537,-0.876986563205719,-0.002742613868856658,-0.6763774764013034,-0.044221736291738506,-0.09286928479019922,0.0036287230844820185,0.05666974512195327,0.7979903132167789,-1.25,0.0,0.0012667179107666016,0.0013689994812011719,0
2.2097835540771484,0.29244258999824524,0.44284042716026306,-0.882738471031189,-0.0026755675065639473,-0.67634762375701,-0.03794907914205955,-0.09816447074794504,0.003543443278979328,0.0526854813649844,0.7982632648777845,-1.25,0.0,0.0011811256408691406,0.0012848377227783203,0
2.2198827266693115,0.2934507429599762,0.44785642623901367,-0.8884232044219971,-0.00261002081592121,-0.6763276318792804,-0.03217582482622125,-0.10241892328478615,0.0034591680612364867,0.04865392755791396,0.7985191264667298,-1.25,0.0,0.0010459423065185547,0.0011377334594726562,0
2.2298970222473145,0.2943841516971588,0.45281994342803955,-0.8940420150756836,-0.002530011631914686,-0.6763152430549918,-0.02697986138877048,-0.10585748769850507,0.0033701719073274184,0.04465503107368939,0.7987527328277556,-1.25,0.0,0.001354217529296875,0.001470327377319336,0
2.239715576171875,0.29602479934692383,0.4625885784626007,-0.9050823450088501,-0.002388422093822396,-0.676365265563854,-0.02108846840936351,-0.1114428995195414,0.0032547782087333672,0.04073321032066525,0.7989623305118787,-1.25,0.0,0.001375436782836914,0.0015006065368652344,0
2.2498385906219482,0.29673299193382263,0.46739065647125244,-0.910503089427948,-0.002292340541935278,-0.6764101494453884,-0.015782038559017657,-0.11569409942379663,0.0031379723564670253,0.03668875221113717,0.7991582668415499,-1.25,0.0,0.0015308856964111328,0.001634359359741211,0
2.2599823474884033,0.2973659336566925,0.472137987613678,-0.9158574938774109,-0.0022119104692630565,-0.676463308797297,-0.01090595466054119,-0.11901877678990806,0.0030260476173484393,0.032635064121498296,0.7993340682028921,-1.25,0.0,0.0013341903686523438,0.0014531612396240234,0
2.270078182220459,0.2979240119457245,0.4768298268318176,-0.9211335778236389,-0.002129863773182805,-0.6765258476152053,-0.006345917017405755,-0.12153485055663786,0.0029169320726645403,0.028599693139691847,0.7994886225283732,-1.25,0.0,0.0012204647064208984,0.0013229846954345703,0
2.2796671390533447,0.29882392287254333,0.4860466718673706,-0.9314886331558228,-0.0019363379024643912,-0.6766459378847669,-0.001126741307525569,-0.125764392744248,0.002767979692874497,0.02476624816987301,0.7996165537003272,-1.25,0.0,0.0010485649108886719,0.0011339187622070312,0
2.289910078048706,0.29916632175445557,0.4905717968940735,-0.9365682601928711,-0.0018568828489642364,-0.6767586344586245,0.0035008322856949665,-0.1286324716488817,0.0026339163560074913,0.02067072948093633,0.7997329060022015,-1.25,0.0,0.0010571479797363281,0.0011417865753173828,0
2.29974627494812,0.2994386851787567,0.49504151940345764,-0.9415827989578247,-0.0017626888252118,-0.6768694106859424,0.007703911258925151,-0.13064702156068617,0.0025047496179069245,0.016737330183307305,0.7998248944477379,-1.25,0.0,0.0010063648223876953,0.001094818115234375,0
2.309894561767578,0.2996399700641632,0.4994564950466156,-0.9465338587760925,-0.001641612590988828,-0.6769804026500178,0.011543458133852744,-0.13200601651464952,0.002368929318377159,0.012678705914539318,0.799899525200717,-1.25,0.0,0.0010616779327392578,0.0011496543884277344,0
2.3198635578155518,0.2998324930667877,0.508122980594635,-0.956234872341156,-0.0014449003918985957,-0.6771511263513736,0.01575756593052858,-0.1349268046619451,0.0022000880037162246,0.008691467319524781,0.799952785104117,-1.25,0.0,0.0010840892791748047,0.0011839866638183594,0
2.3300013542175293,0.2998243272304535,0.5123759508132935,-0.9609836935997009,-0.0013766563146946353,-0.6773171673955783,0.01945030523443872,-0.1367423630142596,0.0020563076403724897,0.004636493792509836,0.7999865642154949,-1.25,0.0,0.0015647411346435547,0.001703023910522461,0
2.340228796005249,0.2997487485408783,0.5165754556655884,-0.965668261051178,-0.0012511390041880512,-0.6774816774951506,0.022718777283803115,-0.1376534447956535,0.001908592445170067,0.0005455429915357292,0.7999998139892561,-1.25,0.0,0.0012562274932861328,0.001371622085571289,0
