time,x,y,z,yaw,throttle,roll_rate,pitch_rate,yaw_rate,x_ref,y_ref,z_ref,yaw_ref,pred_time,nr_time,metadata
1.1920928955078125e-06,0.04675948992371559,-0.0575193390250206,-0.020195500925183296,0.034233864883894925,-0.738592889852675,0.1739477130527167,-0.3993647396947937,-0.01283766003053202,0.7368486095130415,0.311535113042972,-1.25,0.0,0.18280959129333496,0.18291807174682617,Sim
0.18375253677368164,0.04675948992371559,-0.0575193390250206,-0.020195500925183296,0.034233864883894925,-0.764203750788428,0.33548923599350655,-0.5195553177863556,-0.021824063341631336,0.7051586284622748,0.37782444164612156,-1.25,0.0,0.0006976127624511719,0.0007538795471191406,Jax
0.1900315284729004,0.04495419189333916,-0.05636858567595482,-0.024502508342266083,0.03422880552793852,-0.7841321542286368,0.4463750634532824,-0.6036887224504489,-0.028112654831337215,0.7039689769724733,0.38003641859738846,-1.25,0.0,0.0010857582092285156,0.001199483871459961,1stOrderHold
0.20011663436889648,0.04495419189333916,-0.05636858567595482,-0.024502508342266083,0.03422880552793852,-0.8004377150902322,0.5202664232711869,-0.6625821057153143,-0.032514668766694295,0.7020436813204336,0.3835813727464533,-1.25,0.0,0.0010190010070800781,0.0011124610900878906,QuatYawError
0.2101433277130127,0.044750384986400604,-0.05603630095720291,-0.024660568684339523,0.034249350050056714,-0.8140412695056561,0.5665596092488584,-0.70380747400072,-0.035603755492717236,0.7001118405375445,0.3870961259676103,-1.25,0.0,0.0018215179443359375,0.001922607421875,0
0.22009849548339844,0.044645000249147415,-0.055860307067632675,-0.024738207459449768,0.03425548429198091,-0.825474307835997,0.5933391881032334,-0.732665231800504,-0.037768435103971223,0.6981763719683616,0.39057618158957935,-1.25,0.0,0.0010983943939208984,0.0012056827545166016,0
0.2301950454711914,0.04500102996826172,-0.05642630532383919,-0.025341447442770004,0.03426004606184232,-0.8350521289572284,0.6070162706952348,-0.7528656622603528,-0.039285426928633765,0.6961957478509984,0.39409577601668005,-1.25,0.0,0.0018622875213623047,0.002039194107055664,0
0.24036836624145508,0.04500102996826172,-0.05642630532383919,-0.025341447442770004,0.03426004606184232,-0.8430761184109739,0.6119262271543248,-0.7670059635822469,-0.04034734071113394,0.6941821184192429,0.3976319736477088,-1.25,0.0,0.0020720958709716797,0.0022504329681396484,0
0.25002241134643555,0.045344673097133636,-0.05691123381257057,-0.02603963017463684,0.034235407840015136,-0.849379110700461,0.6098402530306186,-0.7769041745075729,-0.04108141242802643,0.6922546601115763,0.4009781609437177,-1.25,0.0,0.001300811767578125,0.0014040470123291016,0
0.2604696750640869,0.04553375393152237,-0.05710428208112717,-0.026558250188827515,0.03422111349373782,-0.8542558492409013,0.6033534957844325,-0.783832922155301,-0.0415899035302106,0.6901506628178468,0.40458875739704736,-1.25,0.0,0.0014350414276123047,0.0015559196472167969,0
0.2700326442718506,0.045743510127067566,-0.057253625243902206,-0.02725622057914734,0.03417840591513091,-0.857881378997406,0.593733702996783,-0.7886830455087107,-0.04192983553988234,0.6882082459723339,0.4078840646258245,-1.25,0.0,0.0011105537414550781,0.0012199878692626953,0
0.28018784523010254,0.04624282196164131,-0.05741334706544876,-0.029259636998176575,0.034022794402569966,-0.8600217503910855,0.5779019279214868,-0.7920781318560975,-0.042109433223339876,0.6861283108671574,0.41137323810206894,-1.25,0.0,0.001195669174194336,0.0013108253479003906,0
0.29030537605285645,0.04653126001358032,-0.05742726847529411,-0.03059357963502407,0.03391697734512824,-0.8613058066068519,0.5617735275956629,-0.7944546922992684,-0.042195471497720516,0.684038499662138,0.4148389217274234,-1.25,0.0,0.0014281272888183594,0.0015506744384765625,0
0.3005189895629883,0.04684062302112579,-0.05740464851260185,-0.03215651214122772,0.033771245252943304,-0.8618977868201384,0.5455496022324737,-0.7961182846094879,-0.042201052678583935,0.6819110869994515,0.41832674959560817,-1.25,0.0,0.0014867782592773438,0.0016050338745117188,0
0.31027984619140625,0.04716877266764641,-0.057347312569618225,-0.033953484147787094,0.033609869658783674,-0.8619417262122974,0.5288585691755513,-0.7949029144387212,-0.04214443808709853,0.6798613603298971,0.42164977259614633,-1.25,0.0,0.0016753673553466797,0.00180816650390625,0
0.32021641731262207,0.0475151501595974,-0.05725419148802757,-0.03598768264055252,0.03345767532247581,-0.861538035317162,0.5114647034029454,-0.7836205203237043,-0.042047737884951676,0.6777581016867978,0.42502230011836817,-1.25,0.0,0.0013082027435302734,0.0014286041259765625,0
0.33014726638793945,0.04826362803578377,-0.056968651711940765,-0.0408024825155735,0.03305999855526511,-0.8604216072768427,0.48546326222245817,-0.7536273968832787,-0.04183091276121627,0.6756393390057112,0.4283824034527164,-1.25,0.0,0.0011715888977050781,0.0012791156768798828,0
0.34035277366638184,0.04867105558514595,-0.05677328258752823,-0.04358993098139763,0.03280040148778276,-0.8587405387512345,0.4602568708078326,-0.7200563234212822,-0.04158179051921416,0.673444622462283,0.4318244324683739,-1.25,0.0,0.0014417171478271484,0.0015692710876464844,0
0.35010695457458496,0.049105919897556305,-0.05653954669833183,-0.0466233566403389,0.03249324973269399,-0.8565745227932025,0.4355697862018816,-0.6840087194344324,-0.041292221898883416,0.671330574729086,0.43510373410706926,-1.25,0.0,0.0009281635284423828,0.0010123252868652344,0
0.3601968288421631,0.050077203661203384,-0.05594839155673981,-0.05342301353812218,0.031726023748891906,-0.8537971965368079,0.40252249281905883,-0.6327052348005705,-0.040801810920011894,0.6691269699248471,0.4384850033002187,-1.25,0.0,0.001394510269165039,0.0015194416046142578,0
0.37003588676452637,0.050622593611478806,-0.05558457970619202,-0.05718838796019554,0.03129700902571233,-0.8504937533716787,0.3721752003599473,-0.5837290818121406,-0.040297643285745116,0.666961741942578,0.44177147348478957,-1.25,0.0,0.0011744499206542969,0.0013034343719482422,0
0.38009166717529297,0.05121215432882309,-0.05516790971159935,-0.06119532883167267,0.030853106587010147,-0.8468181274949177,0.3440714501193319,-0.5368423175266968,-0.0397782667062503,0.6647321425645438,0.44511928585666904,-1.25,0.0,0.001477956771850586,0.0016088485717773438,0
0.39030885696411133,0.05185115709900856,-0.05469662696123123,-0.0654570460319519,0.0303407090553123,-0.8428848926958222,0.3180087794098087,-0.4915761292459702,-0.039222550812473674,0.6624495443591125,0.4485093100242226,-1.25,0.0,0.0014600753784179688,0.0015826225280761719,0
0.40018749237060547,0.052546001970767975,-0.054167356342077255,-0.06995312124490738,0.029821082866693403,-0.8387847178303722,0.2934896217265276,-0.4476360894172413,-0.03863869257835993,0.6602261425641177,0.4517758743834218,-1.25,0.0,0.001383066177368164,0.0014989376068115234,0
0.4101109504699707,0.054116398096084595,-0.05291702598333359,-0.07963094860315323,0.028694174040181396,-0.834348494717964,0.26052388129315496,-0.3900225372291535,-0.03780740279998792,0.6579764353255514,0.45504616310466856,-1.25,0.0,0.0012502670288085938,0.0013594627380371094,0
0.4203627109527588,0.05500057339668274,-0.05219146981835365,-0.08480484783649445,0.02806139677440036,-0.8296799876873973,0.23142655049895955,-0.33758688863222686,-0.03698820160861386,0.6556352893727095,0.4584128786685246,-1.25,0.0,0.0014641284942626953,0.001592874526977539,0
0.43011927604675293,0.05595947057008743,-0.05139671266078949,-0.09019456058740616,0.027405687934504177,-0.8249221984103469,0.20537975116859372,-0.28916098669275203,-0.036168873096112775,0.6533912294259979,0.4616057856106041,-1.25,0.0,0.0012028217315673828,0.0013089179992675781,0
0.440185546875,0.05811446160078049,-0.04958678409457207,-0.10159322619438171,0.026079623456795067,-0.8198915793208253,0.1723257420452691,-0.22925770418049224,-0.035098072137292775,0.6510596388247762,0.46488853147109577,-1.25,0.0,0.0018532276153564453,0.0020263195037841797,0
0.45021605491638184,0.05931633710861206,-0.04856695979833603,-0.10759324580430984,0.025373006784572348,-0.814772751864227,0.14401844182964801,-0.17637011272806588,-0.03408352784771249,0.6487199265617668,0.4681479006486047,-1.25,0.0,0.001947641372680664,0.002106189727783203,0
0.46015262603759766,0.06060744449496269,-0.04746884107589722,-0.11378256976604462,0.024654494629109427,-0.809696034036352,0.1193461717429812,-0.1286914885862096,-0.033103903171940584,0.6463860372354895,0.47136513539611774,-1.25,0.0,0.0013959407806396484,0.0015156269073486328,0
0.47011613845825195,0.0634671151638031,-0.0450243204832077,-0.12669938802719116,0.023298082517198247,-0.8044290378848797,0.08822398202277067,-0.07133789983410582,-0.03190951984590921,0.6440297998040988,0.4745794105987874,-1.25,0.0,0.001226186752319336,0.001371145248413086,0
0.48004746437072754,0.06503988802433014,-0.043674223124980927,-0.1334114819765091,0.022598511401130027,-0.7992253204029582,0.061838793134883385,-0.02159442920849495,-0.030811108106592697,0.6416652679244035,0.4777715813435366,-1.25,0.0,0.0011034011840820312,0.0012197494506835938,0
0.4902675151824951,0.06671112030744553,-0.04223781079053879,-0.14028200507164001,0.02191963447915615,-0.7941839230006742,0.0391924992163344,0.022600299316201847,-0.02978763935767825,0.6392154759518475,0.48104425503653325,-1.25,0.0,0.0016345977783203125,0.0017654895782470703,0
0.5004026889801025,0.06848375499248505,-0.04071589559316635,-0.14730359613895416,0.02126522294836544,-0.789347713550234,0.01933892647788201,0.06281003948935157,-0.028825798938876997,0.6367695451721356,0.484277344443524,-1.25,0.0,0.0021681785583496094,0.0023496150970458984,0
0.5100550651550293,0.0703580379486084,-0.039107028394937515,-0.15446113049983978,0.02064204743598033,-0.7847296607290781,0.0012421806754732458,0.09994715308194427,-0.027918825206849726,0.634424924861595,0.4873448622016648,-1.25,0.0,0.00103759765625,0.0011241436004638672,0
0.5200903415679932,0.07441849261522293,-0.035623010247945786,-0.16918835043907166,0.01949935217547896,-0.7799544501601935,-0.023703256025962124,0.146109634875262,-0.026855426572386067,0.6319716285780315,0.4905220287330943,-1.25,0.0,0.0011687278747558594,0.0012857913970947266,0
0.5302016735076904,0.07660704106092453,-0.033750828355550766,-0.17674073576927185,0.01897936619664822,-0.7753713116705615,-0.0445570751968052,0.1864068168431231,-0.02591605571437367,0.6294836471103635,0.49371078377997324,-1.25,0.0,0.0026025772094726562,0.002766847610473633,0
0.5401492118835449,0.07890138775110245,-0.03179074823856354,-0.18440809845924377,0.018499219193593566,-0.7710149832939693,-0.06258321645862644,0.2223446380912832,-0.025078443677139916,0.6270202675640864,0.49683557044948135,-1.25,0.0,0.001445770263671875,0.001573324203491211,0
0.5503268241882324,0.08130057901144028,-0.02974136918783188,-0.19218213856220245,0.018062185378536343,-0.7668990755740347,-0.07857767157685269,0.25492750917940543,-0.024328234279902154,0.6244838599439668,0.5000199082731449,-1.25,0.0,0.0013720989227294922,0.0014464855194091797,0
0.5602693557739258,0.08380462229251862,-0.027602190151810646,-0.2000548094511032,0.017640948177213536,-0.7630112133326205,-0.09310714382340521,0.2850439252466431,-0.023645119390177573,0.6219904217468106,0.503118192133046,-1.25,0.0,0.0012507438659667969,0.0013544559478759766,0
0.5701253414154053,0.08913064002990723,-0.023058585822582245,-0.21607954800128937,0.016928185139903705,-0.758941884128272,-0.11313658516217369,0.3215625014679633,-0.022899654297486093,0.6195035164046222,0.5061772349309164,-1.25,0.0,0.0012269020080566406,0.00133514404296875,0
0.5803074836730957,0.09195151925086975,-0.02065565437078476,-0.2242184728384018,0.01663523086483589,-0.7551050463630427,-0.12973421106476327,0.3532723506761621,-0.022267967841479292,0.6169185147898144,0.5093245979820037,-1.25,0.0,0.0014369487762451172,0.0015730857849121094,0
0.5901288986206055,0.0979003980755806,-0.015592564828693867,-0.24070845544338226,0.016184482953045778,-0.7511214670577083,-0.14993730471079042,0.3882635923916107,-0.02165675877102144,0.6144099422376431,0.5123479509859838,-1.25,0.0,0.0013027191162109375,0.0014116764068603516,0
0.6002943515777588,0.0979003980755806,-0.015592564828693867,-0.24070845544338226,0.016184482953045778,-0.747793428857137,-0.16017318531716307,0.411557565831584,-0.021228910942760717,0.6117978926039904,0.5154641972099675,-1.25,0.0,0.0013914108276367188,0.0015163421630859375,0
0.610191822052002,0.10425550490617752,-0.010190468281507492,-0.25745052099227905,0.015859153198081864,-0.7442827643151595,-0.17550440570273723,0.43957374399168786,-0.02080741953017872,0.6092395157357434,0.5184854988001854,-1.25,0.0,0.001977205276489258,0.002140522003173828,0
0.6201825141906738,0.10758062452077866,-0.007365585304796696,-0.26590290665626526,0.015750563127005426,-0.7410165294240342,-0.1882129296982053,0.46408452981058973,-0.020471653693432606,0.606641910700992,0.5215223793674147,-1.25,0.0,0.0013535022735595703,0.0014715194702148438,0
0.6302685737609863,0.11053013801574707,-0.005335281603038311,-0.2741568088531494,0.0156888152892505,-0.7379823681408555,-0.19846904018889472,0.4856827068825329,-0.02021346415168329,0.6040041548686774,0.5245750479210528,-1.25,0.0,0.0014309883117675781,0.0015566349029541016,0
0.6402137279510498,0.1135844737291336,-0.003205349203199148,-0.28245803713798523,0.015663378059616727,-0.7351616861966035,-0.20694514147815943,0.5049479243182509,-0.02002319225668138,0.6013882083046443,0.5275720073242417,-1.25,0.0,0.0013120174407958984,0.0014371871948242188,0
0.6500422954559326,0.11999792605638504,0.0013423486379906535,-0.29917746782302856,0.015681775618320758,-0.7321996242337341,-0.21813852734212225,0.5257320217969841,-0.01989690094923494,0.5987883183926764,0.530521017261777,-1.25,0.0,0.001127004623413086,0.00122833251953125,0
0.6608338356018066,0.12335333228111267,0.0037569680716842413,-0.30758607387542725,0.015748040896715023,-0.7294767490534227,-0.22653791531281825,0.5436198491803396,-0.019833346795287806,0.5959170462143479,0.533744202808018,-1.25,0.0,0.0012888908386230469,0.001422882080078125,0
0.6702673435211182,0.12680542469024658,0.006262170150876045,-0.3160228133201599,0.015819438048715353,-0.7269668833163656,-0.23319609462528698,0.5591203827157347,-0.019815632235463777,0.5933928865674599,0.5365490491755042,-1.25,0.0,0.0015611648559570312,0.0017042160034179688,0
0.6801486015319824,0.13035060465335846,0.00885675847530365,-0.3244834840297699,0.015959221293402125,-0.7246435554561168,-0.23858732277791275,0.5726907848623266,-0.019855650471413376,0.5907347652663243,0.5394742228371444,-1.25,0.0,0.001287698745727539,0.001435995101928711,0
0.6902182102203369,0.1377076953649521,0.014306198805570602,-0.3414662480354309,0.016286411368405387,-0.7221933191422182,-0.24608719587100797,0.5859413207670587,-0.02000636031925325,0.5880111422537612,0.5424416066134926,-1.25,0.0,0.0012998580932617188,0.0014226436614990234,0
0.7000062465667725,0.1415133774280548,0.017157744616270065,-0.349980890750885,0.0164717648400903,-0.7199544463942481,-0.2516027262292476,0.5969631097124538,-0.020181363298464962,0.58534939193539,0.545312836233358,-1.25,0.0,0.0010979175567626953,0.0011911392211914062,0
0.7100932598114014,0.14539869129657745,0.02009204402565956,-0.35850366950035095,0.016688646319156918,-0.7179006579009829,-0.25562108884034895,0.6062271124554175,-0.020385197607662817,0.582591669955955,0.5482581017166382,-1.25,0.0,0.0009722709655761719,0.0010600090026855469,0
0.7201132774353027,0.14936093986034393,0.023105496540665627,-0.3670307993888855,0.016919400913053793,-0.7160065678846947,-0.2585548673761902,0.6140390564355753,-0.02061441312145541,0.5798375919608766,0.5511699982301396,-1.25,0.0,0.0008797645568847656,0.0009570121765136719,0
0.7301845550537109,0.15750564634799957,0.029362544417381287,-0.3840869665145874,0.017407886973617857,-0.7140100944996799,-0.26274390470437603,0.6198817111299789,-0.02095804627713719,0.5770547590111016,0.5540828503957144,-1.25,0.0,0.0014405250549316406,0.001573801040649414,0
0.74041748046875,0.1616821140050888,0.03259985148906708,-0.39260998368263245,0.01765980732277608,-0.7121904762458235,-0.265219500071731,0.6245296589829997,-0.021293060416167988,0.5742122740308438,0.5570280642412258,-1.25,0.0,0.0019466876983642578,0.002118825912475586,0
0.7502737045288086,0.16592352092266083,0.03590770810842514,-0.401130735874176,0.017932418438246136,-0.7105222724370229,-0.26666442205219687,0.6280694462844003,-0.02162979883908741,0.5714602157094774,0.5598510711441728,-1.25,0.0,0.0016117095947265625,0.0017476081848144531,0
0.760528564453125,0.17022742331027985,0.03928468003869057,-0.40964221954345703,0.018202836391165957,-0.7089785032832704,-0.2673745441569081,0.6307003779418567,-0.02196692246332646,0.568582119149382,0.5627738211605069,-1.25,0.0,0.0014798641204833984,0.0016033649444580078,0
0.7700114250183105,0.17901360988616943,0.046238332986831665,-0.4266315698623657,0.018758209805484392,-0.7073533500929419,-0.26904228117309537,0.6301617716859036,-0.02241117479729543,0.5659073851282715,0.5654633776446376,-1.25,0.0,0.0010137557983398438,0.001100778579711914,0
0.779961109161377,0.18348926305770874,0.0498124435544014,-0.43510502576828003,0.019025099321570836,-0.7058631918612304,-0.2695435109943691,0.6291564735587217,-0.02282223337364872,0.563087302909125,0.5682716685728115,-1.25,0.0,0.0009870529174804688,0.0010704994201660156,0
0.7903249263763428,0.18801350891590118,0.0534483902156353,-0.44356074929237366,0.01930511488290001,-0.7044897860029585,-0.2692575503279072,0.6275916965316163,-0.023214981422417364,0.5601350241940911,0.5711818928074357,-1.25,0.0,0.0012021064758300781,0.0013155937194824219,0
0.8001816272735596,0.19258391857147217,0.05714577063918114,-0.45199689269065857,0.019564930121181122,-0.7032158627304246,-0.26855863727017815,0.6254470966072,-0.023587335635404133,0.5573132486070909,0.5739354867291366,-1.25,0.0,0.0012552738189697266,0.0013575553894042969,0
0.8099675178527832,0.2018536776304245,0.06471268087625504,-0.4688190221786499,0.020116235103950577,-0.7018982974251468,-0.2681386012151883,0.6191722671418788,-0.02405472285033282,0.5544983535951712,0.5766555088267556,-1.25,0.0,0.0011599063873291016,0.0012574195861816406,0
0.820223331451416,0.20654647052288055,0.06857888400554657,-0.47720175981521606,0.02037372464472067,-0.7006739901885064,-0.2668246118788743,0.61319509126915,-0.024478453411699803,0.5515340404801674,0.5794913305577756,-1.25,0.0,0.0012488365173339844,0.0013535022735595703,0
0.8301129341125488,0.21127364039421082,0.0725000724196434,-0.4855583608150482,0.02061987911888277,-0.6995335445638684,-0.2651345088453952,0.607201162264234,-0.024867371705427837,0.5486618398727802,0.5822114611268105,-1.25,0.0,0.0011401176452636719,0.0012500286102294922,0
0.8402156829833984,0.2160332351922989,0.07647466659545898,-0.4938870072364807,0.020839599745983393,-0.6984755730313705,-0.2630950960276144,0.6009519819176586,-0.025222009329180787,0.5457138843710362,0.5849755177823046,-1.25,0.0,0.0012707710266113281,0.0013790130615234375,0
0.8502528667449951,0.22563153505325317,0.0845641940832138,-0.5104515552520752,0.0212265449449778,-0.6974057389916326,-0.2608605858658144,0.5897158869089147,-0.025615361617145463,0.5427712710777727,0.5877068548967411,-1.25,0.0,0.0012383460998535156,0.0013470649719238281,0
0.8601911067962646,0.2304638922214508,0.08867674320936203,-0.5186871290206909,0.021393698349913916,-0.6963961962344267,-0.2580898815028853,0.5792484973839469,-0.02595338932491945,0.5398441961122529,0.5903966835305865,-1.25,0.0,0.0013251304626464844,0.0014519691467285156,0
0.8703622817993164,0.23531374335289001,0.09283313900232315,-0.5268788933753967,0.021566456872561337,-0.6954502810118854,-0.25499289017016097,0.5691049061407008,-0.0262547933680384,0.5368347140257433,0.5931344618355086,-1.25,0.0,0.0017218589782714844,0.001859426498413086,0
0.8803331851959229,0.24017708003520966,0.09703182429075241,-0.5350350737571716,0.021732831876939217,-0.6945651534987681,-0.25167834348917784,0.5590170669020391,-0.026528165649692577,0.5338710116383142,0.5958034432027756,-1.25,0.0,0.0021588802337646484,0.002330303192138672,0
0.8901858329772949,0.24993322789669037,0.10554453730583191,-0.5512385964393616,0.021986110531549554,-0.693697910537607,-0.24822539320425027,0.543450694856915,-0.026814506621263022,0.5309294246179882,0.5984262244210327,-1.25,0.0,0.0012590885162353516,0.001369476318359375,0
0.9001433849334717,0.2548196017742157,0.1098569929599762,-0.5592836141586304,0.0220932467971944,-0.6928624504880292,-0.24443852423593893,0.5292244753914827,-0.027055121701797046,0.5279434264347836,0.6010621752234124,-1.25,0.0,0.0011191368103027344,0.0012118816375732422,0
0.9101800918579102,0.25970548391342163,0.11420492827892303,-0.5672887563705444,0.022199595600433743,-0.6920710090800003,-0.24057923775571413,0.5156457804225768,-0.027263432988001286,0.52492044883151,0.603704002304545,-1.25,0.0,0.001146078109741211,0.0012469291687011719,0
0.9201247692108154,0.2645880877971649,0.11858738213777542,-0.5752531290054321,0.022301933548299038,-0.691320952797013,-0.23668496468577635,0.5024997419678715,-0.0274476283301749,0.5219121513481955,0.6063066107796438,-1.25,0.0,0.0010869503021240234,0.0011792182922363281,0
0.9301784038543701,0.27433767914772034,0.1274424046278,-0.5910636782646179,0.022418735833460234,-0.6906060006012728,-0.23241037102584025,0.48370694389057295,-0.02762036638782469,0.5188577775534194,0.6089224964413176,-1.25,0.0,0.0025107860565185547,0.002736806869506836,0
0.9403181076049805,0.2791963517665863,0.13191229104995728,-0.5989100337028503,0.02246202520363407,-0.6898942977060224,-0.22785380206375408,0.46654061935390806,-0.02775751618635716,0.5157639757282236,0.6115451915770547,-1.25,0.0,0.0014727115631103516,0.0016236305236816406,0
0.9503934383392334,0.28403860330581665,0.13640837371349335,-0.6067157983779907,0.02246540499292162,-0.6891957663090568,-0.22319102770553728,0.4504763723627977,-0.02785478768739095,0.5126766841928863,0.614135667002811,-1.25,0.0,0.0019156932830810547,0.002059459686279297,0
0.960371732711792,0.29366955161094666,0.14547015726566315,-0.6221981048583984,0.022446436640162905,-0.6885405741676585,-0.21814049287792298,0.4290601819802034,-0.027915764833582605,0.509606303013623,0.6166858324372204,-1.25,0.0,0.0015130043029785156,0.001628875732421875,0
0.9699528217315674,0.29845383763313293,0.15003205835819244,-0.6298727989196777,0.022413960181202588,-0.6878799717638859,-0.21298446004999344,0.4099017360420735,-0.027946271278314925,0.5066462058373767,0.6191200385309706,-1.25,0.0,0.0007958412170410156,0.0008699893951416016,0
0.9800882339477539,0.30321305990219116,0.15461347997188568,-0.6375004649162292,0.022368869665777134,-0.6872401146670564,-0.2077908804142041,0.3923906699944409,-0.027950715981496555,0.5035021951257658,0.6216796116196311,-1.25,0.0,0.00099945068359375,0.001093149185180664,0
0.990070104598999,0.3079439401626587,0.15921452641487122,-0.6450843811035156,0.022333550161198337,-0.6866259731305148,-0.20268355883174763,0.37593107790906594,-0.02794058253008851,0.5003931743075521,0.6241848052511467,-1.25,0.0,0.0010612010955810547,0.0011584758758544922,0
1.000056266784668,0.3126441240310669,0.16383376717567444,-0.6526206135749817,0.02225916050394108,-0.6860414880751986,-0.1977017537812241,0.3601970867882984,-0.027905592775204806,0.4972703443051158,0.6266755178516803,-1.25,0.0,0.0010378360748291016,0.0011320114135742188,0
1.0101714134216309,0.321943461894989,0.17311957478523254,-0.6675502061843872,0.022057239274289733,-0.6855217053774698,-0.1922173946253227,0.3387719236593823,-0.02780538041078611,0.49409454060120206,0.6291824734908683,-1.25,0.0,0.0010423660278320312,0.001138448715209961,0
1.0200088024139404,0.3265365660190582,0.17778128385543823,-0.6749396920204163,0.021940522211706857,-0.6849972511163178,-0.18663639810365343,0.3195099225422448,-0.027691461209432743,0.4909938197708041,0.6316051527234996,-1.25,0.0,0.001216888427734375,0.0013358592987060547,0
1.0300822257995605,0.33669596910476685,0.1867540031671524,-0.690083920955658,0.021676578585893468,-0.6845041849119688,-0.1806104168632883,0.29663548216400815,-0.027512740449044188,0.48780639229672007,0.6340701251710716,-1.25,0.0,0.0015599727630615234,0.0016846656799316406,0
1.0403084754943848,0.33669596910476685,0.1867540031671524,-0.690083920955658,0.021676578585893468,-0.6839506429709385,-0.17496824093721206,0.28263869692180815,-0.027387635411657143,0.48455795010911906,0.6365560407270113,-1.25,0.0,0.001560211181640625,0.001688241958618164,0
1.0501511096954346,0.3466358184814453,0.19577421247959137,-0.7049961090087891,0.021383179416819574,-0.6834653611737005,-0.16872668521523979,0.2634960601356138,-0.02719003633086316,0.48141940079538054,0.6389329859522177,-1.25,0.0,0.0011930465698242188,0.0012938976287841797,0
1.0602648258209229,0.35151436924934387,0.2003002166748047,-0.7123639583587646,0.021224123371656377,-0.6829801027349359,-0.16264167628316986,0.24644355520437825,-0.026992071673949115,0.47818226577374956,0.6413592758349123,-1.25,0.0,0.001207113265991211,0.0013055801391601562,0
1.0702335834503174,0.3563311994075775,0.20483560860157013,-0.7196726202964783,0.02104004805021489,-0.6825066117791544,-0.15674735581273289,0.23097809670306768,-0.02678446776914341,0.4749795614479608,0.6437347405622156,-1.25,0.0,0.0011904239654541016,0.0013020038604736328,0
1.080211877822876,0.3610857129096985,0.20937854051589966,-0.7269229888916016,0.020855783445789443,-0.6820473563059852,-0.15096634150528282,0.21668533310359295,-0.02657004662586498,0.47176197591645386,0.6460964618997718,-1.25,0.0,0.0012776851654052734,0.0013892650604248047,0
1.090014934539795,0.37040260434150696,0.21847672760486603,-0.7412450909614563,0.020453078796370396,-0.6816591383611732,-0.14464709022493433,0.19795656133985914,-0.026268936965545903,0.46858946144203095,0.6484010461323049,-1.25,0.0,0.0011112689971923828,0.0012068748474121094,0
1.100165843963623,0.3749599754810333,0.22302992641925812,-0.7483417987823486,0.020215632972110844,-0.6812647718482114,-0.13829697901284801,0.1813909241597758,-0.025969117736838368,0.46529250995073995,0.6507709890458706,-1.25,0.0,0.0011856555938720703,0.0013132095336914062,0
1.1101908683776855,0.3794461786746979,0.2275836169719696,-0.7553758025169373,0.020005693242034075,-0.6808816288582467,-0.13213236388429864,0.1663668606183673,-0.025680518847078112,0.46202468079417597,0.6530950882812088,-1.25,0.0,0.001895904541015625,0.002044677734375,0
1.1205251216888428,0.3838613033294678,0.2321382462978363,-0.7623476982116699,0.019790701509188293,-0.6805104867369108,-0.1261662550019419,0.1527090622981684,-0.0253978762862747,0.4586439029410362,0.6554736991634473,-1.25,0.0,0.003466367721557617,0.003856658935546875,0
1.130052089691162,0.3924770951271057,0.24124303460121155,-0.776106595993042,0.01940402451514547,-0.680199876354703,-0.11990633572375883,0.134914286686471,-0.02505502397713124,0.4555163727858543,0.6576509972044584,-1.25,0.0,0.0016617774963378906,0.0018453598022460938,0
1.140080213546753,0.3966760039329529,0.24579179286956787,-0.7828923463821411,0.01919047326136638,-0.6798850044331061,-0.11388895041790743,0.11943953169483505,-0.02473494462846099,0.4522131577610717,0.659926708012155,-1.25,0.0,0.0013191699981689453,0.0014274120330810547,0
1.150130033493042,0.400799959897995,0.2503376007080078,-0.7896133065223694,0.018958061206412215,-0.679576800494555,-0.10816142232435566,0.10568963145764293,-0.02442373550570678,0.44889139030355435,0.6621906973911232,-1.25,0.0,0.0012221336364746094,0.0013256072998046875,0
1.1603038311004639,0.4048477113246918,0.2548796236515045,-0.796261727809906,0.01874258682425658,-0.679283853918798,-0.10268687057374934,0.09320389190936466,-0.024125085231867814,0.44551709989929744,0.6644655850360645,-1.25,0.0,0.0011744499206542969,0.0012738704681396484,0
1.1702189445495605,0.4127131402492523,0.26394519209861755,-0.8093627095222473,0.018324432188736386,-0.6790715918434514,-0.0969577021999665,0.07719071547907533,-0.023759221984210082,0.4422175127556502,0.666666086892236,-1.25,0.0,0.0011463165283203125,0.0012476444244384766,0
1.1800265312194824,0.4165298640727997,0.2684650123119354,-0.8158144354820251,0.018079748706233436,-0.6788521250241821,-0.09136602882212562,0.06329009539136861,-0.02341136029544386,0.43894301611115527,0.6688266057860155,-1.25,0.0,0.0010838508605957031,0.0011725425720214844,0
1.1903445720672607,0.42026713490486145,0.272975891828537,-0.8222019672393799,0.01785138502053332,-0.678634027878305,-0.08594155425598556,0.05100628995938038,-0.02308222037149558,0.4354866999687736,0.6710822111711109,-1.25,0.0,0.00231170654296875,0.002531766891479492,0
1.2004802227020264,0.42750275135040283,0.2819644510746002,-0.8347824215888977,0.017393189807768186,-0.6784814665950468,-0.08030516510569347,0.03573876305513668,-0.022679998806608623,0.43208019484794546,0.6732805546131283,-1.25,0.0,0.0020973682403564453,0.0023241043090820312,0
1.2101407051086426,0.4310013949871063,0.2864375710487366,-0.8409745693206787,0.01714602927633748,-0.6783156613690781,-0.07485848189108257,0.022744889148003038,-0.022305759848638203,0.42882305954617694,0.6753597438413516,-1.25,0.0,0.0012781620025634766,0.0014004707336425781,0
1.2203278541564941,0.4344199001789093,0.2908971607685089,-0.8470922112464905,0.016897100231181985,-0.6781507079643277,-0.06961967187915068,0.011504581439793249,-0.021950445259157906,0.42537751644705496,0.6775352156909156,-1.25,0.0,0.001409292221069336,0.0015380382537841797,0
1.2300474643707275,0.437757283449173,0.2953453063964844,-0.8531450033187866,0.01666363110362503,-0.6780005385005193,-0.06478120959869964,0.0014803072632788641,-0.021614174215064206,0.4220798170959273,0.6795944584826076,-1.25,0.0,0.0011899471282958984,0.001318216323852539,0
1.2404077053070068,0.4410130977630615,0.2997815012931824,-0.859132707118988,0.016427648723045498,-0.6778647868753225,-0.060100242598426966,-0.0074086643371814465,-0.021290290738528644,0.41855378871762733,0.6817717550251843,-1.25,0.0,0.0017681121826171875,0.001918792724609375,0
1.2502350807189941,0.44727885723114014,0.3086104691028595,-0.8709119558334351,0.016006258719173404,-0.6778001991123218,-0.05545463127495816,-0.019324220605836613,-0.020905548390675703,0.41519873586770917,0.6838201589115784,-1.25,0.0,0.002221822738647461,0.002513885498046875,0
1.260284185409546,0.4502868354320526,0.3129999041557312,-0.876702606678009,0.0158027259773015,-0.6777349708810697,-0.05092427444535489,-0.02950046658623813,-0.020559907520187964,0.4117576190728076,0.6858977060287436,-1.25,0.0,0.0013751983642578125,0.001493215560913086,0
1.2699263095855713,0.45605453848838806,0.3217288553714752,-0.8880938291549683,0.0153829411827753,-0.6777236744908015,-0.046739595628319905,-0.041810878016558896,-0.020160540007504026,0.4084460912979088,0.6878748363644802,-1.25,0.0,0.0011334419250488281,0.0012307167053222656,0
1.2801768779754639,0.45605453848838806,0.3217288553714752,-0.8880938291549683,0.0153829411827753,-0.6776510975175479,-0.04254453614417885,-0.048509050107286185,-0.019880980549430712,0.40491518807705235,0.6899591947822171,-1.25,0.0,0.0013604164123535156,0.0014834403991699219,0
1.2900993824005127,0.46148937940597534,0.33039259910583496,-0.8992300033569336,0.014997599211796133,-0.6776576280182697,-0.03877568211494759,-0.05812177750701333,-0.019540786781990466,0.4014871572521641,0.6919595815953241,-1.25,0.0,0.0009326934814453125,0.0010101795196533203,0
1.300065279006958,0.46408089995384216,0.33469894528388977,-0.9046972393989563,0.014802148336349208,-0.6776645267234893,-0.03509535636180287,-0.06623930581281753,-0.019229356669936398,0.3980341882906417,0.6939515724831309,-1.25,0.0,0.001096963882446289,0.0011973381042480469,0
1.3102242946624756,0.4665895402431488,0.33898690342903137,-0.9100987911224365,0.014620666898594226,-0.6776723216990775,-0.03149056369790802,-0.07313078177472866,-0.018943300213734384,0.3945041360955735,0.6959644291222686,-1.25,0.0,0.0013866424560546875,0.0015206336975097656,0
1.3202142715454102,0.469015896320343,0.3432559072971344,-0.915435254573822,0.014444376190570618,-0.6776915482370159,-0.02799940101560089,-0.07918128595514014,-0.0186769510352515,0.39102289486110164,0.6979262824213199,-1.25,0.0,0.0011544227600097656,0.0012540817260742188,0
1.330009937286377,0.47362178564071655,0.3517356514930725,-0.9259083271026611,0.014074148920679508,-0.6777769580550372,-0.025003513864445603,-0.08740232867318716,-0.01835167185065859,0.38759989217162444,0.6998330683731265,-1.25,0.0,0.0010519027709960938,0.0011394023895263672,0
1.3399436473846436,0.4758026897907257,0.35594627261161804,-0.9310731291770935,0.013894373582092246,-0.6778570161936851,-0.022106224613674074,-0.09415931144579498,-0.018056559810037332,0.3841191560873988,0.7017495806387807,-1.25,0.0,0.0009353160858154297,0.00101470947265625,0
1.3500468730926514,0.47790154814720154,0.36013758182525635,-0.9361716508865356,0.013733818390599306,-0.677936220099982,-0.019235892160726385,-0.0997521528992263,-0.017789774114282127,0.3805693028446635,0.7036810397703827,-1.25,0.0,0.0011219978332519531,0.0012314319610595703,0
1.360239028930664,0.4799196720123291,0.364307701587677,-0.9412041306495667,0.013567086096339298,-0.678018283572605,-0.0163538798162995,-0.10428983033293361,-0.017540498991289167,0.37697836327367806,0.7056113049147519,-1.25,0.0,0.0012254714965820312,0.0013344287872314453,0
1.3702878952026367,0.4837185740470886,0.3725859820842743,-0.9510788321495056,0.013243829956931985,-0.678140780340105,-0.01416263620154185,-0.1105163063468237,-0.017244785080653777,0.3734283229830406,0.7074964929906536,-1.25,0.0,0.0013027191162109375,0.0014357566833496094,0
1.3803339004516602,0.4854985475540161,0.3766940236091614,-0.9559204578399658,0.013084561594850963,-0.6782569306242072,-0.01186979609597647,-0.11539275150239219,-0.016978060208197632,0.3698698702936887,0.7093632913034971,-1.25,0.0,0.0014514923095703125,0.0015783309936523438,0
1.3899285793304443,0.4888226389884949,0.3848426342010498,-0.9654119610786438,0.012768260537015652,-0.678428030439407,-0.010137726637287113,-0.1216080524477688,-0.016672739779801816,0.3664625706821426,0.7111295130206844,-1.25,0.0,0.00109100341796875,0.0011873245239257812,0
1.4003357887268066,0.4888226389884949,0.3848426342010498,-0.9654119610786438,0.012768260537015652,-0.6785382471183906,-0.007746716816099751,-0.12400325933388866,-0.016459014898535452,0.36275718907264126,0.7130268029857756,-1.25,0.0,0.0019757747650146484,0.002157926559448242,0
1.410165786743164,0.49183377623558044,0.3929038643836975,-0.974647045135498,0.012526881512590538,-0.6787008371087475,-0.006184369168458924,-0.12803936133205654,-0.016218891524839827,0.3592482955601465,0.7148011346781213,-1.25,0.0,0.0016798973083496094,0.001819610595703125,0
1.4200901985168457,0.4932260513305664,0.39690253138542175,-0.9791713356971741,0.012395884499298649,-0.6788561912163398,-0.004580159451621824,-0.13101624736975045,-0.01600168105626154,0.35569689675441446,0.716574990939036,-1.25,0.0,0.001397848129272461,0.0015180110931396484,0
1.43009352684021,0.49516499042510986,0.4006304442882538,-0.9837573766708374,0.012275692009567043,-0.6790003259566656,-0.0027066292283139367,-0.1326499154195217,-0.015804561507667476,0.35210839508450265,0.7183450968100331,-1.25,0.0,0.0013358592987060547,0.0014483928680419922,0
1.4402203559875488,0.49701744318008423,0.40434131026268005,-0.9882793426513672,0.01216154070534461,-0.6791427632402603,-0.0006899568439024751,-0.13310272752762795,-0.015623771055804455,0.3484666178972659,0.7201187514648129,-1.25,0.0,0.0014476776123046875,0.0015819072723388672,0
1.4501569271087646,0.5004650950431824,0.41171014308929443,-0.997130274772644,0.011922782194657946,-0.6793315331184323,0.0009906259526882893,-0.13412763466777144,-0.015407682946738171,0.3448845762792212,0.721841138370973,-1.25,0.0,0.0014944076538085938,0.001619577407836914,0
1.4604697227478027,0.5020608901977539,0.4153672754764557,-1.0014662742614746,0.011790043132977846,-0.6795174132584607,0.002761621341826468,-0.13420622031193005,-0.015206644128143026,0.34115790774039273,0.7236098962743653,-1.25,0.0,0.0014324188232421875,0.0015513896942138672,0
1.4701309204101562,0.5035722255706787,0.41900634765625,-1.0057380199432373,0.011671903596093958,-0.6797033654997419,0.004462295898584181,-0.13360863013297763,-0.015021614650515894,0.3376584718170568,0.7252494442673982,-1.25,0.0,0.0012445449829101562,0.0013604164123535156,0
1.48030424118042,0.5050010085105896,0.42262810468673706,-1.009946584701538,0.011550313794657785,-0.6798858361166646,0.0061425687662628225,-0.13238784966018155,-0.014846497830801013,0.3339650218107748,0.7269576082598825,-1.25,0.0,0.0014655590057373047,0.0016019344329833984,0
1.4900918006896973,0.5076164603233337,0.42981642484664917,-1.0181831121444702,0.011286698265799333,-0.6800985933514637,0.007249646099379734,-0.13181553340388089,-0.014625060151428178,0.33040346651548597,0.7285832480331607,-1.25,0.0,0.0013000965118408203,0.0014190673828125,0
1.499969720840454,0.5088056325912476,0.4333835244178772,-1.0222121477127075,0.011181389458992075,-0.6803025507669829,0.00843569305990018,-0.13050863276410832,-0.014430563062590038,0.3268010077598642,0.7302062046621743,-1.25,0.0,0.0011670589447021484,0.0012590885162353516,0
1.5100877285003662,0.5099178552627563,0.43693336844444275,-1.026181697845459,0.011075122676264005,-0.6805000926243389,0.009646955376953658,-0.12856464479100813,-0.014254564902788276,0.323102725546268,0.7318501409063013,-1.25,0.0,0.0010251998901367188,0.0011105537414550781,0
1.5201551914215088,0.5109542608261108,0.4404640197753906,-1.0300859212875366,0.010961172290471022,-0.6806963638945382,0.011048307010621207,-0.12614547864124373,-0.014088634783345141,0.31941471057221377,0.7334672744370188,-1.25,0.0,0.0010957717895507812,0.0012028217315673828,0
1.5300676822662354,0.5128016471862793,0.4474668800830841,-1.037718653678894,0.010794372703075508,-0.6809353850506852,0.011800256644497938,-0.1243242298404902,-0.013909933806387694,0.3157755585313988,0.7350413570910028,-1.25,0.0,0.0013959407806396484,0.0015099048614501953,0
1.5402016639709473,0.5136141777038574,0.45093899965286255,-1.0414485931396484,0.010682533675299833,-0.6811647981766165,0.01283219107438657,-0.12202777146130372,-0.013742903475377639,0.31204707297131073,0.7366319462594855,-1.25,0.0,0.0011551380157470703,0.0012514591217041016,0
1.5500156879425049,0.5143536329269409,0.4543910026550293,-1.0451221466064453,0.010575425499333125,-0.6813885370642557,0.01380543153110987,-0.11944438344912874,-0.013585817183335468,0.30842866884120473,0.7381542902651468,-1.25,0.0,0.001104116439819336,0.0011949539184570312,0
1.560317039489746,0.5150210857391357,0.4578249454498291,-1.0487382411956787,0.010494950748682253,-0.6816134809939218,0.014743319089784827,-0.11644546755583182,-0.013445678887329022,0.30462260101781136,0.7397331079174052,-1.25,0.0,0.0012061595916748047,0.001310586929321289,0
1.570793628692627,0.5161464214324951,0.4646354019641876,-1.0557984113693237,0.010274647794902303,-0.6818864285741759,0.015075235481057124,-0.11394257490669142,-0.0132649677820947,0.30074349942183876,0.7413186545309018,-1.25,0.0,0.002058267593383789,0.002196073532104492,0
1.5802907943725586,0.5166059136390686,0.46801263093948364,-1.059242844581604,0.010184824689341699,-0.6821470554112717,0.01537850753738244,-0.11119289365603553,-0.013104786802700387,0.2972199088774666,0.7427383965885098,-1.25,0.0,0.001619100570678711,0.0016937255859375,0
1.5901658535003662,0.5169991254806519,0.4713713824748993,-1.0626325607299805,0.010111184149778542,-0.6824018280435667,0.015755221912845663,-0.10805317013835572,-0.012965044447200355,0.29354900800281664,0.7441968690478094,-1.25,0.0,0.0008544921875,0.0009315013885498047,0
1.6001079082489014,0.5173282027244568,0.47471165657043457,-1.0659675598144531,0.01002775537879177,-0.6826524837846686,0.01614687169245142,-0.10467765881646815,-0.012835939518869239,0.28984597327715245,0.7456469082447941,-1.25,0.0,0.0008022785186767578,0.0008728504180908203,0
1.6103498935699463,0.5177948474884033,0.4813383221626282,-1.0724776983261108,0.009854342212329637,-0.6829449400284978,0.01567417069417718,-0.10195984491226111,-0.012680535706971915,0.2860237370881126,0.7471214237472718,-1.25,0.0,0.0014944076538085938,0.0015959739685058594,0
1.6202130317687988,0.517933189868927,0.4846242368221283,-1.07565438747406,0.009759763941224154,-0.6832211635419605,0.015507016045785627,-0.09905170165009691,-0.01253628665651127,0.2823357930008326,0.7485228787355741,-1.25,0.0,0.0012500286102294922,0.0013692378997802734,0
1.6302216053009033,0.518009603023529,0.48789024353027344,-1.0787798166275024,0.009687605205744876,-0.6834892603536576,0.015492956194742969,-0.09591079281065129,-0.012408252628240465,0.2785864502548732,0.7499263895439267,-1.25,0.0,0.0014405250549316406,0.0015802383422851562,0
1.6403052806854248,0.5180241465568542,0.4911361336708069,-1.0818626880645752,0.009625715163436044,-0.6837534602819976,0.015657676800374807,-0.09269512507088984,-0.012295419963194677,0.27480191829256023,0.7513214396666243,-1.25,0.0,0.0014955997467041016,0.001621246337890625,0
1.6500682830810547,0.517874002456665,0.49757471680641174,-1.0878740549087524,0.009486492297894134,-0.6840656863137815,0.014858918104352699,-0.09024442102103303,-0.012164228726398487,0.27113108222231347,0.7526539286105914,-1.25,0.0,0.0012192726135253906,0.0013265609741210938,0
1.6601924896240234,0.5177128911018372,0.5007672309875488,-1.0908015966415405,0.009387923058117554,-0.6843677511249313,0.014350829767473478,-0.08746082634276406,-0.012035431626318843,0.26731761273523597,0.7540167729709562,-1.25,0.0,0.0012166500091552734,0.0013229846954345703,0
1.6703119277954102,0.5174954533576965,0.5039404034614563,-1.0936808586120605,0.009299814990723543,-0.684648332261036,0.014099890486186996,-0.08440415101086628,-0.011912232827340755,0.26349909419702533,0.755359667547419,-1.25,0.0,0.0012905597686767578,0.0014014244079589844,0
1.6802258491516113,0.5172235369682312,0.507093608379364,-1.0965133905410767,0.009206336080488842,-0.6849159000384082,0.013971028429964684,-0.08106752187090872,-0.011790938772882327,0.2597515840889337,0.7566565367214438,-1.25,0.0,0.0013706684112548828,0.0014979839324951172,0
1.689981460571289,0.5165199637413025,0.5133460164070129,-1.1020371913909912,0.009023606599925205,-0.6852218442268192,0.012913539947295279,-0.07859752369618095,-0.011637509863963249,0.25605768502255816,0.7579145479147953,-1.25,0.0,0.0010991096496582031,0.0011980533599853516,0
1.7001409530639648,0.5160899758338928,0.5164445042610168,-1.104740023612976,0.008944897038725832,-0.6855123957459496,0.012196230405909309,-0.07583713183046065,-0.01150059343531494,0.25220438437388276,0.7592054718602803,-1.25,0.0,0.0014832019805908203,0.0016202926635742188,0
1.7101263999938965,0.5156078934669495,0.5195231437683105,-1.1073957681655884,0.008861852135272377,-0.6857969235323126,0.011692232425417665,-0.07301499958640649,-0.011373609645626472,0.24841075376852048,0.7604551909298506,-1.25,0.0,0.0013556480407714844,0.0014731884002685547,0
1.7202422618865967,0.5150737762451172,0.5225836634635925,-1.1100051403045654,0.00876070770058337,-0.6860686779105805,0.011256139691848422,-0.07009031855518592,-0.01124679211636324,0.24456126282704693,0.7617019027969145,-1.25,0.0,0.0012695789337158203,0.0013763904571533203,0
1.7302935123443604,0.51385498046875,0.5286524891853333,-1.1150894165039062,0.00860521823625351,-0.6863782872143509,0.010122153307927078,-0.06809496176028267,-0.011099711582725295,0.24073016221719756,0.7629213517780727,-1.25,0.0,0.0012764930725097656,0.0014324188232421875,0
1.7400248050689697,0.5131714344024658,0.5316587090492249,-1.1175659894943237,0.008520615377909624,-0.6866683023548923,0.009325718268353244,-0.065934305502881,-0.010965028739108125,0.23701522178498707,0.7640836241159822,-1.25,0.0,0.0011379718780517578,0.0012316703796386719,0
1.750190258026123,0.5124387741088867,0.5346460342407227,-1.119999885559082,0.008438593767360803,-0.6869453041826888,0.008790927373238337,-0.06354720568434215,-0.01083999276040065,0.23312854890662082,0.765278432784234,-1.25,0.0,0.0009469985961914062,0.0010323524475097656,0
1.760270357131958,0.5116578936576843,0.5376144647598267,-1.1223846673965454,0.008370744314573988,-0.6872116490973793,0.00845417555652561,-0.06104387753050165,-0.010727023734631226,0.2292685630420499,0.7664436874295681,-1.25,0.0,0.0014989376068115234,0.0016427040100097656,0
1.7701663970947266,0.5099543929100037,0.5434975624084473,-1.1270291805267334,0.008188929556864255,-0.6875201643366654,0.007339524597656867,-0.05975331532930831,-0.010579764926074852,0.2254733932626387,0.7675687258680043,-1.25,0.0,0.0013878345489501953,0.0015184879302978516,0
1.7802536487579346,0.5090348124504089,0.5464137196540833,-1.129287838935852,0.00808659244329515,-0.6878140601101195,0.006497562297029341,-0.05804610279540665,-0.010438307953692856,0.22159921241432945,0.768696161729294,-1.25,0.0,0.0013995170593261719,0.0015251636505126953,0
1.7901196479797363,0.5080705881118774,0.5493118166923523,-1.1315058469772339,0.008024909156844973,-0.6880911468467921,0.00585494410404941,-0.05612101282468488,-0.010316156337943586,0.2178045536809985,0.7697799532306756,-1.25,0.0,0.0013484954833984375,0.0014607906341552734,0
1.800318956375122,0.5070632696151733,0.552191972732544,-1.1336852312088013,0.007953007842775217,-0.6883537522084091,0.0053187689891680875,-0.053900730950090465,-0.010203687034714443,0.2138761269684248,0.770880666713718,-1.25,0.0,0.0014197826385498047,0.0015521049499511719,0
1.8102304935455322,0.5049211978912354,0.5579014420509338,-1.137924075126648,0.007813360965304628,-0.6886608715937761,0.003960294366340604,-0.05297563711244087,-0.01007259110583539,0.21005321005971367,0.7719311167090039,-1.25,0.0,0.002283811569213867,0.0024843215942382812,0
1.820089340209961,0.5037864446640015,0.5607311129570007,-1.1399919986724854,0.007730488262146085,-0.6889531152645494,0.002893871369863478,-0.05173414368749563,-0.009949746956759162,0.20624549815376458,0.772957175069425,-1.25,0.0,0.0015027523040771484,0.0016338825225830078,0
1.8302607536315918,0.502998948097229,0.5632712841033936,-1.1420632600784302,0.007658591232459844,-0.6892266916823212,0.002186588719611567,-0.04991225346863551,-0.009836794459077957,0.2023118144033675,0.7739960786417573,-1.25,0.0,0.0014181137084960938,0.0015530586242675781,0
1.8401801586151123,0.5021619200706482,0.565801739692688,-1.1440964937210083,0.007572300500650076,-0.6894860198599713,0.0017361299068966822,-0.04771912735086098,-0.009725368748680383,0.19847055156813637,0.774989961328687,-1.25,0.0,0.0012054443359375,0.0013132095336914062,0
1.850102424621582,0.5003460049629211,0.5708289742469788,-1.1480505466461182,0.0073646194193018,-0.6897778723925256,0.0011132744588515527,-0.046372591288978506,-0.009569490478201407,0.19462329660879518,0.7759650587604606,-1.25,0.0,0.001031637191772461,0.0011174678802490234,0
1.8603439331054688,0.4993705153465271,0.5733242034912109,-1.1499717235565186,0.007270088442859613,-0.6900533989682744,0.0008433610381849876,-0.044418975587299334,-0.009424926682120263,0.19064723589570864,0.7769514987728167,-1.25,0.0,0.0011670589447021484,0.0012688636779785156,0
1.8700332641601562,0.4983505308628082,0.5758067965507507,-1.1518563032150269,0.0071977904808984364,-0.6903133327949821,0.0008117261127348084,-0.04228403646597372,-0.00929661980584721,0.1868809431617704,0.7778659994388283,-1.25,0.0,0.0011200904846191406,0.001224517822265625,0
1.880122184753418,0.4972861707210541,0.5782768130302429,-1.1537269353866577,0.0071109765322996624,-0.6905595521879356,0.0009801757298535066,-0.03989034270005093,-0.00917425002721164,0.18295466791781628,0.7787988119450887,-1.25,0.0,0.0011408329010009766,0.001237630844116211,0
1.8901240825653076,0.4950316846370697,0.5831804275512695,-1.1573630571365356,0.006911706995107704,-0.6908379591943482,0.0007511988098032495,-0.038529551618280575,-0.009013865371901974,0.1790576632887655,0.7797040164174911,-1.25,0.0,0.0011184215545654297,0.0012297630310058594,0
1.9000294208526611,0.49384188652038574,0.5856137275695801,-1.1591278314590454,0.006815402161338714,-0.6911000098795267,0.0007502495620740949,-0.036794173328852695,-0.008865481449967497,0.17519386701021739,0.780581263522259,-1.25,0.0,0.0011920928955078125,0.0012936592102050781,0
1.9101598262786865,0.4926106333732605,0.5880342125892639,-1.160858154296875,0.006711474310156862,-0.6913494439235727,0.0008353403369009924,-0.034761019178291705,-0.008722639673660276,0.17123783417659935,0.781458638794471,-1.25,0.0,0.0011260509490966797,0.0012216567993164062,0
1.9201147556304932,0.4913381040096283,0.5904419422149658,-1.1625556945800781,0.006645414956487873,-0.6915808450582185,0.0009789668658162717,-0.03259603289314032,-0.008597878239123648,0.16734604625002106,0.7823012851865232,-1.25,0.0,0.001125335693359375,0.001220703125,0
1.9300854206085205,0.48867517709732056,0.5952189564704895,-1.1658517122268677,0.006490109668910971,-0.6918431927687753,0.0008440996393152394,-0.031513847035817756,-0.008452306123826336,0.16344395082517482,0.7831258359540042,-1.25,0.0,0.0009927749633789062,0.0010771751403808594,0
1.9401063919067383,0.4872886836528778,0.5975865125656128,-1.167452335357666,0.00642663518317146,-0.6920848136322838,0.0008799932006267686,-0.029871500504020997,-0.008326602404838292,0.15951807485748407,0.7839349359441523,-1.25,0.0,0.0010738372802734375,0.0011606216430664062,0
1.9501953125,0.48586559295654297,0.599941074848175,-1.1690233945846558,0.006336859853471456,-0.692306557835806,0.0010048838913982608,-0.02804455567673841,-0.008204944400475202,0.1555615333790911,0.784729640916377,-1.25,0.0,0.0011484622955322266,0.001249551773071289,0
1.9603705406188965,0.4844043254852295,0.6022840142250061,-1.1705663204193115,0.006256689915405534,-0.6925156714077847,0.001046817378775446,-0.02607473786447477,-0.008089719849945737,0.15156713578940093,0.7855109186692425,-1.25,0.0,0.0012269020080566406,0.0013279914855957031,0
1.970238447189331,0.481372594833374,0.6069323420524597,-1.1735620498657227,0.0061320217517446774,-0.6927552505401366,0.0007076402030266565,-0.025447927740952926,-0.007962311946351538,0.1476896324729953,0.786249179624368,-1.25,0.0,0.001997709274291992,0.0021295547485351562,0
1.980236291885376,0.4798043370246887,0.6092380285263062,-1.1750175952911377,0.006042609868144556,-0.6929755901283855,0.0005275808222178721,-0.024366171564298513,-0.007839597239528956,0.1437574049265797,0.7869776416956046,-1.25,0.0,0.0016436576843261719,0.0017900466918945312,0
1.9903674125671387,0.4782026410102844,0.6115309000015259,-1.176438808441162,0.005982889065515163,-0.6931836077404491,0.0004618109500871586,-0.02289681815793059,-0.0077313013313645455,0.13976909484793062,0.7876957535275851,-1.25,0.0,0.0017304420471191406,0.0018439292907714844,0
2.000476598739624,0.4765678346157074,0.6138121485710144,-1.1778311729431152,0.00590417767962872,-0.6933884351312029,0.00039432537894224635,-0.02116414785698863,-0.007625977510818627,0.13578584482151898,0.7883921640567633,-1.25,0.0,0.0019073486328125,0.0020682811737060547,0
2.010119915008545,0.4732031524181366,0.6183368563652039,-1.1805344820022583,0.0057756159613131745,-0.6936131811935079,5.744266425698817e-05,-0.020864823310175595,-0.007504040463522161,0.13198292366188308,0.7890377100377787,-1.25,0.0,0.0015594959259033203,0.0016889572143554688,0
2.0202221870422363,0.471472829580307,0.6205805540084839,-1.1818479299545288,0.005729109488054963,-0.6938266390100796,-0.00018439024272715734,-0.020145987464853753,-0.007401244407603973,0.12799572011292304,0.7896943051793994,-1.25,0.0,0.0014045238494873047,0.0015332698822021484,0
2.030165433883667,0.46970945596694946,0.6228119134902954,-1.1831343173980713,0.005655459735914438,-0.6940336506271024,-0.0003931470077527981,-0.019224920752398733,-0.007301668573231335,0.12406809174913601,0.7903208896452933,-1.25,0.0,0.001373291015625,0.0014939308166503906,0
2.0402252674102783,0.4679148495197296,0.6250314712524414,-1.184393048286438,0.005574738316086925,-0.6942362986994669,-0.0005880531423416498,-0.01801966796407606,-0.007201694928674152,0.12009129075829793,0.7909349416254197,-1.25,0.0,0.0013027191162109375,0.001416921615600586,0
2.050210475921631,0.4642333984375,0.629431962966919,-1.186808705329895,0.005429267573607423,-0.6944743816429281,-0.001012666364416544,-0.018389667962808602,-0.007077161887675508,0.11614098530706785,0.7915246499837535,-1.25,0.0,0.001561880111694336,0.0017292499542236328,0
2.060387372970581,0.46234816312789917,0.6316121816635132,-1.187977910041809,0.005383165472070207,-0.6946971673046421,-0.001241289440561841,-0.01819560157637631,-0.006972700381569073,0.11211186667467371,0.7921053776807226,-1.25,0.0,0.0014495849609375,0.0015785694122314453,0
2.07035756111145,0.460433691740036,0.633777916431427,-1.1891225576400757,0.005330661162070949,-0.6949090202776032,-0.0013361250827974775,-0.01758421768829261,-0.006879888290859996,0.10816177015601901,0.7926544212181729,-1.25,0.0,0.00153350830078125,0.0016641616821289062,0
2.080235242843628,0.45849183201789856,0.6359290480613708,-1.1902425289154053,0.005254974111756705,-0.6951113397303988,-0.0013532985074773901,-0.016656264530387804,-0.0067865369235912045,0.10424567287651038,0.7931789455643181,-1.25,0.0,0.0015087127685546875,0.001645803451538086,0
2.0899858474731445,0.45452404022216797,0.6401905417442322,-1.1924132108688354,0.005120633666745778,-0.6953412465828153,-0.0018406953748879486,-0.017354821308807958,-0.006670813435468504,0.1003774621629878,0.7936777463742561,-1.25,0.0,0.0010747909545898438,0.001161813735961914,0
2.1001975536346436,0.4524989724159241,0.6423028707504272,-1.1934632062911987,0.005052937421085058,-0.6955558822112871,-0.002244335227443639,-0.01741229341340817,-0.006564420815607334,0.09632376939991451,0.79417991125978,-1.25,0.0,0.001241445541381836,0.0013477802276611328,0
2.1103131771087646,0.4504472315311432,0.6444024443626404,-1.1944639682769775,0.004975576685711826,-0.6957641893078645,-0.0026203390802279876,-0.016973385444598203,-0.00646093594303841,0.09230574200069318,0.7946569385550607,-1.25,0.0,0.0018417835235595703,0.0020062923431396484,0
2.120266914367676,0.44626379013061523,0.6485624313354492,-1.196397066116333,0.004860970764485795,-0.6960008426031096,-0.0031463652631232926,-0.018167094796535683,-0.006345519199447996,0.08834971197032614,0.7951064887137825,-1.25,0.0,0.0014889240264892578,0.001615762710571289,0
2.130251884460449,0.4441312551498413,0.6506215333938599,-1.1973323822021484,0.004798151670837992,-0.6962216392351503,-0.0035320091580739164,-0.018819911927305685,-0.006241170068895765,0.08437907015337037,0.7955376625402801,-1.25,0.0,0.0014574527740478516,0.0015845298767089844,0
2.140272617340088,0.44197195768356323,0.6526684165000916,-1.1982462406158447,0.004748492652320269,-0.696430163298188,-0.003872910254528316,-0.018932960322519395,-0.006149503755825705,0.08039209251009878,0.7959504453556439,-1.25,0.0,0.0025186538696289062,0.002764463424682617,0
2.1504857540130615,0.4397869408130646,0.6547024250030518,-1.1991392374038696,0.004695700501766953,-0.6966282433073828,-0.004210056383779493,-0.018722883052373202,-0.006065540222976637,0.07632648664212387,0.7963505932922194,-1.25,0.0,0.0018610954284667969,0.0019791126251220703,0
2.1605334281921387,0.43757694959640503,0.6567241549491882,-1.2000128030776978,0.004632574180510463,-0.6968137208982064,-0.004536637966712021,-0.01822243204200239,-0.005983093312737099,0.07232480462655073,0.7967239940128146,-1.25,0.0,0.0018091201782226562,0.0019865036010742188,0
2.170156955718994,0.43308350443840027,0.6607279181480408,-1.2016839981079102,0.004494972409413012,-0.6970264647370416,-0.00493917346201812,-0.01953384232718126,-0.0058737800573517955,0.0684903345071064,0.7970627792583874,-1.25,0.0,0.0013017654418945312,0.0014188289642333984,0
2.1802139282226562,0.4307999610900879,0.6627082824707031,-1.202491044998169,0.004413684989652356,-0.6972261447099583,-0.00521596299379033,-0.02012862997624363,-0.005766777958935801,0.06448146626033911,0.7973971033988754,-1.25,0.0,0.0012850761413574219,0.0013914108276367188,0
2.190113067626953,0.42849427461624146,0.6646753549575806,-1.2032784223556519,0.004356317715267256,-0.6974189063347666,-0.00544802452574922,-0.020166556595791484,-0.005670363842725247,0.060533919991972544,0.7977064902145434,-1.25,0.0,0.0011601448059082031,0.0012602806091308594,0
2.200178384780884,0.4261665940284729,0.6666296720504761,-1.2040475606918335,0.004292454558104697,-0.6975978783477729,-0.005682434211456012,-0.019794094129900363,-0.005578925082222893,0.05651858593931578,0.798001033485183,-1.25,0.0,0.0012044906616210938,0.0013179779052734375,0
2.2101001739501953,0.42144662141799927,0.6704968214035034,-1.2055318355560303,0.004192982341220809,-0.6978004120713931,-0.006109047626080903,-0.02099885481840365,-0.005477615999041989,0.05255910769851775,0.798271595509909,-1.25,0.0,0.0014863014221191406,0.0016186237335205078,0
2.220336437225342,0.4190519154071808,0.672410786151886,-1.2062487602233887,0.00411371731356105,-0.6979837765855534,-0.006478572460628962,-0.021559945518552868,-0.005376975348296005,0.04847277802908645,0.7985301433196764,-1.25,0.0,0.0016789436340332031,0.001817941665649414,0
2.230379343032837,0.416945219039917,0.6739075183868408,-1.207016110420227,0.004063947868211204,-0.6981569775256043,-0.006534384504678181,-0.021409324295217247,-0.005287863283137879,0.04446240225425757,0.7987634786254193,-1.25,0.0,0.0014429092407226562,0.001569986343383789,0
2.240478038787842,0.4148097336292267,0.6754003167152405,-1.207763671875,0.004027110585978622,-0.6983241027126792,-0.006377256116650045,-0.020790010226727103,-0.005211670748290516,0.04042861791372521,0.7989778012270342,-1.25,0.0,0.0026276111602783203,0.0028619766235351562,0
2.2500596046447754,0.41045844554901123,0.6783729791641235,-1.2092057466506958,0.0038982581004207936,-0.6985062174589511,-0.006066484282657189,-0.02140881727829938,-0.0051100161999946304,0.03660043939558395,0.7991623163263206,-1.25,0.0,0.001840353012084961,0.0020074844360351562,0
2.260939359664917,0.40824368596076965,0.6798527836799622,-1.2099018096923828,0.0038476475777236233,-0.6986705657217065,-0.0056261800801660645,-0.02110686122601576,-0.0050198793757136985,0.03225257418171444,0.7993495927681786,-1.25,0.0,0.001829385757446289,0.0019807815551757812,0
2.270395040512085,0.40373727679252625,0.6827957630157471,-1.2112699747085571,0.003763857539828908,-0.6988472512320819,-0.005032717580871241,-0.02203212864318504,-0.00492536189295027,0.028473030481744134,0.7994931435198089,-1.25,0.0,0.001486063003540039,0.0015594959259033203,0
2.280395984649658,0.40373727679252625,0.6827957630157471,-1.2112699747085571,0.003763857539828908,-0.6989828584359187,-0.004504331234667619,-0.02053085039510991,-0.004859199912869229,0.02447484802984281,0.7996255259894572,-1.25,0.0,0.0016896724700927734,0.0018317699432373047,0
2.2901015281677246,0.39913076162338257,0.6857172846794128,-1.2125968933105469,0.0036514744021023623,-0.6991423205182882,-0.0039732828958475765,-0.020639486746753786,-0.004770743013670695,0.02059417490632874,0.799734881044917,-1.25,0.0,0.001341104507446289,0.0014567375183105469,0
2.300145149230957,0.3967897295951843,0.6871703267097473,-1.2132349014282227,0.003613348693951824,-0.6992898213372926,-0.0034686540977830914,-0.020293502297780545,-0.004694525672860139,0.016577815060915678,0.7998282165864157,-1.25,0.0,0.0012753009796142578,0.0013849735260009766,0
2.3102617263793945,0.3944242596626282,0.6886173486709595,-1.2138570547103882,0.003579695484474033,-0.6994277456122434,-0.0030041845494681823,-0.019547415223048478,-0.004628553888597866,0.012531858302381139,0.7999018393074797,-1.25,0.0,0.0013380050659179688,0.0014481544494628906,0
2.3201520442962646,0.3896213471889496,0.6914902329444885,-1.2150588035583496,0.003487083847389517,-0.6995725268515788,-0.00238934007554781,-0.02024412928807959,-0.004547644049247508,0.008576079447651505,0.7999540304675685,-1.25,0.0,0.001279592514038086,0.0013973712921142578,0
