time,x,y,z,yaw,throttle,roll_rate,pitch_rate,yaw_rate,x_ref,y_ref,z_ref,yaw_ref,pred_time,nr_time,metadata
3.337860107421875e-06,-0.0463547520339489,-0.0015498306602239609,-0.04008209705352783,0.03963266846050597,-0.7371594814495984,0.1429856106540263,-0.4447202188632699,-0.014862223957019853,0.736848275271702,0.3115359035955859,-1.25,0.0,0.1876661777496338,0.18772244453430176,Sim
0.18891620635986328,-0.0463547520339489,-0.0015498306602239609,-0.04008209705352783,0.03963266846050597,-0.7615315222060309,0.2800693212456503,-0.5513041532042889,-0.025265804716675413,0.7041807990100053,0.3796437834413078,-1.25,0.0,0.0008099079132080078,0.0008502006530761719,Jax
0.1907501220703125,-0.04564427584409714,-0.0013484451919794083,-0.04507151618599892,0.03952084827038529,-0.7806459779711874,0.37295050467778124,-0.6259129072430023,-0.032506379374988,0.7038323856676656,0.38028932786151454,-1.25,0.0,0.0007519721984863281,0.000789642333984375,1stOrderHold
0.19922947883605957,-0.04565069079399109,-0.0013242720160633326,-0.045243117958307266,0.03950286173799913,-0.7962475298936699,0.4333309924187291,-0.6781390350701016,-0.03756802382602922,0.7022137604159266,0.3832699240516056,-1.25,0.0,0.0007071495056152344,0.0007419586181640625,EulerYawError
0.209458589553833,-0.04567426070570946,-0.0012699401704594493,-0.045488663017749786,0.03947048934207078,-0.8091942256885319,0.4703138125786556,-0.7146973245490712,-0.041099055230325546,0.700244329246956,0.38685640663879517,-1.25,0.0,0.0008127689361572266,0.0008528232574462891,0
0.21909856796264648,-0.04569108039140701,-0.0012406113091856241,-0.045607179403305054,0.03947499297745185,-0.8200058110239201,0.49080068194055676,-0.7402881271843499,-0.04357245910779046,0.6983715586372928,0.3902270699048418,-1.25,0.0,0.0007565021514892578,0.0007953643798828125,0
0.22940468788146973,-0.04571064934134483,-0.001209973357617855,-0.04572343826293945,0.0394729812724777,-0.8290282932014731,0.5003716261159056,-0.758201689029045,-0.04530303912659091,0.6963514317796216,0.3938206234549826,-1.25,0.0,0.0008113384246826172,0.0008499622344970703,0
0.23938202857971191,-0.04573129117488861,-0.001178372884169221,-0.045840516686439514,0.03945951037068632,-0.8365330215811145,0.502850337970654,-0.7707411823203315,-0.04650944147656241,0.6943781336889325,0.3972895763227057,-1.25,0.0,0.0008599758148193359,0.0009019374847412109,0
0.24938225746154785,-0.045752979815006256,-0.001144452951848507,-0.04595840722322464,0.03944495055020016,-0.8427515034374486,0.5011295109456305,-0.7795188276242321,-0.04734846518762217,0.6923829685126418,0.40075656565254447,-1.25,0.0,0.0008661746978759766,0.0009098052978515625,0
0.25922417640686035,-0.045802030712366104,-0.001075404928997159,-0.046189989894628525,0.039437526326948,-0.8478833429926661,0.4972740554825903,-0.7856631793369625,-0.04793300370718822,0.6904024863526137,0.4041588881097744,-1.25,0.0,0.0009362697601318359,0.0009768009185791016,0
0.26946115493774414,-0.04569233953952789,-0.0010884435614570975,-0.04647041857242584,0.03944152716725948,-0.8520996705702232,0.49258335006918724,-0.7899642255358738,-0.048343675594273,0.688324768570884,0.4076873961405221,-1.25,0.0,0.0011286735534667969,0.0011827945709228516,0
0.2793424129486084,-0.045587148517370224,-0.0011001330567523837,-0.04674573615193367,0.03942928256705194,-0.8555485017475059,0.48795523495057463,-0.7929749578751116,-0.04862655219298553,0.6863021436678278,0.4110831638451571,-1.25,0.0,0.0009734630584716797,0.0010213851928710938,0
0.289898157119751,-0.045486822724342346,-0.0011103664292022586,-0.04701745882630348,0.03941484058363833,-0.8583614390958652,0.48392568970889804,-0.7950824705125782,-0.04881914688055775,0.6841229506140839,0.4146996364154178,-1.25,0.0,0.0012023448944091797,0.001256704330444336,0
0.29926228523254395,-0.0453002005815506,-0.001128387521021068,-0.047545384615659714,0.0394170820991351,-0.8606534653817692,0.48064100426755857,-0.7965577293588048,-0.04895480164151425,0.6821738088827729,0.41789818673257034,-1.25,0.0,0.0011386871337890625,0.0011985301971435547,0
0.3095877170562744,-0.04521191120147705,-0.001136258477345109,-0.047801095992326736,0.03941322252280013,-0.8625209318162829,0.47826810694746,-0.7975904105511633,-0.049048324518462146,0.6800072376628716,0.4214144714246426,-1.25,0.0,0.0014412403106689453,0.0015103816986083984,0
0.3197202682495117,-0.04512668773531914,-0.0011424625990912318,-0.04805251583456993,0.03940655596300704,-0.8640424717990182,0.4767998792493232,-0.7983132873858143,-0.04911128784285211,0.6778635180387722,0.42485415251836617,-1.25,0.0,0.0015566349029541016,0.0016398429870605469,0
0.3295631408691406,-0.04504518210887909,-0.0011476685758680105,-0.04828329011797905,0.039382056755846294,-0.8652859199194047,0.47614007495897653,-0.79881930117007,-0.04914617366311941,0.675764424734524,0.42818505609516316,-1.25,0.0,0.0013780593872070312,0.0014543533325195312,0
0.33942294120788574,-0.04489309340715408,-0.0011548016918823123,-0.04873129725456238,0.0393721728094081,-0.8662994472738325,0.47618664731261745,-0.7991735108190491,-0.04916687991616907,0.6736453118603412,0.4315112904763718,-1.25,0.0,0.0013685226440429688,0.001428365707397461,0
0.3495521545410156,-0.04482414945960045,-0.00115576374810189,-0.04894862696528435,0.03936998584799347,-0.8671302556716242,0.4768625598182481,-0.7994214575733344,-0.049180561715242314,0.6714512466809804,0.43491749025597626,-1.25,0.0,0.0013537406921386719,0.0014214515686035156,0
0.35935139656066895,-0.0447586327791214,-0.0011548228794708848,-0.049162279814481735,0.03939468639304013,-0.8678164827982812,0.4780772690005649,-0.7995950203013341,-0.049199394911466035,0.6693122648249054,0.43820211336203735,-1.25,0.0,0.0010976791381835938,0.0011456012725830078,0
0.3696565628051758,-0.044695690274238586,-0.001153106801211834,-0.049372799694538116,0.03940667897502006,-0.8683820513672517,0.4798202181917882,-0.7997165142109339,-0.049217088152455526,0.6670455171984382,0.44164496825557537,-1.25,0.0,0.0012359619140625,0.001294851303100586,0
0.37927913665771484,-0.044582873582839966,-0.0011423606192693114,-0.04978659376502037,0.039385175252391734,-0.8688492828415011,0.48186875723940714,-0.7998015599476538,-0.049221404834259914,0.6649129242039251,0.44484919155437996,-1.25,0.0,0.0011622905731201172,0.0012159347534179688,0
0.38948702812194824,-0.04453074932098389,-0.0011343981605023146,-0.04998893290758133,0.03938043935060012,-0.8692442669306129,0.48439170633928036,-0.7998610919633576,-0.04922265313158787,0.6626337873698832,0.44823706209532077,-1.25,0.0,0.0010368824005126953,0.0010890960693359375,0
0.3996622562408447,-0.04447980970144272,-0.0011261189356446266,-0.050188515335321426,0.039387662256022325,-0.8695785967656952,0.4872440795609874,-0.7999027643743504,-0.04922623635264343,0.6603447643013242,0.45160247149437605,-1.25,0.0,0.0018477439880371094,0.0019383430480957031,0
0.40967559814453125,-0.044431354850530624,-0.001116355648264289,-0.050386834889650345,0.03938450078622704,-0.8698640005184057,0.49026293200470067,-0.7999319350620453,-0.049227549885135405,0.6580754724389944,0.4549029265394919,-1.25,0.0,0.0015716552734375,0.0016438961029052734,0
0.4197831153869629,-0.04433821886777878,-0.0010910991113632917,-0.05077763646841049,0.039394451903598936,-0.8701114557281885,0.49340817674019133,-0.7999523545434317,-0.04923220418073413,0.6557681088757114,0.45822285776854604,-1.25,0.0,0.001361846923828125,0.001420736312866211,0
0.4295845031738281,-0.04429290071129799,-0.001075970591045916,-0.05096768960356712,0.039383962088504164,-0.8703363292309506,0.4966824915437913,-0.7999666481804022,-0.04923152668993619,0.6535146331933238,0.4614310611588643,-1.25,0.0,0.0013637542724609375,0.0014214515686035156,0
0.4395325183868408,-0.04424994811415672,-0.0010596825741231441,-0.05115387961268425,0.03937190805638504,-0.8705386709388183,0.5001242408658411,-0.7999766537262816,-0.04922653835757232,0.6512113968442748,0.4646759264478078,-1.25,0.0,0.0013124942779541016,0.0013785362243652344,0
0.44983410835266113,-0.04421136528253555,-0.0010417480953037739,-0.05134115368127823,0.03937527454433034,-0.8707206146356519,0.5036731633911128,-0.7999836576083971,-0.04922430423952096,0.6488093184725408,0.46802400393911125,-1.25,0.0,0.0020186901092529297,0.0021131038665771484,0
0.4596867561340332,-0.04414799064397812,-0.0010054137092083693,-0.051707565784454346,0.03941952587821287,-0.8708877168288095,0.5072926701190349,-0.799988560325878,-0.04923933697250044,0.6464958171135516,0.4712145567092354,-1.25,0.0,0.0012650489807128906,0.0013270378112792969,0
0.46958470344543457,-0.04412168636918068,-0.0009855570970103145,-0.05188465490937233,0.03942118332467117,-0.8710465435061928,0.5109864636251388,-0.7999919922281146,-0.049250478424428284,0.6441558811240748,0.47440826385431656,-1.25,0.0,0.0018291473388671875,0.001920461654663086,0
0.47943997383117676,-0.04409897327423096,-0.0009652245789766312,-0.05205892398953438,0.03940801929610973,-0.8711973956649945,0.5147230253389116,-0.7999943945596802,-0.049253346093473684,0.6418103591796381,0.4775766565167355,-1.25,0.0,0.0009675025939941406,0.0010142326354980469,0
0.4895176887512207,-0.0440797321498394,-0.0009431589278392494,-0.05223070830106735,0.03938670502205024,-0.8713444549555968,0.5184661364945683,-0.7999960761917762,-0.04924735686102831,0.6393957808721047,0.48080457090480283,-1.25,0.0,0.0012044906616210938,0.0012612342834472656,0
0.49951744079589844,-0.044047605246305466,-0.0008930885815061629,-0.052566301077604294,0.039370341755472965,-0.8714851743179554,0.5221734489222393,-0.7999972533342433,-0.04923702725621067,0.6369838356083486,0.48399544747205675,-1.25,0.0,0.0011093616485595703,0.0011606216430664062,0
0.5094690322875977,-0.04403403773903847,-0.0008659624145366251,-0.05272065848112106,0.0393729607661524,-0.8716294364470619,0.5259577683891405,-0.7999980773339703,-0.049230776993390304,0.6345676976776362,0.48715894435400053,-1.25,0.0,0.0010035037994384766,0.0010547637939453125,0
0.5193569660186768,-0.044022440910339355,-0.0008375397883355618,-0.05287083983421326,0.039387811670984506,-0.8717715010621634,0.5297392756513437,-0.7999986541337792,-0.04923197051433035,0.6321514545177096,0.49029025949038013,-1.25,0.0,0.0011382102966308594,0.0011916160583496094,0
0.5293998718261719,-0.04401344433426857,-0.0008080966654233634,-0.053019825369119644,0.03938363568363659,-0.8719092070718834,0.5335647150196735,-0.7999990578936454,-0.04923124184278296,0.6296815255875985,0.493458383588398,-1.25,0.0,0.001004934310913086,0.0010526180267333984,0
0.5396208763122559,-0.044006917625665665,-0.0007770148804411292,-0.053166866302490234,0.03937967310760218,-0.8720469124884757,0.5373669033169551,-0.7999993405255519,-0.0492292463493209,0.6271514936368499,0.49666991456003085,-1.25,0.0,0.002187967300415039,0.002287626266479492,0
0.5494441986083984,-0.04400024190545082,-0.0007104883552528918,-0.053457919508218765,0.03939979148737851,-0.8721775472978571,0.5411376885625943,-0.7999995383678863,-0.04923538383411651,0.6247044643062443,0.499744266876418,-1.25,0.0,0.0011663436889648438,0.0012238025665283203,0
0.5595552921295166,-0.04399899020791054,-0.0006766868755221367,-0.05360069125890732,0.039372555820051745,-0.8723104243321101,0.5449766788201655,-0.7999996768575204,-0.04922946042989124,0.6221700113048213,0.502896089697423,-1.25,0.0,0.0013408660888671875,0.0013971328735351562,0
0.5694985389709473,-0.04399903118610382,-0.0006418931880034506,-0.05373523011803627,0.03937017507199527,-0.8724497724002984,0.5487697897644233,-0.7999997738002643,-0.049224437180900894,0.6196621225421987,0.505983056916432,-1.25,0.0,0.0011909008026123047,0.0012476444244384766,0
0.5795297622680664,-0.043999116867780685,-0.0006073015974834561,-0.053867220878601074,0.039355064010784944,-0.8725901214898242,0.5525557965295066,-0.799999841660185,-0.0492152567026065,0.6171165244628624,0.5090846641128345,-1.25,0.0,0.001336812973022461,0.0013976097106933594,0
0.5895600318908691,-0.04400750994682312,-0.0005343144293874502,-0.05412430688738823,0.03935356485344623,-0.87273526723482,0.556264050154878,-0.7999998891621295,-0.049208270134960125,0.6145556462337598,0.5121731715759874,-1.25,0.0,0.0013759136199951172,0.001436471939086914,0
0.5993738174438477,-0.04401532560586929,-0.0004955675103701651,-0.054248251020908356,0.0393503363951411,-0.8728799216865369,0.5600163657123175,-0.7999999224134906,-0.049202162621118185,0.6120350789863864,0.5151825521988567,-1.25,0.0,0.001138448715209961,0.0011873245239257812,0
0.6094355583190918,-0.044024791568517685,-0.0004562177637126297,-0.05437031015753746,0.039342252129124476,-0.8730234629745458,0.5637691954242727,-0.7999999456894434,-0.04919485775857043,0.6094355280648003,0.5182550888629827,-1.25,0.0,0.000812530517578125,0.0008511543273925781,0
0.6191821098327637,-0.044047340750694275,-0.0003737394872587174,-0.05466029420495033,0.03933995093947853,-0.8731707439754733,0.5674397903802338,-0.7999999619826104,-0.0491888845084542,0.6069027014290724,0.5212188705314632,-1.25,0.0,0.0008270740509033203,0.0008654594421386719,0
0.6292266845703125,-0.044058673083782196,-0.0003331936022732407,-0.054799482226371765,0.03932683810387185,-0.8733211962322085,0.571167626633826,-0.7999999733878272,-0.04917978211642279,0.6042773474340702,0.5242603240548002,-1.25,0.0,0.0008676052093505859,0.0009098052978515625,0
0.6394047737121582,-0.04407164826989174,-0.0002928930625785142,-0.05493580177426338,0.0393233611292321,-0.8734702257179667,0.5749174914691956,-0.7999999813714791,-0.04917211046793009,0.6016015499105706,0.5273287164048619,-1.25,0.0,0.0010638236999511719,0.0011141300201416016,0
0.6493713855743408,-0.0441012904047966,-0.0002131870569428429,-0.05520370230078697,0.039342556238551894,-0.8736133972513699,0.5786724063398793,-0.7999999869600354,-0.04917393671510708,0.5989662505949456,0.5303201209158793,-1.25,0.0,0.0010747909545898438,0.0011250972747802734,0
0.6593911647796631,-0.04411740228533745,-0.00017286733782384545,-0.055337321013212204,0.03935777206159788,-0.873751943402511,0.5823985211549572,-0.7999999908720248,-0.04918091954077514,0.5963018997397046,0.5333142079176397,-1.25,0.0,0.0011184215545654297,0.0011827945709228516,0
0.669525146484375,-0.044017478823661804,-0.0002893777855206281,-0.05552626773715019,0.039357490210461664,-0.8738931703951288,0.5861785905219845,-0.7999999936104174,-0.049185697802529106,0.5935919582607864,0.536328805014354,-1.25,0.0,0.0013184547424316406,0.001384735107421875,0
0.679356575012207,-0.04392187297344208,-0.0004016003222204745,-0.05571155250072479,0.039367907072656715,-0.8740372442953694,0.589956811727198,-0.7999999955272922,-0.04919295313101947,0.5909483578849185,0.5392402417412098,-1.25,0.0,0.0014548301696777344,0.0015263557434082031,0
0.6899504661560059,-0.043830547481775284,-0.0005103506264276803,-0.05589333921670914,0.03936552602948697,-0.8741808294920673,0.5938553309301181,-0.7999999968691045,-0.04919714073258041,0.588083754744667,0.5423628835064347,-1.25,0.0,0.0016467571258544922,0.0017154216766357422,0
0.6994593143463135,-0.0437428280711174,-0.0006158668547868729,-0.056072454899549484,0.03935803208022228,-0.8743273553844002,0.5976424806391675,-0.7999999978083732,-0.049197262530604614,0.5854984946264138,0.5451527426237561,-1.25,0.0,0.0015425682067871094,0.0016298294067382812,0
0.7094502449035645,-0.04357615485787392,-0.0008160731522366405,-0.05642356723546982,0.03937423986938728,-0.8744673711774307,0.6015416957022073,-0.7999999984658612,-0.049203425820415855,0.5827679089089026,0.5480707658194743,-1.25,0.0,0.001682281494140625,0.0017566680908203125,0
0.71956467628479,-0.04349935054779053,-0.0009117574663832784,-0.05659494921565056,0.039415031386708564,-0.8746120199312445,0.6053695434913704,-0.7999999989261029,-0.049223032906466783,0.5799887563928355,0.5510109277118668,-1.25,0.0,0.0014109611511230469,0.0014777183532714844,0
0.7297625541687012,-0.04342660680413246,-0.001003430807031691,-0.05676340311765671,0.03943133819558778,-0.8747588545095347,0.6091666856341236,-0.799999999248272,-0.049242875841985646,0.5771716578912707,0.5539610792529038,-1.25,0.0,0.002958059310913086,0.0030732154846191406,0
0.7397820949554443,-0.04335657134652138,-0.0010925803799182177,-0.05691919103264809,0.039449907430455754,-0.8749027463438462,0.6129885608664194,-0.7999999994737904,-0.04926372757378104,0.5743892088318835,0.5568456130539982,-1.25,0.0,0.0021271705627441406,0.002218484878540039,0
0.7496609687805176,-0.04322715103626251,-0.001264976686798036,-0.0572277270257473,0.039451036850246333,-0.8750401627786317,0.6168464367144262,-0.7999999996316534,-0.04927875023243567,0.5716317092703069,0.5596759678212987,-1.25,0.0,0.0020351409912109375,0.0021376609802246094,0
0.7594540119171143,-0.043167226016521454,-0.0013476046733558178,-0.057380590587854385,0.039443079069405834,-0.8751777730367235,0.6206959946773525,-0.7999999997421574,-0.04928628130209754,0.5688844020880983,0.5624682542694005,-1.25,0.0,0.001325845718383789,0.0013828277587890625,0
0.7693612575531006,-0.04305727779865265,-0.0015069351065903902,-0.0576801635324955,0.03944438660987551,-0.8753160862389742,0.6245883311333059,-0.7999999998195102,-0.049292043594712245,0.5660911781681045,0.5652793804838873,-1.25,0.0,0.0015866756439208984,0.0016584396362304688,0
0.7801105976104736,-0.04300985485315323,-0.0015823821304365993,-0.05782776325941086,0.03943110318745837,-0.8754532131383708,0.6285144264785854,-0.7999999998736571,-0.04929109660976563,0.5630448263110646,0.5683137545092,-1.25,0.0,0.0016341209411621094,0.001714944839477539,0
0.7896039485931396,-0.042966824024915695,-0.0016554661560803652,-0.05797465145587921,0.039430731242756666,-0.8755946501333143,0.6323164696204266,-0.79999999991156,-0.04929029115313203,0.5603408925216721,0.570979933244607,-1.25,0.0,0.0015377998352050781,0.0016124248504638672,0
0.7997028827667236,-0.04292648285627365,-0.0017262184992432594,-0.05811414122581482,0.03944112078206199,-0.875738811104966,0.636084741118342,-0.799999999938092,-0.049293626581868845,0.5574506168697868,0.5738020649592456,-1.25,0.0,0.0017764568328857422,0.00186920166015625,0
0.8094797134399414,-0.0428878590464592,-0.0017956688534468412,-0.058251671493053436,0.039449381036048586,-0.8758906588064554,0.6398552086874079,-0.7999999999566644,-0.04929905687260176,0.5546389846516461,0.576520248304074,-1.25,0.0,0.0013365745544433594,0.0013973712921142578,0
0.8195867538452148,-0.0428495891392231,-0.0018641536589711905,-0.0583871528506279,0.03945232216895558,-0.8760463333615437,0.6435989644522984,-0.7999999999696651,-0.049303959509757044,0.5517184581417242,0.5793157540976412,-1.25,0.0,0.0014815330505371094,0.0015573501586914062,0
0.8294837474822998,-0.04277823492884636,-0.001993113197386265,-0.058655962347984314,0.03943366253570637,-0.8761983985740668,0.6472192241616721,-0.7999999999787656,-0.04930039615330997,0.5488449725531744,0.5820388269721404,-1.25,0.0,0.0012128353118896484,0.001272439956665039,0
0.8393154144287109,-0.04274630546569824,-0.0020529411267489195,-0.0587887316942215,0.0394457562298778,-0.8763536132048313,0.6507627185244645,-0.7999999999851359,-0.04930243631406717,0.5459771466075952,0.5847298140014998,-1.25,0.0,0.0013630390167236328,0.0014336109161376953,0
0.8498876094818115,-0.04271739721298218,-0.002110962988808751,-0.05891859531402588,0.03943463039704056,-0.876512242984719,0.6543967429079882,-0.7999999999895951,-0.04929969255707707,0.542878594124279,0.5876077195218307,-1.25,0.0,0.0030562877655029297,0.003204822540283203,0
0.8594539165496826,-0.04269065335392952,-0.00216799252666533,-0.05903435871005058,0.039437742373163574,-0.8766688656903778,0.65797020718121,-0.7999999999927166,-0.049298937283907045,0.5400617767734276,0.590197659490724,-1.25,0.0,0.0015473365783691406,0.0016245841979980469,0
0.8693218231201172,-0.042642515152692795,-0.002277218736708164,-0.059265583753585815,0.03940502792421021,-0.876823788491291,0.6615004661861752,-0.7999999999949017,-0.049286141353065464,0.5371432073171126,0.5928551044168259,-1.25,0.0,0.001201629638671875,0.0012652873992919922,0
0.8795332908630371,-0.042621225118637085,-0.002328360453248024,-0.05937948450446129,0.03939252802636808,-0.8769816626478397,0.6649802990499529,-0.7999999999964312,-0.04927249534574017,0.5341092588324287,0.595589875358433,-1.25,0.0,0.0015461444854736328,0.0016222000122070312,0
0.8900337219238281,-0.04260184243321419,-0.0023765484802424908,-0.059493932873010635,0.03939402911940817,-0.8771377601986244,0.6684443333143808,-0.799597135208639,-0.04926350630517955,0.5309749367040881,0.5983858425732427,-1.25,0.0,0.0022673606872558594,0.002372264862060547,0
0.8996138572692871,-0.04256950691342354,-0.0024693217128515244,-0.059721268713474274,0.039364287973539434,-0.8772918827579972,0.6719215529301754,-0.7981291384886812,-0.049246063465218655,0.5281025474533751,0.6009223738331397,-1.25,0.0,0.0016210079193115234,0.0017096996307373047,0
0.9096074104309082,-0.04255533218383789,-0.002515781670808792,-0.05983254685997963,0.039334140067017985,-0.8774358331598036,0.6754030227712742,-0.7958600051033545,-0.049222545775204664,0.5250932923445338,0.6035536714616008,-1.25,0.0,0.0013837814331054688,0.001474618911743164,0
0.9196915626525879,-0.04254220426082611,-0.002562425099313259,-0.05992938578128815,0.039336103689066065,-0.8775636882780316,0.6788365309878125,-0.7929968721552985,-0.0492068196396772,0.5220434671039408,0.6061935486740987,-1.25,0.0,0.0018279552459716797,0.0019092559814453125,0
0.9297020435333252,-0.04253029078245163,-0.0026080228853970766,-0.06002578139305115,0.03933363974143613,-0.8776736827914307,0.6821787515065512,-0.7897290530502352,-0.049194889475311636,0.5190027960926502,0.6087988975417178,-1.25,0.0,0.0020759105682373047,0.0021741390228271484,0
0.9400334358215332,-0.04252035170793533,-0.00265264674089849,-0.060121096670627594,0.03935366540863707,-0.877761736936717,0.6855705015910426,-0.7862471639651151,-0.049194045853116146,0.5158510153335404,0.6114717736570966,-1.25,0.0,0.002936840057373047,0.003053426742553711,0
0.949458122253418,-0.042508967220783234,-0.0027419868856668472,-0.06031233072280884,0.03936278332624379,-0.8778219193034678,0.6889450231095976,-0.782665034599008,-0.04919687687003463,0.5129638336042965,0.6138958424798002,-1.25,0.0,0.0016756057739257812,0.001720428466796875,0
0.9595417976379395,-0.042505551129579544,-0.002785483142361045,-0.0604078508913517,0.039362517855902966,-0.8778661769634455,0.692310929725708,-0.7790446801920515,-0.04919875690807805,0.5098621637306155,0.6164743092748757,-1.25,0.0,0.0014190673828125,0.0014908313751220703,0
0.9696123600006104,-0.042505893856287,-0.0028274741489440203,-0.06050301715731621,0.03934409702667477,-0.877897296900409,0.6956264371196628,-0.7753710415285717,-0.04919316599958591,0.5067515918359263,0.6190337827386764,-1.25,0.0,0.0016083717346191406,0.0016818046569824219,0
0.9795475006103516,-0.04250776022672653,-0.002867849078029394,-0.06061955913901329,0.03934603775597292,-0.8779218328153656,0.6989742476238456,-0.7716001156074814,-0.0491899813994306,0.5036702581667754,0.6215434586882996,-1.25,0.0,0.0014302730560302734,0.0014955997467041016,0
0.9896013736724854,-0.04251270368695259,-0.002949818503111601,-0.06084923446178436,0.039319244988538025,-0.8779302247565763,0.7024121355277941,-0.7676283608544077,-0.049177701172643126,0.5005394479246629,0.6240675132317607,-1.25,0.0,0.0012927055358886719,0.0013515949249267578,0
0.9993259906768799,-0.042516469955444336,-0.0029897780623286963,-0.06096356362104416,0.0393125280591369,-0.8779315680277769,0.7058199062754121,-0.7637033190641613,-0.049166586849670735,0.49749913422956005,0.6264939037539299,-1.25,0.0,0.0011501312255859375,0.0011992454528808594,0
1.0096001625061035,-0.04252006486058235,-0.003029019106179476,-0.06107574701309204,0.03931664901035805,-0.8779324562819794,0.7092148639423796,-0.7596828967521827,-0.04916035397428109,0.49427423097618023,0.629041321848498,-1.25,0.0,0.0013146400451660156,0.0013725757598876953,0
1.0193803310394287,-0.042523473501205444,-0.003066781908273697,-0.06118602678179741,0.039323068567954665,-0.8779272490911929,0.7125186916561038,-0.7557089013993308,-0.04915839948255296,0.491192268405415,0.6314508337620142,-1.25,0.0,0.0012767314910888672,0.0013380050659179688,0
1.0294723510742188,-0.04253365844488144,-0.0031377500854432583,-0.061404477804899216,0.039314818028567865,-0.8779146475005014,0.7157570548608143,-0.7517016936382463,-0.049153936310456475,0.4879997212856652,0.6339213452985418,-1.25,0.0,0.0014414787292480469,0.0015151500701904297,0
1.0404274463653564,-0.04254093021154404,-0.0031698362436145544,-0.06151806190609932,0.03931965754401225,-0.8778980991198745,0.7190547084219486,-0.7476727543088617,-0.04915262592452423,0.4845200834385394,0.6365848637414424,-1.25,0.0,0.0021953582763671875,0.002314329147338867,0
1.0496065616607666,-0.0425497367978096,-0.003200724022462964,-0.061631254851818085,0.03933611558065155,-0.8778742660822496,0.7222254774803026,-0.7437599193955026,-0.049157879587396064,0.4815933477995576,0.6388018842765059,-1.25,0.0,0.001935720443725586,0.0020241737365722656,0
1.0595645904541016,-0.042558930814266205,-0.003229582915082574,-0.061745673418045044,0.039335586971129176,-0.8778447325060599,0.7253554956606343,-0.7397871906061125,-0.04916135960614088,0.4784067876846885,0.6411918164615154,-1.25,0.0,0.0013539791107177734,0.0014193058013916016,0
1.069319725036621,-0.042666707187891006,-0.00328411185182631,-0.062075044959783554,0.039336051806019755,-0.8778022161371252,0.7283418053838027,-0.7358910923659447,-0.049163972616350624,0.47527365305801433,0.6435176413346337,-1.25,0.0,0.0012912750244140625,0.0013582706451416016,0
1.0793604850769043,-0.042763952165842056,-0.003309823339805007,-0.062285132706165314,0.03934348924243227,-0.8777582536124495,0.731363094678854,-0.7319918074832378,-0.04916858753920321,0.4720369740828374,0.6458955760018168,-1.25,0.0,0.0011525154113769531,0.0012013912200927734,0
1.1161413192749023,-0.0428592674434185,-0.003333926433697343,-0.06249173358082771,0.039343505364789054,-0.8777232849765775,0.7369054526579895,-0.7248932507127424,-0.049171827761827,0.46007953362189324,0.6544668232555881,-1.25,0.0,0.0008018016815185547,0.0008435249328613281,0
1.1191253662109375,-0.04323163256049156,-0.0034161056391894817,-0.06321868300437927,0.03935535567033835,-0.8776610483097239,0.7410147434676887,-0.7196628554463821,-0.049178539581062226,0.45910254202559486,0.6551525439969206,-1.25,0.0,0.0007593631744384766,0.0007951259613037109,0
1.1292850971221924,-0.043322719633579254,-0.0034320007544010878,-0.06339509040117264,0.03935174566823132,-0.8776003222499709,0.744818989862792,-0.714906434290455,-0.0491818816476417,0.4557685459973286,0.6574762600120867,-1.25,0.0,0.0007328987121582031,0.0007665157318115234,0
1.1392734050750732,-0.04350259155035019,-0.0034583972301334143,-0.06369397044181824,0.039355399739962736,-0.8775482980737318,0.7484023530525115,-0.7103993372151087,-0.049185593213365845,0.45247933818775865,0.6597442296171813,-1.25,0.0,0.0007569789886474609,0.00079345703125,0
1.1494505405426025,-0.043590690940618515,-0.0034694112837314606,-0.06381724029779434,0.039361643736969286,-0.8775010868616298,0.7518566807283645,-0.7060802807084784,-0.04919053152696387,0.4491163413473454,0.6620381499088817,-1.25,0.0,0.0011873245239257812,0.0012562274932861328,0
1.1593694686889648,-0.043678607791662216,-0.003478187369182706,-0.06393987685441971,0.03935400352969712,-0.8774589113368662,0.7551222403591702,-0.7018697174898562,-0.049191122636196925,0.4458274771023047,0.6642573753151666,-1.25,0.0,0.0013055801391601562,0.0013644695281982422,0
1.1695983409881592,-0.043765757232904434,-0.003483628621324897,-0.06406106054782867,0.03935921704568048,-0.87742115680365,0.7583458578533262,-0.6977131930098712,-0.049193493184516185,0.44242435913628403,0.6665288339170695,-1.25,0.0,0.0012578964233398438,0.0013155937194824219,0
1.1794590950012207,-0.043852489441633224,-0.0034893210977315903,-0.064181849360466,0.03934962671945399,-0.877379357796011,0.7615116660261098,-0.6936451299741878,-0.04919155330159662,0.4391327566619687,0.6687020427862175,-1.25,0.0,0.0013175010681152344,0.0013751983642578125,0
1.1894495487213135,-0.04401114955544472,-0.003472693730145693,-0.06456973403692245,0.03931914846397457,-0.8769178323649705,0.7613232735896871,-0.6871391677666967,-0.04917876817831413,0.43578697347503276,0.670887258598247,-1.25,0.0,0.0011382102966308594,0.001186370849609375,0
1.199385643005371,-0.044060081243515015,-0.0034174586180597544,-0.0650075301527977,0.03932327118884895,-0.8760614127569283,0.7582871564635084,-0.678224128442889,-0.04917136211504571,0.43244860973250354,0.6730439806880564,-1.25,0.0,0.0013234615325927734,0.0013980865478515625,0
1.2093267440795898,-0.04407486319541931,-0.003316968446597457,-0.06568385660648346,0.03933150984089753,-0.8747864746655352,0.7522315516470858,-0.6667805725274789,-0.049169267964767935,0.42909788228097395,0.6751851652857781,-1.25,0.0,0.0008189678192138672,0.0008556842803955078,0
1.2197613716125488,-0.04400213807821274,-0.0029820988420397043,-0.06786036491394043,0.03920710463151191,-0.8726330760300254,0.7363070065609997,-0.6466760913676712,-0.049121147854874675,0.4255694053177006,0.677414704045859,-1.25,0.0,0.0009832382202148438,0.0010249614715576172,0
1.2294728755950928,-0.04392354562878609,-0.0027586552314460278,-0.06938251852989197,0.039102023627521264,-0.8700766979349582,0.7193052172573876,-0.6256715488539681,-0.049048056429087106,0.4222750433483297,0.6794731692754074,-1.25,0.0,0.0009810924530029297,0.0010285377502441406,0
1.2393410205841064,-0.04382220283150673,-0.002501601818948984,-0.0711962953209877,0.03893370165419376,-0.8672142425587904,0.7010342809488351,-0.603507986270242,-0.048933776379525444,0.4189173469285199,0.6815484256033244,-1.25,0.0,0.0010600090026855469,0.001111745834350586,0
1.2495551109313965,-0.04369860142469406,-0.0022125812247395515,-0.07329750061035156,0.03873157662177664,-0.8641205130757099,0.6813865136161055,-0.5797532475740176,-0.04877798148100246,0.41543120039098114,0.6836789580948858,-1.25,0.0,0.0011975765228271484,0.0012547969818115234,0
1.2593538761138916,-0.04338609054684639,-0.0015381103148683906,-0.07834840565919876,0.03820056571508903,-0.8605576956250127,0.6491381162399487,-0.5442366632155026,-0.04846979532795852,0.4120766230214358,0.6857061008619141,-1.25,0.0,0.0009667873382568359,0.0010142326354980469,0
1.269561767578125,-0.04319344088435173,-0.0011434531770646572,-0.08129611611366272,0.037877160458288615,-0.8567034831272786,0.6178669407583017,-0.5094183756871891,-0.04813278963390078,0.4085714641492299,0.6878003770593286,-1.25,0.0,0.0011284351348876953,0.00118255615234375,0
1.2794501781463623,-0.04297146946191788,-0.000705577724147588,-0.08452410995960236,0.03747947851753721,-0.8526450926842948,0.5873828098394999,-0.47490998029596343,-0.04774775813518719,0.4051658579569126,0.6898120233411702,-1.25,0.0,0.00115203857421875,0.001203298568725586,0
1.2895147800445557,-0.042718689888715744,-0.00022241336409933865,-0.08802705258131027,0.037058551026747176,-0.8484497838064333,0.557509222108881,-0.44061820047151423,-0.047320391509976155,0.4016894006985708,0.6918421968674816,-1.25,0.0,0.0013513565063476562,0.0014224052429199219,0
1.2998154163360596,-0.042434751987457275,0.0003110605466645211,-0.09179701656103134,0.03659181952755499,-0.8441656437834684,0.5280834790799065,-0.4064830157498306,-0.046846201985953906,0.3981208814808769,0.6939018401250205,-1.25,0.0,0.002164602279663086,0.002262592315673828,0
1.3096165657043457,-0.04175206646323204,0.0015500321751460433,-0.10011552274227142,0.03550956651469608,-0.8396062220535091,0.48594206062094264,-0.36042180842741284,-0.046108416243579024,0.39471559674802437,0.6958445211998519,-1.25,0.0,0.0015039443969726562,0.0015752315521240234,0
1.3193256855010986,-0.04134516417980194,0.0022656614892184734,-0.10464894026517868,0.03491926718822949,-0.8348477720924453,0.4475205565742447,-0.3179493074705209,-0.04537061480447224,0.3913329400349253,0.6977524847993174,-1.25,0.0,0.001196146011352539,0.001249551773071289,0
1.3295364379882812,-0.04089120030403137,0.0030516847036778927,-0.10942039638757706,0.03428072780625537,-0.8300068982261762,0.4120609260832032,-0.27825045011263283,-0.044614704697062,0.3877655665408424,0.6997412846225808,-1.25,0.0,0.0012640953063964844,0.0013225078582763672,0
1.3396003246307373,-0.04038548097014427,0.003912489395588636,-0.11442428827285767,0.03362231536960206,-0.8251662552579022,0.3788201018697637,-0.24060000690038905,-0.04383866120161602,0.3842396137265557,0.7016836318764086,-1.25,0.0,0.002543210983276367,0.0027663707733154297,0
1.3494551181793213,-0.03919920325279236,0.005867722909897566,-0.12509962916374207,0.03218630466597563,-0.820136271744691,0.33414040290450736,-0.19281338149112676,-0.04275692028520928,0.38077748953979795,0.7035684070932756,-1.25,0.0,0.002049684524536133,0.002135038375854492,0
1.3597943782806396,-0.03851446136832237,0.006969412788748741,-0.13075613975524902,0.03145691884672821,-0.8150302121927591,0.29462456140617777,-0.15001598735246463,-0.04172618560611446,0.37713522921833625,0.705527475639633,-1.25,0.0,0.0017464160919189453,0.0018422603607177734,0
1.3696391582489014,-0.03776521608233452,0.008158799260854721,-0.13661445677280426,0.030712337778308087,-0.8099690705550826,0.25893713793061823,-0.11089050005858714,-0.040725460112488614,0.3736577928937236,0.7073753273968433,-1.25,0.0,0.0016055107116699219,0.001683950424194336,0
1.379645824432373,-0.03748759999871254,0.008769167587161064,-0.14266975224018097,0.029945242185691855,-0.8050114669988011,0.22650381405194037,-0.07471043177382365,-0.03973728949513962,0.37011389633443187,0.7092360000311219,-1.25,0.0,0.0014796257019042969,0.0015485286712646484,0
1.3895366191864014,-0.03669492527842522,0.01030026189982891,-0.155319482088089,0.028393953182606315,-0.7998971159479541,0.18420071741331978,-0.03093774088724236,-0.03846383713548025,0.3666019308568471,0.7110576800035505,-1.25,0.0,0.0012388229370117188,0.0012938976287841797,0
1.399336814880371,-0.03618006408214569,0.011224532499909401,-0.16190826892852783,0.027642390335923996,-0.794844333045544,0.1477088397928124,0.0075232830380776855,-0.037290578333262936,0.3631132913701931,0.7128455215755412,-1.25,0.0,0.0011110305786132812,0.0011591911315917969,0
1.4097890853881836,-0.03558354079723358,0.012256093323230743,-0.168659970164299,0.02691299848110009,-0.7899472572426314,0.11567670219067397,0.04223576249653045,-0.03619578502820923,0.3593829224649956,0.714733457339531,-1.25,0.0,0.0024061203002929688,0.002527952194213867,0
1.4194848537445068,-0.03490326181054115,0.013395505957305431,-0.17556539177894592,0.02620601208823661,-0.7852493679415482,0.08682131887683506,0.07408731450729808,-0.03516429766357704,0.3559137679206816,0.7164672984892634,-1.25,0.0,0.0017256736755371094,0.0018274784088134766,0
1.429508924484253,-0.03329228609800339,0.016006864607334137,-0.18980835378170013,0.024873448879630077,-0.7804344985814036,0.049045571399805844,0.111972877458822,-0.033942547392013855,0.35231835315743854,0.7182421444251448,-1.25,0.0,0.0020062923431396484,0.0020952224731445312,0
1.4396395683288574,-0.03235965594649315,0.017479516565799713,-0.19713062047958374,0.024274111718810578,-0.7757825054435747,0.01689609194840626,0.14521630565645105,-0.03286257847177134,0.3486757212433016,0.7200175285473706,-1.25,0.0,0.0014297962188720703,0.001497507095336914,0
1.4495220184326172,-0.03134004771709442,0.019063403829932213,-0.20455896854400635,0.0236795562973289,-0.7713428725529607,-0.011076064013406817,0.1750517537398262,-0.03188364041277249,0.34511371049788764,0.7217316168953527,-1.25,0.0,0.0013871192932128906,0.0014469623565673828,0
1.4594366550445557,-0.030233953148126602,0.020757827907800674,-0.21210338175296783,0.023113277419088328,-0.7671333538244857,-0.03604083930614446,0.20230931663393178,-0.030986029959363053,0.3415316312188721,0.7234335801419343,-1.25,0.0,0.001318216323852539,0.0013775825500488281,0
1.469254493713379,-0.0278994832187891,0.024086935445666313,-0.22677059471607208,0.022159936583578312,-0.7628350565203751,-0.06837925601012158,0.2336794692627087,-0.030000198368061514,0.33797625337383846,0.7251014081874225,-1.25,0.0,0.0010950565338134766,0.0011715888977050781,0
1.4793801307678223,-0.02667095512151718,0.025731433182954788,-0.23389533162117004,0.021751376110812147,-0.7587718759285549,-0.09538595933156385,0.2609254078143677,-0.02915690532529317,0.33430088069654507,0.7268032203874131,-1.25,0.0,0.0015728473663330078,0.0016427040100097656,0
1.489518642425537,-0.025356998667120934,0.02749430015683174,-0.24112394452095032,0.021385219619257677,-0.7549588629333078,-0.1184815512943346,0.2851551539872378,-0.028429292717186777,0.3306122496998758,0.7284885313773903,-1.25,0.0,0.0007984638214111328,0.0008409023284912109,0
1.4995596408843994,-0.02247558906674385,0.03137781471014023,-0.25588709115982056,0.02077307493219329,-0.7510670887401636,-0.14734298432070206,0.3117164679260397,-0.02769040928254181,0.3269507223533898,0.7301391820417507,-1.25,0.0,0.0008130073547363281,0.0008494853973388672,0
1.509220838546753,-0.02090991660952568,0.03349872678518295,-0.26340773701667786,0.020527507931657387,-0.7474299191224715,-0.17129508663766208,0.33471067413368844,-0.027081100197376848,0.3234199119522975,0.7317100249092998,-1.25,0.0,0.0008234977722167969,0.0008623600006103516,0
1.5194380283355713,-0.0192615557461977,0.03573830425739288,-0.27100417017936707,0.02030698649615672,-0.7440456476512378,-0.19169446094437995,0.35511166581183073,-0.026571887010353325,0.31967769785827516,0.7333526910648337,-1.25,0.0,0.001218557357788086,0.0012743473052978516,0
1.5294215679168701,-0.017531266435980797,0.03809357061982155,-0.2786714434623718,0.02015533135200467,-0.7408962239264514,-0.2094908557476109,0.3736666749167018,-0.026158570215577,0.31601300243325897,0.7349393051763643,-1.25,0.0,0.0013031959533691406,0.0013430118560791016,0
1.5394113063812256,-0.013825885951519012,0.0431448258459568,-0.2941966950893402,0.019986385459841462,-0.7376496761754715,-0.23218648323372484,0.39355623735706335,-0.025805894353425958,0.3123381499228979,0.7365085743579238,-1.25,0.0,0.0008356571197509766,0.0008721351623535156,0
1.5493929386138916,-0.011858023703098297,0.045836515724658966,-0.3020426332950592,0.019942928824065367,-0.7346485327366795,-0.2508568473184116,0.4108283217925187,-0.02554272414952492,0.30865849643010407,0.7380582176099034,-1.25,0.0,0.0008554458618164062,0.0008995532989501953,0
1.5593321323394775,-0.009814508259296417,0.048637352883815765,-0.3099345564842224,0.019946490691685772,-0.7318806375490307,-0.266789408958751,0.42616178302249696,-0.025359841037795625,0.3049868482796342,0.7395830057380006,-1.25,0.0,0.0007636547088623047,0.0008006095886230469,0
1.5694630146026611,-0.007696608081459999,0.05154645815491676,-0.31787681579589844,0.019993099141368622,-0.7293220225220075,-0.28072503779835234,0.4399645055929537,-0.02524930139613103,0.3012366373493246,0.7411184037105485,-1.25,0.0,0.0008451938629150391,0.0008862018585205078,0
1.5792272090911865,-0.0047217803075909615,0.05570697411894798,-0.33388176560401917,0.020217449521183786,-0.7266603110239034,-0.29666246265848495,0.45193757295330084,-0.02525605448563861,0.2976148496447089,0.7425802322112792,-1.25,0.0,0.0007493495941162109,0.000789642333984375,0
1.5893781185150146,-0.003118979511782527,0.05795957148075104,-0.3419302701950073,0.020436092387326597,-0.7242115899776624,-0.30888398783151294,0.4619052802257994,-0.02534277305781759,0.29384210018074347,0.7440811919148138,-1.25,0.0,0.0011174678802490234,0.001169443130493164,0
1.5995137691497803,-0.0014415645273402333,0.06032361090183258,-0.35000428557395935,0.02066889913976613,-0.72195689144289,-0.3184479468706516,0.4703183633023709,-0.02549077777758676,0.29006746947555845,0.7455607709315493,-1.25,0.0,0.0012111663818359375,0.0012660026550292969,0
1.6095688343048096,0.00030813971534371376,0.06279453635215759,-0.3580992519855499,0.020894801686231614,-0.7198722821550408,-0.32598636219022487,0.47738746006042226,-0.02567909478179228,0.2863154883245708,0.7470096660321489,-1.25,0.0,0.001249074935913086,0.0013017654418945312,0
1.6195602416992188,0.004011359065771103,0.06804902106523514,-0.37433287501335144,0.02150252015691858,-0.7176978119753581,-0.3350391345576833,0.4819779108672201,-0.026038811291954175,0.28258009210839985,0.7484306858647689,-1.25,0.0,0.0011725425720214844,0.0012214183807373047,0
1.6295278072357178,0.0059603676199913025,0.07083062827587128,-0.38246190547943115,0.02183803770847905,-0.7157114156296575,-0.34183033298017,0.48580465411222945,-0.026416431763902886,0.27884658222630543,0.7498297030531056,-1.25,0.0,0.0012769699096679688,0.0013332366943359375,0
1.6394026279449463,0.007973848842084408,0.07371171563863754,-0.39059749245643616,0.022184713129751253,-0.7138833282464452,-0.34687626373386155,0.4889547915939962,-0.02681076959251863,0.27514098147134053,0.7511973377981231,-1.25,0.0,0.0012629032135009766,0.001331329345703125,0
1.6497735977172852,0.010047577321529388,0.07668779045343399,-0.3987369239330292,0.022545787677067854,-0.7121927787644844,-0.35045267326755636,0.4913060947136697,-0.02722221028711968,0.2712419773271751,0.752613971259931,-1.25,0.0,0.0015764236450195312,0.0016531944274902344,0
1.6593966484069824,0.012175414711236954,0.07975653558969498,-0.4068789780139923,0.022917048202512967,-0.710619978274112,-0.35306014258427815,0.49261859179368767,-0.0276494403660878,0.2676176303768097,0.7539103420908226,-1.25,0.0,0.001375436782836914,0.0014421939849853516,0
1.6694345474243164,0.016587555408477783,0.0861687958240509,-0.42315873503685,0.023660809118329486,-0.708963327042423,-0.35636105808860313,0.4904760142790959,-0.028227411143225047,0.26383043770402914,0.7552440004004669,-1.25,0.0,0.0012195110321044922,0.0012781620025634766,0
1.679539442062378,0.018868224695324898,0.08950650691986084,-0.43129169940948486,0.024004896673624175,-0.7074301666343872,-0.35824774338135157,0.48837283898506845,-0.02876102391754303,0.2600112559913988,0.7565673444960306,-1.25,0.0,0.0011889934539794922,0.0012524127960205078,0
1.6894702911376953,0.02119341678917408,0.09292836487293243,-0.439420610666275,0.0243982179528033,-0.7060094389169806,-0.35905594728955753,0.48593152032063247,-0.02928204843983555,0.2562513880322361,0.7578490787297643,-1.25,0.0,0.0014421939849853516,0.0015172958374023438,0
1.6998727321624756,0.023560388013720512,0.09643282741308212,-0.447539746761322,0.024791024525063564,-0.7046836339831242,-0.35909813261841167,0.4831905133967349,-0.02979406816185862,0.2523061994935913,0.7591716417893256,-1.25,0.0,0.001976490020751953,0.002067089080810547,0
1.7099609375,0.028412455692887306,0.10367909073829651,-0.46374043822288513,0.02551979649185856,-0.7032968326547371,-0.35919079377657837,0.47632427653449866,-0.030425769921642164,0.24847366632452395,0.7604346369960071,-1.25,0.0,0.0023429393768310547,0.0024356842041015625,0
1.7193303108215332,0.03089298866689205,0.10741789638996124,-0.47181856632232666,0.025877270731560452,-0.7020062773824548,-0.3585541661518096,0.4699216035475795,-0.031002015907687166,0.24490855482195345,0.7615903096646006,-1.25,0.0,0.0012047290802001953,0.0012602806091308594,0
1.729689121246338,0.033404674381017685,0.11123122274875641,-0.4798797070980072,0.026223382013770082,-0.700799490083955,-0.35728818807947665,0.4638580033149722,-0.03153517968859302,0.2409607026584436,0.7628485693598365,-1.25,0.0,0.002119302749633789,0.002225160598754883,0
1.7399485111236572,0.03594662994146347,0.11511692404747009,-0.48792293667793274,0.026547736622268194,-0.6996668429218343,-0.35553238203623333,0.45794155254737573,-0.03203002796891327,0.237044369089645,0.7640745821468558,-1.25,0.0,0.002646207809448242,0.0027070045471191406,0
1.7495605945587158,0.04111345112323761,0.12309709191322327,-0.5039973258972168,0.027130235253887382,-0.6984940620129548,-0.3534642388837163,0.44746050512543234,-0.03259485805389817,0.23336947128466345,0.7652049985933944,-1.25,0.0,0.0020194053649902344,0.002107381820678711,0
1.759751796722412,0.04373306781053543,0.1271844059228897,-0.51199871301651,0.027403626768725677,-0.6973933767630355,-0.35080584147678573,0.43812313154182175,-0.03309276042386925,0.2294672790096171,0.7663842168677031,-1.25,0.0,0.0024912357330322266,0.0025844573974609375,0
1.7695322036743164,0.046372510492801666,0.1313321739435196,-0.5199732184410095,0.027674037603576698,-0.6963678070600131,-0.34766181450347095,0.4293506085672333,-0.03354269720553526,0.22571677544067767,0.7674971904083185,-1.25,0.0,0.0015339851379394531,0.001600503921508789,0
1.7795181274414062,0.04902932420372963,0.13553863763809204,-0.5279186964035034,0.027915965226675853,-0.6954079350142982,-0.34417186094568575,0.42092511756756074,-0.0339483752405877,0.2218818936289857,0.7686146142766318,-1.25,0.0,0.001256704330444336,0.001313924789428711,0
1.789790391921997,0.054389823228120804,0.1441231369972229,-0.5437222123146057,0.028375008592759234,-0.6944339936407078,-0.3400476854468512,0.40793846478947804,-0.034404489891374436,0.21793127808527807,0.7697440860650488,-1.25,0.0,0.001165628433227539,0.0012247562408447266,0
1.7992839813232422,0.057088203728199005,0.1484956443309784,-0.5515769124031067,0.02856623675036143,-0.6935129114800989,-0.3357241024968397,0.39634222260224683,-0.03479548225321877,0.21427501944233218,0.7707698852725036,-1.25,0.0,0.001001119613647461,0.001049041748046875,0
1.8095057010650635,0.05979485437273979,0.15291769802570343,-0.5593987107276917,0.0287352707873201,-0.6926436301419839,-0.33115041954153884,0.385707181199701,-0.03513256580865549,0.21033294119475318,0.7718549435278397,-1.25,0.0,0.0011224746704101562,0.0011796951293945312,0
1.8194434642791748,0.06250655651092529,0.157388374209404,-0.5671865940093994,0.028899788325537547,-0.6918254611633805,-0.326577107722662,0.37556337665845485,-0.03543021856712108,0.2064951046123177,0.7728905302635996,-1.25,0.0,0.0012645721435546875,0.0013332366943359375,0
1.8294100761413574,0.06793902069330215,0.16646935045719147,-0.5826582908630371,0.029204105168086046,-0.6910081257628987,-0.3211217349509204,0.3606611837757759,-0.03575269419542815,0.202641006613833,0.7739099575780974,-1.25,0.0,0.0016608238220214844,0.0017578601837158203,0
1.839646816253662,0.07065393030643463,0.17107146978378296,-0.5903395414352417,0.02932623932231262,-0.6902235969773384,-0.315605306992606,0.3474270307167195,-0.036024226094100525,0.19867721199675492,0.7749370073968571,-1.25,0.0,0.0016560554504394531,0.0017440319061279297,0
1.8496332168579102,0.07336268573999405,0.17571263015270233,-0.5979852080345154,0.029396765768267018,-0.6894682120970339,-0.310139160547975,0.3352378604728259,-0.03624074387680442,0.19480533566614552,0.7759193780258361,-1.25,0.0,0.0016512870788574219,0.0017309188842773438,0
1.8596680164337158,0.07606533169746399,0.18039196729660034,-0.6055926084518433,0.029473503378294262,-0.6887520866919765,-0.3047339722763871,0.3239132528496452,-0.03642108525442455,0.19090980223882553,0.7768870235813781,-1.25,0.0,0.0014998912811279297,0.001575469970703125,0
1.8694062232971191,0.08204115182161331,0.19065649807453156,-0.6207225322723389,0.02949547691561907,-0.6880543561580181,-0.2990580396830693,0.30822555018573294,-0.03655556355529517,0.18712481085684596,0.7778073702156529,-1.25,0.0,0.0017042160034179688,0.0018010139465332031,0
1.8793630599975586,0.08529530465602875,0.19621789455413818,-0.6282408237457275,0.029500707319563692,-0.6873808717450094,-0.2939158484083326,0.2948149272784223,-0.036651660721390644,0.1832502574607895,0.7787293131381112,-1.25,0.0,0.0009207725524902344,0.0009663105010986328,0
1.8922338485717773,0.0885208249092102,0.20179150998592377,-0.6357147097587585,0.02950131367717315,-0.6867398691344709,-0.28902333099558664,0.2836002764221283,-0.03671915489308607,0.17823506730111696,0.7798924674493057,-1.25,0.0,0.0039997100830078125,0.004175901412963867,0
1.8994083404541016,0.09171581268310547,0.20737671852111816,-0.643142819404602,0.02945261904388132,-0.6861468850187931,-0.2845870548405189,0.27266437148881323,-0.036748139758842176,0.17543626042002056,0.7805268211469987,-1.25,0.0,0.0019974708557128906,0.002086639404296875,0
1.9095723628997803,0.09487911313772202,0.2129712700843811,-0.6505252718925476,0.029404128951073603,-0.6855888554129735,-0.2803079747474127,0.26260930399766147,-0.036750245072262905,0.17146736595245446,0.7814083071054,-1.25,0.0,0.001554727554321289,0.0016252994537353516,0
1.919142246246338,0.10110659897327423,0.22418031096458435,-0.6651564836502075,0.029263426114525506,-0.6850620560339953,-0.2753668412753555,0.2482783771757118,-0.036698954849982535,0.1677264241216184,0.7822198199044659,-1.25,0.0,0.0008091926574707031,0.0008533000946044922,0
1.9292476177215576,0.10416797548532486,0.22979287803173065,-0.672401487827301,0.029176660251009314,-0.6845505185620891,-0.2706612650495578,0.23573796327256163,-0.03663051626901635,0.16377198901824633,0.7830573003382367,-1.25,0.0,0.0007905960083007812,0.0008273124694824219,0
1.9393503665924072,0.10719235241413116,0.23540860414505005,-0.6795998811721802,0.029097980129044985,-0.6840580764560099,-0.26608020374107827,0.22462202755332542,-0.036553104136603995,0.1598144007815544,0.7838745800846159,-1.25,0.0,0.0008578300476074219,0.0008974075317382812,0
1.9494404792785645,0.11018005758523941,0.24102607369422913,-0.6867504119873047,0.028988530224763907,-0.6835948655481044,-0.26159090181713357,0.21461207985197703,-0.036457870851563164,0.1558576922941155,0.7846708735213465,-1.25,0.0,0.001355886459350586,0.0014209747314453125,0
1.9592700004577637,0.11603886634111404,0.2522614598274231,-0.7009299397468567,0.028710026703733037,-0.6831766576488939,-0.25626037421459397,0.20058294225185985,-0.03628676957566647,0.1519993559770405,0.7854273968881942,-1.25,0.0,0.001247406005859375,0.0013053417205810547,0
1.969334363937378,0.11890710145235062,0.25787487626075745,-0.707955002784729,0.028561736177081156,-0.6827700182451124,-0.25117151886720684,0.1884463093807993,-0.036111389022666966,0.14804503472890104,0.78618233743332,-1.25,0.0,0.0009229183197021484,0.0009665489196777344,0
1.979198932647705,0.12173294275999069,0.26348578929901123,-0.714927613735199,0.028408813684461152,-0.6823830630672272,-0.246288834208042,0.17774876409399948,-0.03593127786208492,0.14416557483408154,0.7869029718032325,-1.25,0.0,0.0009319782257080078,0.000978231430053711,0
1.9896206855773926,0.12451545894145966,0.2690916955471039,-0.7218471169471741,0.028239237069694022,-0.6820216515298811,-0.24147080664076753,0.16815751575950907,-0.03574160714615605,0.14006318193860476,0.7876435139485587,-1.25,0.0,0.0012028217315673828,0.0012593269348144531,0
1.9994816780090332,0.12994050979614258,0.2802847921848297,-0.7355271577835083,0.027865862865262405,-0.6817029159523098,-0.23599317536296197,0.15461746121910827,-0.035468822528974014,0.13617802185802594,0.7883245184331356,-1.25,0.0,0.001241445541381836,0.001310586929321289,0
2.0094046592712402,0.13258183002471924,0.2858685851097107,-0.7422875165939331,0.027672580064656914,-0.6813893220623678,-0.23066677300876431,0.14298316736389766,-0.03520539238780613,0.13226509709023956,0.7889904588090464,-1.25,0.0,0.0011212825775146484,0.0011746883392333984,0
2.0195751190185547,0.13517451286315918,0.29144057631492615,-0.748992383480072,0.027448761110404864,-0.681094146182034,-0.22545651032889721,0.13286788548666245,-0.034937060112959814,0.12825120637621995,0.7896528528809633,-1.25,0.0,0.0016210079193115234,0.00170135498046875,0
2.0296170711517334,0.13771942257881165,0.2969997227191925,-0.7556362152099609,0.02720479055932159,-0.6808201864133763,-0.22035599397904754,0.12397659466699026,-0.03465773866079918,0.12428477834406056,0.7902868427804982,-1.25,0.0,0.001371145248413086,0.001443624496459961,0
2.0393848419189453,0.14021629095077515,0.3025461733341217,-0.7622233629226685,0.026956591095885576,-0.6805733559347191,-0.2153877029137937,0.11590755369707151,-0.03436913923670241,0.12042364108919566,0.7908844079047334,-1.25,0.0,0.0013065338134765625,0.0013675689697265625,0
2.049488067626953,0.14505359530448914,0.31359153985977173,-0.7752277851104736,0.026500645527500553,-0.6803874143654048,-0.2092015023618723,0.10390912705082984,-0.03399613834324706,0.1164268797107798,0.7914826477446057,-1.25,0.0,0.0011627674102783203,0.0012195110321044922,0
2.0592739582061768,0.1473921686410904,0.31908950209617615,-0.7816455960273743,0.026258759363082328,-0.6801951193628359,-0.20331337655975462,0.09361432702418693,-0.03364433116286326,0.11255282019010403,0.7920428414342586,-1.25,0.0,0.0011050701141357422,0.001155853271484375,0
2.069370746612549,0.14967846870422363,0.3245697021484375,-0.7880063652992249,0.025995133383290427,-0.6800133843981576,-0.19768361794926678,0.08471346836537495,-0.03329920781902095,0.10855285841185838,0.7926009569326895,-1.25,0.0,0.0010836124420166016,0.0011374950408935547,0
2.0794427394866943,0.15191210806369781,0.33003175258636475,-0.7943081259727478,0.025727148048847924,-0.6798513969758223,-0.1922376166812203,0.07684694079440034,-0.03295712520686088,0.10455996317270229,0.7931375757718979,-1.25,0.0,0.0011570453643798828,0.0012104511260986328,0
2.0893352031707764,0.15621651709079742,0.34089234471321106,-0.8067113757133484,0.02515278812234392,-0.6797539757536638,-0.18549014156663313,0.06570583167315443,-0.03250228273615723,0.10063565779853145,0.7936450493636666,-1.25,0.0,0.0009579658508300781,0.0010075569152832031,0
2.0992724895477295,0.15828479826450348,0.3462872803211212,-0.8128247261047363,0.024881703216229203,-0.6796500730897869,-0.17903129305654916,0.05618306073496033,-0.03208223702903007,0.09669109274048884,0.7941352734796826,-1.25,0.0,0.0009288787841796875,0.00096893310546875,0
2.109419107437134,0.16029638051986694,0.3516559302806854,-0.8188794851303101,0.0246017858311707,-0.6795493427231812,-0.17278956739698811,0.04796856125653186,-0.031683235724918886,0.09266097209972163,0.7946155952720376,-1.25,0.0,0.0012230873107910156,0.0012764930725097656,0
2.1192586421966553,0.1641477346420288,0.36231401562690735,-0.8308121562004089,0.024037359148071393,-0.6795081885836607,-0.16551883604469114,0.03698111105411858,-0.03119227425024342,0.08875054259895045,0.7950618473982964,-1.25,0.0,0.0009813308715820312,0.0010254383087158203,0
2.129472494125366,0.16598692536354065,0.36760327219963074,-0.8366895318031311,0.0237641546103611,-0.679450919065145,-0.1587730781842071,0.027841042526620625,-0.03074614923618162,0.08468908092121218,0.7955047200191339,-1.25,0.0,0.0011606216430664062,0.0012161731719970703,0
2.1394643783569336,0.1677677184343338,0.3728637099266052,-0.8425087928771973,0.023489768311776762,-0.6793921088901856,-0.1523713470651675,0.020057226150387426,-0.030330969028695476,0.0807137450261221,0.7959178923506233,-1.25,0.0,0.0022737979888916016,0.002351045608520508,0
2.1497347354888916,0.16948924958705902,0.3780941069126129,-0.8482520580291748,0.023203482706637215,-0.6793428078914182,-0.14621642700003915,0.013264782297071356,-0.02993298406764226,0.07662551827745197,0.796321875844631,-1.25,0.0,0.0014731884002685547,0.0015401840209960938,0
2.159721851348877,0.17275305092334747,0.3884628713130951,-0.8595612049102783,0.022594532889825627,-0.6793566678599376,-0.13880964080565453,0.0038127258618083273,-0.02942603615331444,0.0726481000350294,0.7966945798493299,-1.25,0.0,0.0011436939239501953,0.0011932849884033203,0
2.1692495346069336,0.17429517209529877,0.39359790086746216,-0.8651271462440491,0.022300500822870075,-0.6793589439173189,-0.13184379987997238,-0.004202679250333926,-0.028960912159150216,0.06885196324198793,0.7970316224327139,-1.25,0.0,0.0009238719940185547,0.0009715557098388672,0
2.179560422897339,0.17577619850635529,0.3986985981464386,-0.8706343173980713,0.022005359069002386,-0.6793600170575685,-0.1252060194024817,-0.010938860578283627,-0.02852464887814098,0.06474201444017855,0.7973759913404891,-1.25,0.0,0.0016314983367919922,0.0017156600952148438,0
2.189877510070801,0.17719769477844238,0.4037640690803528,-0.8760826587677002,0.02174309541295674,-0.6793635648391031,-0.11888386391959677,-0.016575617105682963,-0.02812091518185852,0.06062787246757778,0.7976993550706025,-1.25,0.0,0.0017464160919189453,0.001825094223022461,0
2.199298143386841,0.1798626184463501,0.41379043459892273,-0.8869144320487976,0.021239995681080502,-0.679429155894613,-0.11151254733761967,-0.024831166694795813,-0.027649638472539276,0.056869797225057375,0.7979760811976641,-1.25,0.0,0.0012023448944091797,0.001256704330444336,0
2.209491014480591,0.18110312521457672,0.41875043511390686,-0.8922380805015564,0.020954112773039737,-0.679487306710394,-0.10485466340210806,-0.03165714977673181,-0.027212538904009174,0.05280224260769602,0.7982555500437175,-1.25,0.0,0.0011870861053466797,0.0012407302856445312,0
2.2193410396575928,0.18228189647197723,0.4236753582954407,-0.8974997401237488,0.020662011211197283,-0.6795421349896182,-0.09870385861197227,-0.03737118655304225,-0.026797031817245055,0.048870199490444084,0.7985059195784113,-1.25,0.0,0.0013606548309326172,0.0014369487762451172,0
2.2297773361206055,0.1834011971950531,0.42856335639953613,-0.9027009606361389,0.020376886923116257,-0.6795941629960263,-0.09286949374561156,-0.04199748805824727,-0.026399254992040256,0.04470283080409693,0.79875005910366,-1.25,0.0,0.0021049976348876953,0.002194643020629883,0
2.239863395690918,0.18546433746814728,0.43822506070137024,-0.9129253029823303,0.01981237216717904,-0.6797024354145049,-0.08611638293405209,-0.04861511917654648,-0.025909118880018758,0.040674159095748466,0.7989653389114285,-1.25,0.0,0.0013725757598876953,0.0014524459838867188,0
2.2494256496429443,0.1864069402217865,0.4429996609687805,-0.9179312586784363,0.01954976111427189,-0.6798037291251232,-0.07995020847513418,-0.05401891242025513,-0.025467543625422626,0.036853754026487225,0.7991506746628918,-1.25,0.0,0.001222848892211914,0.0012750625610351562,0
2.259594440460205,0.18811345100402832,0.452428936958313,-0.9277636408805847,0.019021291752261218,-0.6799488791461944,-0.07298441603582713,-0.060976530829497756,-0.024960265635733992,0.03279009715816102,0.7993277234829019,-1.25,0.0,0.0011909008026123047,0.0012416839599609375,0
2.2696499824523926,0.18811345100402832,0.452428936958313,-0.9277636408805847,0.019021291752261218,-0.6800230247168298,-0.06790450396599453,-0.06369130800358493,-0.024605170603177063,0.028770862904266094,0.7994824810136517,-1.25,0.0,0.0014100074768066406,0.0014717578887939453,0
2.27933669090271,0.19120918214321136,0.46358639001846313,-0.9377936124801636,0.018528003626738145,-0.6801377605382548,-0.06313749953846544,-0.0673560240859955,-0.024171619792778907,0.02489836373691867,0.7996124508055288,-1.25,0.0,0.0011258125305175781,0.0011744499206542969,0
2.2897095680236816,0.19264361262321472,0.4690721035003662,-0.9427129626274109,0.0182909262765423,-0.6802368834326317,-0.05919919059233119,-0.0694043848643593,-0.023779230449815503,0.02075090660941824,0.7997308296388774,-1.25,0.0,0.0012500286102294922,0.0013058185577392578,0
2.299211025238037,0.19529081881046295,0.4798635244369507,-0.9523674249649048,0.01782478401500345,-0.6803633652270421,-0.055610098937683435,-0.07232486772732015,-0.02332975561339357,0.01695138260279785,0.799820386479273,-1.25,0.0,0.0010685920715332031,0.0011241436004638672,0
2.3095855712890625,0.19529081881046295,0.4798635244369507,-0.9523674249649048,0.01782478401500345,-0.6804414857330973,-0.0529610075987946,-0.07208867715460718,-0.023015123414154823,0.012802286431263181,0.7998975568547086,-1.25,0.0,0.0012288093566894531,0.0012831687927246094,0
2.3192663192749023,0.19764387607574463,0.4904109239578247,-0.9617819786071777,0.01734250414877916,-0.6805727440672046,-0.05012638714800995,-0.07311692241664097,-0.022614025593868593,0.008930348245432337,0.7999501539972447,-1.25,0.0,0.0011637210845947266,0.0012140274047851562,0
2.329418420791626,0.19871388375759125,0.49559393525123596,-0.9663974642753601,0.01713166092617182,-0.6806937975482636,-0.04777415100163534,-0.0732137229195227,-0.022254189431860937,0.00486966304654415,0.7999851788513417,-1.25,0.0,0.0010399818420410156,0.0010886192321777344,0
