time,x,y,z,yaw,throttle,roll_rate,pitch_rate,yaw_rate,x_ref,y_ref,z_ref,yaw_ref,pred_time,nr_time,metadata
9.5367431640625e-07,0.030278317630290985,-0.005696323234587908,0.08059924840927124,-0.02317596006702516,-0.7370412454436902,0.10647069456963475,-0.24386564022668195,0.008690985025134434,0.7368486466509158,0.3115350252037705,-1.25,0.0,0.0003647804260253906,0.00048828125,Sim
0.01002812385559082,0.030255043879151344,-0.005633733235299587,0.08022245019674301,-0.02317515977587359,-0.7635069140538215,0.18216664775762292,-0.4107059481586774,0.014774374433546702,0.7352774851292367,0.31522534774669553,-1.25,0.0,0.0003666877746582031,0.000457763671875,Linear
0.020033597946166992,0.03023848868906498,-0.005570766981691122,0.07986817508935928,-0.02317741143056029,-0.7841005955651441,0.23638163545286126,-0.5274941637110742,0.0190335913899428,0.7336913011678604,0.31889978769295535,-1.25,0.0,0.00037384033203125,0.0004725456237792969,1stOrderHold
0.02992415428161621,0.030225077643990517,-0.005448246840387583,0.0792260617017746,-0.02318329841648259,-0.800224551273279,0.27550808997609066,-0.6092459145977519,0.02201725087914093,0.7321052879612413,0.322524181014677,-1.25,0.0,0.0003657341003417969,0.0004596710205078125,QuatYawError
0.04007387161254883,0.03022899106144905,-0.005388105288147926,0.07893727719783783,-0.02320196833043786,-0.812910681592862,0.30414407061606047,-0.6664721402184264,0.024112813739312847,0.7304591029826949,0.3262353427661031,-1.25,0.0,0.00038933753967285156,0.0004971027374267578,0
0.0499882698059082,0.030238032341003418,-0.0053288755007088184,0.0786672905087471,-0.023191597467271396,-0.8229225602887922,0.3254308207301182,-0.7065304981528985,0.02557581866774577,0.7288329209918105,0.3298523507246014,-1.25,0.0,0.0003669261932373047,0.0004622936248779297,0
0.06002664566040039,0.030252382159233093,-0.005270320922136307,0.07841531932353973,-0.023159844509318628,-0.8308461360257202,0.34153909919263065,-0.7345713487070289,0.026588014758416524,0.7271681565562396,0.33350632991084345,-1.25,0.0,0.0003757476806640625,0.0004718303680419922,0
0.06991815567016602,0.03029779903590679,-0.005154540296643972,0.07798642665147781,-0.023133768139462774,-0.8371299665636137,0.3538779221158144,-0.7541999440949202,0.027286773383190105,0.7255098292527531,0.33709863194270184,-1.25,0.0,0.0003566741943359375,0.0004520416259765625,0
0.07996320724487305,0.030328713357448578,-0.00509594427421689,0.07779978960752487,-0.02313920471389297,-0.8421224794344548,0.36366380451680425,-0.7674761585754551,0.027777943135942937,0.7238075990480684,0.3407382566725825,-1.25,0.0,0.0003724098205566406,0.0004649162292480469,0
0.09027409553527832,0.03036383166909218,-0.005036210175603628,0.0776321291923523,-0.023137095264409435,-0.8460975800355165,0.37174937252760837,-0.7761692816156998,0.028120970919313593,0.7220413309026411,0.34446526162784963,-1.25,0.0,0.00038743019104003906,0.0005011558532714844,0
0.10025811195373535,0.030404791235923767,-0.004976086784154177,0.07748235017061234,-0.02313148999813519,-0.849261646186114,0.3786575059549908,-0.7816359239352917,0.02835898839282021,0.7203127679618005,0.34806539085523774,-1.25,0.0,0.00031948089599609375,0.00041747093200683594,0
0.10988330841064453,0.03050287812948227,-0.004859155043959618,0.07723262161016464,-0.023112909360663014,-0.8517813722901112,0.38460562999333003,-0.784871942280622,0.028518632885222776,0.7186293339420258,0.3515279226434801,-1.25,0.0,0.0003123283386230469,0.00039386749267578125,0
0.1203000545501709,0.03055996634066105,-0.00480256974697113,0.07713549584150314,-0.023117288057816765,-0.8537914209602772,0.3901292960104271,-0.7864247241268658,0.02863202604133723,0.7167887064934007,0.3552660274266561,-1.25,0.0,0.00023746490478515625,0.0003094673156738281,0
0.12997221946716309,0.030623076483607292,-0.00474668899551034,0.07705391943454742,-0.02312346920519603,-0.8553928781227748,0.39517695632101146,-0.7868614756368617,0.028713719180884573,0.7150622353861391,0.358728308786159,-1.25,0.0,0.0002675056457519531,0.00034689903259277344,0
0.14029765129089355,0.03069198876619339,-0.00469161756336689,0.07698734104633331,-0.02313378609396999,-0.8566718525415468,0.3999764595328512,-0.7864636913853975,0.028774773211857948,0.7132007017825095,0.36241517487121877,-1.25,0.0,0.0003497600555419922,0.00045943260192871094,0
0.1500232219696045,0.030843185260891914,-0.0045864274725317955,0.07689925283193588,-0.023155158781875684,-0.8576964611845515,0.4045471890766739,-0.7855527220958657,0.028825525791503947,0.711429929130771,0.36587901816992224,-1.25,0.0,0.0003573894500732422,0.0004596710205078125,0
0.16042137145996094,0.030925216153264046,-0.00453521404415369,0.07687899470329285,-0.02314489279065457,-0.8585158679534594,0.4090014031494821,-0.7842076946240413,0.028857202850548228,0.7095180902489109,0.36957283397124646,-1.25,0.0,0.0005099773406982422,0.0006539821624755859,0
0.1700277328491211,0.031099995598196983,-0.004434347618371248,0.07687823474407196,-0.023144704354582938,-0.8591686214899275,0.41326962693709657,-0.7826276163492242,0.02887930612835236,0.7077347875043449,0.37297650134583527,-1.25,0.0,0.00038123130798339844,0.0004930496215820312,0
0.18008089065551758,0.031099995598196983,-0.004434347618371248,0.07687823474407196,-0.023144704354582938,-0.8596905046507122,0.41753111032812185,-0.7808462113250915,0.028894778422815254,0.7058510586161256,0.3765292592223012,-1.25,0.0,0.00026345252990722656,0.0003409385681152344,0
0.1901414394378662,0.031290650367736816,-0.004340066574513912,0.0769062340259552,-0.02312333019902857,-0.8601093311568578,0.4218157497736198,-0.7787936872539737,0.028897593720606393,0.7039480908247085,0.38007510497827657,-1.25,0.0,0.0001614093780517578,0.00021982192993164062,0
0.20011401176452637,0.03139377012848854,-0.004294904880225658,0.07693833112716675,-0.02312370074221004,-0.8604421112612715,0.42599356475015804,-0.7766203282492841,0.028899703382753238,0.7020441843109223,0.3835804521547102,-1.25,0.0,0.000171661376953125,0.00023031234741210938,0
0.21010732650756836,0.031501561403274536,-0.00425018509849906,0.07698196917772293,-0.0231313828766484,-0.8607084488975537,0.4301363620658248,-0.7743609180817888,0.028904060946670414,0.7001188083876971,0.38708352346979463,-1.25,0.0,0.0003228187561035156,0.0004189014434814453,0
0.2202296257019043,0.03173070400953293,-0.004164427053183317,0.07710887491703033,-0.02312022123992286,-0.860931022708666,0.4342252985959359,-0.7719165655908882,0.028902925627640363,0.6981507622977079,0.3906219567601512,-1.25,0.0,0.0003261566162109375,0.00042510032653808594,0
0.23001384735107422,0.03185328468680382,-0.004121304024010897,0.07719185203313828,-0.02311520461904415,-0.8611156224475667,0.43822700070124454,-0.7693922028690422,0.02890024967148981,0.6962314497005763,0.3940326997189878,-1.25,0.0,0.0004019737243652344,0.0005183219909667969,0
0.24014067649841309,0.0319804809987545,-0.004078723024576902,0.07726024091243744,-0.02311112699402118,-0.861270016057062,0.44228823236748654,-0.7668676331637674,0.02889684739280081,0.6942273822815703,0.3975529419970105,-1.25,0.0,0.00028777122497558594,0.0003757476806640625,0
0.24985098838806152,0.03224622830748558,-0.00399845652282238,0.07743843644857407,-0.0230971727841629,-0.8614066630710302,0.4463309930733154,-0.7642267107219151,0.028889232969021652,0.6922890260000206,0.4009188253000135,-1.25,0.0,0.0001819133758544922,0.00023746490478515625,0
0.2601592540740967,0.03224622830748558,-0.00399845652282238,0.07743843644857407,-0.0230971727841629,-0.8615159666999798,0.4504382556691515,-0.7616339345190591,0.028883902872376244,0.6902134509259322,0.4044816338981485,-1.25,0.0,0.00035691261291503906,0.000461578369140625,0
0.2701859474182129,0.03252837434411049,-0.0039241500198841095,0.0776669904589653,-0.02307858088755044,-0.8616107550925767,0.45452511940046586,-0.7590060123518582,0.028873199843494787,0.6881769789953641,0.4079368156722488,-1.25,0.0,0.00035190582275390625,0.0004475116729736328,0
0.2800593376159668,0.03267330676317215,-0.003889645216986537,0.07779642194509506,-0.023069537772090424,-0.861686076865275,0.45861272630614675,-0.7564505513344625,0.02886231655498026,0.686154741747455,0.4113291508968011,-1.25,0.0,0.0003581047058105469,0.0004749298095703125,0
0.2903299331665039,0.032819196581840515,-0.003854910144582391,0.07793531566858292,-0.02306252387711982,-0.8617503036514027,0.46263568078808154,-0.7538906593204308,0.02885206804240611,0.6840334059873011,0.41484732070173974,-1.25,0.0,0.0003650188446044922,0.00046944618225097656,0
0.30005455017089844,0.03311799466609955,-0.00378137594088912,0.07822154462337494,-0.02306954507087555,-0.8618211177837818,0.46641334445446336,-0.7512681613610352,0.02884752703126261,0.6820082123228527,0.41816838513233734,-1.25,0.0,0.0003483295440673828,0.00044918060302734375,0
0.3097829818725586,0.03327247500419617,-0.0037415858823806047,0.07836731523275375,-0.02307402650870971,-0.8618809332274133,0.4701095548491619,-0.7486055788745614,0.028846028862649968,0.6799660907123218,0.42148086016022446,-1.25,0.0,0.00016498565673828125,0.00021886825561523438,0
0.3199043273925781,0.03343145176768303,-0.0037006030324846506,0.0785231813788414,-0.023080536381210326,-0.8619333296145174,0.47387403699030567,-0.7458564304090978,0.02884742134680885,0.6778244160226442,0.42491653420826236,-1.25,0.0,0.00015401840209960938,0.00021028518676757812,0
0.32985877990722656,0.03340527042746544,-0.0036132177338004112,0.07803303748369217,-0.023080575921267776,-0.8619663870716057,0.4776814209726198,-0.743176796775987,0.028848410913241612,0.6757011232427685,0.4282849425889976,-1.25,0.0,0.00018024444580078125,0.00023245811462402344,0
0.33994436264038086,0.03322667255997658,-0.003566501196473837,0.07740771770477295,-0.02309758793169614,-0.861980083594375,0.4815270318366761,-0.7405798695857214,0.02885548311365518,0.6735327893501446,0.43168690236120644,-1.25,0.0,0.00019788742065429688,0.000263214111328125,0
0.3501124382019043,0.03305898234248161,-0.003518639598041773,0.07681228220462799,-0.023086575570860912,-0.861977349193277,0.4853107581368698,-0.738089723868555,0.028856304018631467,0.6713293817532011,0.43510557476877376,-1.25,0.0,0.00024700164794921875,0.0003249645233154297,0
0.3602259159088135,0.03290078788995743,-0.003468845970928669,0.07623210549354553,-0.02305975933163262,-0.8619614135966024,0.4890873607551536,-0.7356853337997242,0.02884682256240426,0.6691205927328242,0.4384947347242314,-1.25,0.0,0.0003204345703125,0.00041747093200683594,0
0.3702661991119385,0.03275158628821373,-0.003418535925447941,0.07567977905273438,-0.02306153120569343,-0.8619345259203491,0.4928780516298253,-0.7332793721846905,0.028840849995818017,0.6669108648078801,0.44184827531767673,-1.25,0.0,0.0005807876586914062,0.0007278919219970703,0
0.38096022605895996,0.0326116569340229,-0.0033680922351777554,0.07515355199575424,-0.023087682541899746,-0.8618962543863672,0.4967432846568465,-0.7308490643923572,0.028846475950285017,0.6645387737318229,0.4454079233769928,-1.25,0.0,0.0005476474761962891,0.0006916522979736328,0
0.3901045322418213,0.032355573028326035,-0.0032653366215527058,0.0741734504699707,-0.02308477691572408,-0.8618354722900086,0.5004097381450109,-0.7286960060611121,0.028849324508596043,0.6624953616720984,0.44844163027417017,-1.25,0.0,0.0003619194030761719,0.0004706382751464844,0
0.400346040725708,0.032238081097602844,-0.003213773015886545,0.07372003048658371,-0.023079157978800335,-0.8617750638683741,0.504123474111313,-0.7265079494531588,0.028849211398067356,0.660190326328715,0.45182821184824756,-1.25,0.0,0.00046324729919433594,0.0006330013275146484,0
0.4103245735168457,0.032129183411598206,-0.0031621656380593777,0.07329025864601135,-0.023070254653829725,-0.8617156158592695,0.507839368104739,-0.72418030394225,0.028845793473833294,0.6579278273983998,0.45511643997423507,-1.25,0.0,0.0004134178161621094,0.0005412101745605469,0
0.420180082321167,0.03202883154153824,-0.003110462799668312,0.07288455963134766,-0.023071768095516806,-0.8616607911746728,0.5115276729920162,-0.7218698915786713,0.028843968467502108,0.6556771462975758,0.45835300786955396,-1.25,0.0,0.0002732276916503906,0.00035834312438964844,0
0.4299747943878174,0.031848859041929245,-0.003006396582350135,0.0721888467669487,-0.023072355465250993,-0.8615980875541612,0.5151677368131452,-0.7196517722548306,0.0288429112267206,0.65342457450587,0.4615585828817647,-1.25,0.0,0.00017976760864257812,0.00024008750915527344,0
0.4401712417602539,0.031768471002578735,-0.002953336341306567,0.07187167555093765,-0.023053188397342605,-0.8615358162823827,0.5188364018666227,-0.7173889815752906,0.028834983507707895,0.6510629639500158,0.4648838747177842,-1.25,0.0,0.0002391338348388672,0.0003180503845214844,0
0.45008301734924316,0.03169361129403114,-0.0028996579349040985,0.07157344371080399,-0.023040235927827002,-0.861476307318265,0.5224840505847252,-0.7151256665437109,0.028824576928330653,0.6487510657554143,0.46810474755252607,-1.25,0.0,0.00024175643920898438,0.0003173351287841797,0
0.4603574275970459,0.031624890863895416,-0.0028461613692343235,0.0712948888540268,-0.023029396245286108,-0.861421756719512,0.5261943324676246,-0.7127362406224088,0.02881322744181375,0.6463377656891985,0.4714313233588692,-1.25,0.0,0.00039124488830566406,0.0005080699920654297,0
0.4705066680908203,0.031507447361946106,-0.0027404529973864555,0.07079627364873886,-0.023032519353282765,-0.8613616264731939,0.5298587118262789,-0.7103256481429298,0.02880645396675066,0.6439371188653686,0.47470515791106394,-1.25,0.0,0.00045561790466308594,0.00058746337890625,0
0.4803297519683838,0.03145745396614075,-0.0026870674919337034,0.07055690139532089,-0.023035106295402397,-0.8613020952263856,0.5334584419957342,-0.7078848866683672,0.02880268263750136,0.641597827037174,0.4778621436577464,-1.25,0.0,0.0004451274871826172,0.000568389892578125,0
0.4905714988708496,0.031414054334163666,-0.002633500611409545,0.07033491879701614,-0.023030261937278418,-0.861247188530471,0.5371613209269896,-0.7053005459441003,0.028798226072730356,0.6391423537652503,0.4811414050187488,-1.25,0.0,0.0004892349243164062,0.0006337165832519531,0
0.5004620552062988,0.031377580016851425,-0.0025806280318647623,0.07012998312711716,-0.02303081820871533,-0.8611953260176854,0.5408532934423029,-0.7026540421777503,0.028795315079179498,0.636755170032427,0.48429624553260275,-1.25,0.0,0.0007152557373046875,0.0009784698486328125,0
0.5107936859130859,0.031321801245212555,-0.0024758565705269575,0.06977149844169617,-0.023054762251829786,-0.8611442041587848,0.5445527470638417,-0.7000010439578881,0.028802256399861816,0.6342449000852524,0.4875791286712839,-1.25,0.0,0.0004260540008544922,0.0005357265472412109,0
0.5200471878051758,0.031303033232688904,-0.0024248557165265083,0.06961795687675476,-0.023052744130609426,-0.86109743880919,0.5481603794780046,-0.6973234059484296,0.028806358528881804,0.6319822123665622,0.4905083926420277,-1.25,0.0,0.00018477439880371094,0.00024127960205078125,0
0.5299251079559326,0.03129131719470024,-0.00237445579841733,0.06947887688875198,-0.023061964066040108,-0.8610516320807666,0.551774786265337,-0.6945813675883257,0.0288126874949823,0.6295519127892755,0.49362373231375795,-1.25,0.0,0.00023055076599121094,0.0003027915954589844,0
0.5404298305511475,0.03128600865602493,-0.0023235557600855827,0.06935502588748932,-0.023048893181072394,-0.8610110479841383,0.5554580192249523,-0.6917391376845468,0.02881221618938976,0.6269505507244338,0.49692354235468583,-1.25,0.0,0.0004322528839111328,0.0005633831024169922,0
0.550163745880127,0.031291186809539795,-0.002222609706223011,0.06914372742176056,-0.023034313183854405,-0.8609708535751124,0.5591410709249218,-0.6889355040253079,0.028806418776518232,0.6245246290682696,0.49996898672531725,-1.25,0.0,0.00035262107849121094,0.00045418739318847656,0
0.5602688789367676,0.03130112215876579,-0.002173149958252907,0.0690607950091362,-0.023041251346090696,-0.8609367896164997,0.5627867156690733,-0.6861078402539259,0.028804962398346772,0.6219905416995175,0.5031180438389592,-1.25,0.0,0.00033473968505859375,0.0004336833953857422,0
0.5704853534698486,0.031315989792346954,-0.0021237037144601345,0.0689929723739624,-0.023039631517140172,-0.8609087624729823,0.5664675055566579,-0.6832271904282462,0.028803335497770303,0.6194123914153553,0.5062887410965317,-1.25,0.0,0.0007810592651367188,0.000993490219116211,0
0.5804581642150879,0.03133530914783478,-0.0020747361704707146,0.06894023716449738,-0.023042188627532493,-0.8608864796482212,0.5700787606726554,-0.680349695306233,0.028803155583763895,0.6168801403857507,0.5093710753445434,-1.25,0.0,0.0006837844848632812,0.0008962154388427734,0
0.5908174514770508,0.03135865181684494,-0.002025100402534008,0.06890165060758591,-0.023034064123862663,-0.8608663199511546,0.5736702200139334,-0.6774383088563604,0.028799982955083223,0.6142335165066993,0.5125594474788406,-1.25,0.0,0.0004971027374267578,0.00064849853515625,0
0.6001064777374268,0.03141854330897331,-0.0019256260711699724,0.06885134428739548,-0.023043016606825173,-0.8608425213898764,0.5771259712168018,-0.674478008210943,0.028801119296117693,0.6118463110237643,0.5154067245259913,-1.25,0.0,0.0003838539123535156,0.0005021095275878906,0
0.6101665496826172,0.031457286328077316,-0.001875073998235166,0.06883982568979263,-0.02306089530028732,-0.8608253564737598,0.5805862211124166,-0.6714380674456044,0.02880861924489013,0.6092460673656267,0.5184778002957486,-1.25,0.0,0.00035834312438964844,0.0004608631134033203,0
0.6204221248626709,0.03150193393230438,-0.0018235427560284734,0.06884248554706573,-0.023071257699620595,-0.860812583071104,0.5840466234506432,-0.6683191702211451,0.02881775510878081,0.6065794251835883,0.5215950545623949,-1.25,0.0,0.00046372413635253906,0.0006053447723388672,0
0.6304447650909424,0.031550757586956024,-0.0017713203560560942,0.068857342004776,-0.023069698780429526,-0.8608003570850303,0.5875115344135243,-0.6652479618119828,0.02882356561880764,0.6039579397372681,0.5246282560330834,-1.25,0.0,0.0007376670837402344,0.0009169578552246094,0
0.6401290893554688,0.03166045621037483,-0.0016659799730405211,0.06892476975917816,-0.02307360483388532,-0.8607952085999613,0.5909002701921193,-0.6621405612818045,0.02882909774587234,0.6014105342430016,0.5275465565251539,-1.25,0.0,0.00043511390686035156,0.0005536079406738281,0
0.6504476070404053,0.03172281011939049,-0.001613963977433741,0.06897695362567902,-0.02308446312791412,-0.8607920433087108,0.5943829533493333,-0.6589910325129397,0.028837042095078435,0.5986807929404316,0.5306423542879103,-1.25,0.0,0.00040984153747558594,0.0005333423614501953,0
0.6601228713989258,0.031855762004852295,-0.0015112285036593676,0.06910119205713272,-0.02306218405801852,-0.8608001829979663,0.5977958572747816,-0.6559426597390449,0.02883424848831185,0.5961067450689171,0.5335323312446407,-1.25,0.0,0.00044798851013183594,0.0005640983581542969,0
0.6703190803527832,0.031855762004852295,-0.0015112285036593676,0.06910119205713272,-0.02306218405801852,-0.8608066946997216,0.6012719401612034,-0.6528308561886301,0.02883229296357524,0.5933790066950011,0.5365643991299217,-1.25,0.0,0.0004131793975830078,0.0005369186401367188,0
0.6800916194915771,0.03199900686740875,-0.0014098364626988769,0.06925569474697113,-0.02305294256544199,-0.8608184643748746,0.6047007767145297,-0.6496917482717615,0.028827458536543414,0.5907501351975427,0.5394573919820591,-1.25,0.0,0.00046539306640625,0.0005886554718017578,0
0.6902713775634766,0.03207787126302719,-0.0013588001020252705,0.06935165822505951,-0.023036201230581366,-0.8608342944240447,0.6080969741561547,-0.6464615734047909,0.0288177964370484,0.5879967219564757,0.5424572379169064,-1.25,0.0,0.0003809928894042969,0.0004930496215820312,0
0.7004406452178955,0.032160915434360504,-0.0013064093654975295,0.06945961713790894,-0.023029921913785497,-0.8608499954634957,0.6114789297744777,-0.643210545349239,0.028808678223603442,0.5852309365489825,0.545439960862789,-1.25,0.0,0.00040030479431152344,0.0005230903625488281,0
0.7102899551391602,0.03224746510386467,-0.0012537282891571522,0.06957654654979706,-0.023034212344674287,-0.8608602628688055,0.6148166174938196,-0.6399453074175411,0.028803904385775268,0.5825377472350453,0.5483153955948333,-1.25,0.0,0.0005292892456054688,0.0006921291351318359,0
0.7200119495391846,0.032429467886686325,-0.0011450217571109533,0.06982024013996124,-0.0230477811767531,-0.8608751918531189,0.6179669029040382,-0.6367398753045398,0.028805651011325102,0.5798655156648528,0.551140620661129,-1.25,0.0,0.00029778480529785156,0.0003771781921386719,0
0.7301583290100098,0.032523345202207565,-0.0010895428713411093,0.06994696706533432,-0.02303997555079418,-0.8608887990294947,0.6212083096830019,-0.6335488471372792,0.02880394653947539,0.577062024662013,0.554075283416413,-1.25,0.0,0.0002639293670654297,0.0003464221954345703,0
0.7402362823486328,0.03236939385533333,-0.001166022033430636,0.0696789026260376,-0.02303893052669137,-0.8608899855690165,0.6245321388170748,-0.6304123928034552,0.028802361525142036,0.5742627378931997,0.5569760388628996,-1.25,0.0,0.0003788471221923828,0.0005054473876953125,0
0.750551700592041,0.032224610447883606,-0.0012385861482471228,0.06942956894636154,-0.023046207108806005,-0.8608832602630329,0.6278835942483048,-0.627273802229312,0.028803980733401676,0.5713823919924057,0.5599304975807595,-1.25,0.0,0.00038552284240722656,0.00048828125,0
0.7603487968444824,0.03196142986416817,-0.0013704306911677122,0.06898869574069977,-0.02304708857886517,-0.860868146436146,0.6311663554594186,-0.6242069946814186,0.028805444730455612,0.5686327011045167,0.562722712563285,-1.25,0.0,0.000232696533203125,0.0003046989440917969,0
0.7699885368347168,0.03184276446700096,-0.0014303962234407663,0.06879617273807526,-0.023073538687891304,-0.8608498713710488,0.6344552677269468,-0.6211820809472807,0.028816388319278165,0.5659138563060154,0.5654569013115452,-1.25,0.0,0.0002536773681640625,0.0003113746643066406,0
0.7799370288848877,0.03173172101378441,-0.001486480119638145,0.06862110644578934,-0.02309032811770928,-0.8608304306662126,0.6377475583356664,-0.6181329715163375,0.028830344867635693,0.563094144937761,0.5682648888826511,-1.25,0.0,0.00015616416931152344,0.0002148151397705078,0
0.7900910377502441,0.031628720462322235,-0.001539342338219285,0.06844183802604675,-0.023112503708295318,-0.8608084906332432,0.6410605155023678,-0.6150305100752593,0.028848430297955727,0.5602018168378239,0.5711163842962319,-1.25,0.0,0.00017404556274414062,0.00023365020751953125,0
0.7999401092529297,0.03144467622041702,-0.0016317694680765271,0.06813694536685944,-0.023136661115948254,-0.8607867066455528,0.6442750546961004,-0.6119404260018343,0.028870149127049605,0.5573825524247077,0.5738681819481876,-1.25,0.0,0.00016689300537109375,0.0002224445343017578,0
0.8101503849029541,0.03136453032493591,-0.0016739177517592907,0.06800932437181473,-0.02312363129431283,-0.860762821416579,0.64758482435704,-0.6087744179301339,0.028880466124302034,0.5544456256314848,0.5767062061553625,-1.25,0.0,0.0001850128173828125,0.00024700164794921875,0
0.8200538158416748,0.0312918946146965,-0.0017143536824733019,0.06789656728506088,-0.02313829603000794,-0.8607388262389064,0.6508809173999595,-0.6055740700239136,0.0288931872982644,0.5515831549121496,0.5794445816617493,-1.25,0.0,0.00016045570373535156,0.00021791458129882812,0
0.8299858570098877,0.03122539632022381,-0.001750801457092166,0.06779795140028,-0.023146600474583945,-0.8607125312364927,0.6541082096697937,-0.6023896984761867,0.028905206286754057,0.548698831638049,0.5821765987731214,-1.25,0.0,0.0001761913299560547,0.00023674964904785156,0
0.8399085998535156,0.03110806830227375,-0.0018144311616197228,0.06763685494661331,-0.02314693353550323,-0.8606818942970464,0.6573685056609062,-0.5993642379802651,0.02891374447654155,0.5458036959945302,0.5848917211234148,-1.25,0.0,0.000202178955078125,0.0002665519714355469,0
0.8499994277954102,0.03105560503900051,-0.0018433122895658016,0.0675748661160469,-0.023141352001684545,-0.8606562271117827,0.6606643482350585,-0.5962692284700852,0.02891762813421079,0.5428457406236947,0.5876380704878748,-1.25,0.0,0.00017595291137695312,0.0002491474151611328,0
0.860051155090332,0.03100747987627983,-0.001869947649538517,0.06752775609493256,-0.023147349492807834,-0.8606359970953789,0.6639557211876781,-0.5931441345923094,0.028922595753750488,0.5398855083020317,0.5903589060270513,-1.25,0.0,0.00017070770263671875,0.00024080276489257812,0
0.8699378967285156,0.03092934750020504,-0.001918833702802658,0.06747647374868393,-0.023146555650479073,-0.8606176049904043,0.6672357025763023,-0.5898764651925023,0.028925775396554994,0.5369605606444172,0.5930205361641645,-1.25,0.0,0.00016236305236816406,0.0002193450927734375,0
0.8798685073852539,0.03089986927807331,-0.0019405933562666178,0.06746990978717804,-0.023149363692549496,-0.8606017310946188,0.6704653506576985,-0.5866383058959609,0.028929054162294555,0.5340094255473136,0.5956793881163156,-1.25,0.0,0.0001590251922607422,0.00021576881408691406,0
0.8900725841522217,0.030874036252498627,-0.0019598621875047684,0.06747660785913467,-0.02316062259076279,-0.8605906853762132,0.6736887903351432,-0.5833461171034785,0.028935571385142234,0.5309633093002085,0.5983961598949071,-1.25,0.0,0.0001723766326904297,0.00022983551025390625,0
0.9000217914581299,0.03085322491824627,-0.0019752292428165674,0.06749588251113892,-0.023164320769432756,-0.8605805709281373,0.67682268379438,-0.5800020384484875,0.028941520258136847,0.5279799680784485,0.6010300768745942,-1.25,0.0,0.0001666545867919922,0.00022745132446289062,0
0.9101011753082275,0.0308363139629364,-0.001987283583730459,0.06753048300743103,-0.023155218957573886,-0.8605784644180152,0.6798954038816546,-0.5766685073625705,0.028942271289786,0.5249442695413107,0.6036832893792404,-1.25,0.0,0.00023221969604492188,0.00030303001403808594,0
0.9200918674468994,0.03081447444856167,-0.002005147049203515,0.06763751059770584,-0.023137786274133095,-0.8605750965440184,0.6829968240571697,-0.573303053773707,0.02893625975565011,0.5219221255560564,0.606298024782407,-1.25,0.0,0.0001952648162841797,0.0002598762512207031,0
0.9299869537353516,0.030811237171292305,-0.002013008575886488,0.06770636886358261,-0.0231346762011988,-0.8605730471056955,0.6860881702306484,-0.5698659868013979,0.028930885404404628,0.5189160643183174,0.6088728259598946,-1.25,0.0,0.00021409988403320312,0.00028324127197265625,0
0.9399380683898926,0.030822791159152985,-0.0020181925501674414,0.06787633895874023,-0.02317169501328653,-0.8605760795370098,0.6890039379574309,-0.5663849448121876,0.028941005413065688,0.5158801719933618,0.6114471752687223,-1.25,0.0,0.00023865699768066406,0.0003101825714111328,0
0.9500231742858887,0.030822791159152985,-0.0020181925501674414,0.06787633895874023,-0.02317169501328653,-0.8605785054751686,0.6919748156357644,-0.5628404671479821,0.02894808941912843,0.5127903715872145,0.6140407436053787,-1.25,0.0,0.0005307197570800781,0.0006194114685058594,0
0.9598658084869385,0.03085397370159626,-0.0020111475605517626,0.0680568739771843,-0.02320654512132858,-0.8605845900795781,0.6949132948852413,-0.559280558890122,0.02896611701388812,0.5097622848580259,0.6165569016208682,-1.25,0.0,0.00016617774963378906,0.00022459030151367188,0
0.9699981212615967,0.03087550774216652,-0.0020047486759722233,0.06814809143543243,-0.02320422479074402,-0.8605962648126451,0.6978600768294334,-0.5556992845158748,0.02897786620625069,0.5066321827840315,0.6191315137896695,-1.25,0.0,0.00026679039001464844,0.00035500526428222656,0
0.9801204204559326,0.030899304896593094,-0.001995624043047428,0.0682518482208252,-0.023198390487518147,-0.8606114284277097,0.7007916105670364,-0.5521550326766342,0.02898390277719479,0.5034921902126125,0.6216877145278862,-1.25,0.0,0.00039505958557128906,0.0005042552947998047,0
0.9901330471038818,0.030956078320741653,-0.0019704767037183046,0.06849144399166107,-0.02319152819217596,-0.8606288784820129,0.7037283204216699,-0.5485991693625987,0.028985555016102338,0.5003735301821746,0.6242005529419439,-1.25,0.0,0.00015592575073242188,0.000209808349609375,0
1.000032901763916,0.030991313979029655,-0.0019552535377442837,0.06862561404705048,-0.023197942086896184,-0.8606442829988056,0.7066566665611124,-0.5449982263977263,0.028989116793857704,0.4972776654144213,0.6266697084429588,-1.25,0.0,0.0003077983856201172,0.0004057884216308594,0
1.0099961757659912,0.031030669808387756,-0.0019378262804821134,0.06876841187477112,-0.023209554842375635,-0.8606588578626381,0.7095470756109695,-0.5413961675227883,0.028995964821591256,0.4941496669353471,0.6291391790913086,-1.25,0.0,0.0003612041473388672,0.000469207763671875,0
1.0200862884521484,0.03107314184308052,-0.0019182449905201793,0.06892026960849762,-0.023217918294675233,-0.8606729069709295,0.7124284381169262,-0.5377974356234578,0.02900389473561709,0.49096934911181594,0.6316241748324076,-1.25,0.0,0.0002200603485107422,0.00028824806213378906,0
1.0298945903778076,0.031165147200226784,-0.0018767769215628505,0.06919864565134048,-0.023217030665617422,-0.8606930953797749,0.7153052158739985,-0.534237558912951,0.029009112814538496,0.4878658771575333,0.6340243575015952,-1.25,0.0,0.00025963783264160156,0.0003325939178466797,0
1.0400657653808594,0.03121529519557953,-0.0018529739463701844,0.06935322284698486,-0.02320518156275364,-0.8607156525660589,0.7181440908560391,-0.5305949802520281,0.02900832205620956,0.48463519583533005,0.636497232482319,-1.25,0.0,0.00023889541625976562,0.0003123283386230469,0
1.050206184387207,0.03126826882362366,-0.0018261102959513664,0.06951799243688583,-0.023204840716506858,-0.8607398715896217,0.7209377650220108,-0.5269110360696871,0.029007640708036762,0.481401806094219,0.6389462427225189,-1.25,0.0,0.00027060508728027344,0.00035572052001953125,0
1.0602312088012695,0.0313238799571991,-0.001797475735656917,0.06969258934259415,-0.023206526893438276,-0.8607651534482668,0.7237506144194847,-0.5231785295642524,0.029007796080665088,0.47819304599989,0.6413512382129992,-1.25,0.0,0.0003306865692138672,0.00043654441833496094,0
1.070192813873291,0.031381357461214066,-0.0017662711907178164,0.0698765218257904,-0.0232005234187751,-0.8607909985235825,0.7264546748656343,-0.5194732443796162,0.02900565353850622,0.4749926837458183,0.6437250580705594,-1.25,0.0,0.0002243518829345703,0.0002956390380859375,0
1.0801289081573486,0.0315038226544857,-0.0016989029245451093,0.0702342689037323,-0.02319437807913838,-0.8608217274656427,0.7291714489680627,-0.5156273871450029,0.029001849256631247,0.47178877871416813,0.646076890377139,-1.25,0.0,0.0003039836883544922,0.00040721893310546875,0
1.1196939945220947,0.031571440398693085,-0.0016645991709083319,0.07040883600711823,-0.023185658256729802,-0.8608508145489607,0.7343544672202591,-0.5082649833731837,0.028995916325915548,0.45891625433011174,0.6552830468672453,-1.25,0.0,0.00016951560974121094,0.00022363662719726562,0
1.1205265522003174,0.031571440398693085,-0.0016645991709083319,0.07040883600711823,-0.023185658256729802,-0.8608740835816487,0.7380510498388201,-0.503013489842868,0.028991763274414557,0.45864343410959485,0.6554740272109627,-1.25,0.0,0.00014829635620117188,0.00019049644470214844,0
1.130033016204834,0.03195899352431297,-0.0014832658926025033,0.07141055911779404,-0.02317703248299141,-0.8609197176940434,0.7413348362518448,-0.4981490849270264,0.02898562147321197,0.45552264461379166,0.6576466530318977,-1.25,0.0,0.00018334388732910156,0.0002415180206298828,0
1.1399495601654053,0.031544044613838196,-0.0016547158593311906,0.07059311866760254,-0.023168462345011243,-0.8609388266702886,0.7445703831015017,-0.4938007313830682,0.028978108410627593,0.4522562676240356,0.6598971650149565,-1.25,0.0,0.00017976760864257812,0.00023293495178222656,0
1.1499872207641602,0.031544044613838196,-0.0016547158593311906,0.07059311866760254,-0.023168462345011243,-0.8609541135776921,0.7476460455238471,-0.48956746764439174,0.02897284926681853,0.44893867378936236,0.6621586420007283,-1.25,0.0,0.0001976490020751953,0.0002582073211669922,0
1.1600430011749268,0.03116738423705101,-0.0018155804136767983,0.06987060606479645,-0.023193244929187617,-0.8609548620471655,0.7507651165065841,-0.48557173134933235,0.02897846133521833,0.44560375236489397,0.6644074772895969,-1.25,0.0,0.0002644062042236328,0.00034689903259277344,0
1.1701178550720215,0.030992288142442703,-0.0018916302360594273,0.06954426318407059,-0.023198564197024485,-0.8609504280614311,0.7537926412760668,-0.4816887470577467,0.02898438450853701,0.4422512086539621,0.6666437342719945,-1.25,0.0,0.00029659271240234375,0.0003845691680908203,0
1.1803526878356934,0.030825795605778694,-0.0019640144892036915,0.06924012303352356,-0.023211102750624768,-0.8609402426742452,0.7567249019869023,-0.4778289311875782,0.028993232687460194,0.4388339391636086,0.6688981789765542,-1.25,0.0,0.0005288124084472656,0.0006389617919921875,0
1.190133810043335,0.030669279396533966,-0.0020290929824113846,0.068942591547966,-0.023205341317565242,-0.860840310500536,0.7591157296410416,-0.47390917282479705,0.0289972658753091,0.4355574168730919,0.6710363154158199,-1.25,0.0,0.000293731689453125,0.00038552284240722656,0
1.200035572052002,0.030421176925301552,-0.002078077755868435,0.06804433465003967,-0.023116842180106456,-0.8599911274897694,0.7573922094100258,-0.46807960205277205,0.028966901930256292,0.43222987148629227,0.673184475604528,-1.25,0.0,0.000209808349609375,0.0002758502960205078,0
1.2100205421447754,0.030349034816026688,-0.002038594102486968,0.06730792671442032,-0.023032449834166524,-0.8587785944857368,0.75337184252807,-0.46113536673176675,0.02891400003899185,0.4288636353864214,0.6753339782975107,-1.25,0.0,0.00016188621520996094,0.00022101402282714844,0
1.2201428413391113,0.030310731381177902,-0.00195655832067132,0.06633982062339783,-0.022957587602076668,-0.8572337265043879,0.7471371691107873,-0.4531453836129366,0.028848895378073044,0.42544019097646074,0.6774958626456051,-1.25,0.0,0.00025916099548339844,0.0003390312194824219,0
1.2302451133728027,0.03030233643949032,-0.0018353729974478483,0.06512875109910965,-0.022844477377239155,-0.8554039051344594,0.7385686723996638,-0.44408448125503214,0.028760905781115814,0.4220126544516939,0.6796361669913067,-1.25,0.0,0.00036334991455078125,0.00046825408935546875,0
1.2401535511016846,0.03036273643374443,-0.0014905104180797935,0.061967846006155014,-0.022601881106943722,-0.8527378846381979,0.7216153521664717,-0.43064499663832534,0.028608339461884964,0.41864042291717213,0.681718560917723,-1.25,0.0,0.00024080276489257812,0.00032448768615722656,0
1.2499194145202637,0.03042631223797798,-0.001272500609047711,0.06002279743552208,-0.02247898235707879,-0.8500009272664578,0.7038202026806191,-0.4164238405841741,0.02845545600722402,0.41530666015078305,0.6837546182910957,-1.25,0.0,0.00017142295837402344,0.00022840499877929688,0
1.260258674621582,0.030509700998663902,-0.0010231399210169911,0.057837557047605515,-0.022324574011256097,-0.8472052873312191,0.6848456981943992,-0.4011876622434942,0.02829053445927785,0.41176636793478255,0.6858924538422896,-1.25,0.0,0.0003037452697753906,0.0003991127014160156,0
1.2699971199035645,0.03061506524682045,-0.0007380035822279751,0.05540015920996666,-0.022200979709049662,-0.8443584937000714,0.6644531670835861,-0.38480934093333896,0.028128741512388117,0.408421736723964,0.6878892970321469,-1.25,0.0,0.00021386146545410156,0.00028514862060546875,0
1.2801544666290283,0.030896618962287903,-4.151774191996083e-05,0.04981955513358116,-0.02204888757618173,-0.8408696009389579,0.6344290828296956,-0.3622375008897914,0.02795845189973983,0.4049229195089005,0.6899546573916207,-1.25,0.0,0.00031638145446777344,0.0004253387451171875,0
1.2902493476867676,0.03107514977455139,0.00037385779432952404,0.046684589236974716,-0.021997016732052895,-0.8374727415352585,0.6055525816312066,-0.3401448988349606,0.027819797604337716,0.40143527116518735,0.6919896842182928,-1.25,0.0,0.0002269744873046875,0.0003132820129394531,0
1.2999000549316406,0.031520601361989975,0.001366482232697308,0.039745308458805084,-0.021942747334541934,-0.8335653085455914,0.5682449968980022,-0.31262425735910265,0.027702388573489625,0.39809151568577406,0.6939186876997931,-1.25,0.0,0.0002307891845703125,0.00029921531677246094,0
1.3102481365203857,0.031520601361989975,0.001366482232697308,0.039745308458805084,-0.021942747334541934,-0.8304275472482414,0.5428648082243559,-0.2920706946198402,0.027620202251895962,0.3944958395250277,0.6959691319285962,-1.25,0.0,0.00035119056701660156,0.0004596710205078125,0
1.320051670074463,0.03210264444351196,0.002596898702904582,0.03198214992880821,-0.021953411859612526,-0.8267629277207884,0.5078315167367563,-0.26562316657717855,0.02756667102368187,0.39107963548881286,0.6978944896658357,-1.25,0.0,0.0002434253692626953,0.0003273487091064453,0
1.3300459384918213,0.03244960680603981,0.003312778891995549,0.02780919149518013,-0.02196788188545673,-0.8232561369683432,0.47472334677383077,-0.24023736252823671,0.02753462542362358,0.38758729469179415,0.6998400452914197,-1.25,0.0,0.00034618377685546875,0.00044274330139160156,0
1.3404462337493896,0.03283817321062088,0.00410270132124424,0.023439515382051468,-0.02200300508873454,-0.8198844695031026,0.4428926838695396,-0.2156022077258226,0.02752536470481196,0.38394279907567835,0.7018460850057748,-1.25,0.0,0.000743865966796875,0.0009520053863525391,0
1.3504645824432373,0.03326902538537979,0.004969198722392321,0.01887918822467327,-0.022051821020571793,-0.816628740849083,0.4120265226507315,-0.19156279403975432,0.027537188176082795,0.380422327470392,0.7037605081005966,-1.25,0.0,0.0007426738739013672,0.0009129047393798828,0
1.3600060939788818,0.03427034616470337,0.006942206993699074,0.00920933112502098,-0.02218672176710701,-0.8129439391291773,0.3724614285507274,-0.16243357168846367,0.027596052385923085,0.3770605414843418,0.7055673944107217,-1.25,0.0,0.0003063678741455078,0.0003998279571533203,0
1.3701035976409912,0.03484915941953659,0.008056983351707458,0.004112880676984787,-0.02228674731407443,-0.8094636763114675,0.3360815862874681,-0.13517240818510023,0.02767476691292407,0.37349351633674954,0.7074620790221977,-1.25,0.0,0.0002620220184326172,0.00034618377685546875,0
1.380300521850586,0.03548088297247887,0.009261960163712502,-0.0011500443797558546,-0.022404101890061145,-0.8061545329954615,0.3019344478003312,-0.10935740932332019,0.02777387504781978,0.3698817090193362,0.7093571183352819,-1.25,0.0,0.0004165172576904297,0.0005388259887695312,0
1.3903326988220215,0.036166511476039886,0.010561345145106316,-0.00657034944742918,-0.02251797352470719,-0.8029908280443564,0.26934592480365954,-0.0846828837975748,0.02788595260523904,0.3663188725535039,0.7112035458370056,-1.25,0.0,0.00029754638671875,0.0004029273986816406,0
1.4006717205047607,0.037707310169935226,0.013456943444907665,-0.01787605881690979,-0.022722833563709518,-0.7994587397997976,0.22866272767554463,-0.055626738916698365,0.028041229410058398,0.36263741977522557,0.713087723761086,-1.25,0.0,0.0009377002716064453,0.0011470317840576172,0
1.4104423522949219,0.03856336325407028,0.015056558884680271,-0.02374877780675888,-0.022815901738076683,-0.7961446612142367,0.19169584645085033,-0.029011484793372445,0.028184823738819635,0.3591494474405612,0.7148508056952441,-1.25,0.0,0.0008077621459960938,0.0010077953338623047,0
1.4204740524291992,0.03947831690311432,0.016758674755692482,-0.02975902147591114,-0.022906899765220867,-0.793015483980784,0.157561326964625,-0.004134411815661508,0.028319464029131568,0.3555593601471578,0.7166432455634699,-1.25,0.0,0.000993490219116211,0.0012443065643310547,0
1.43037748336792,0.04045460373163223,0.018564412370324135,-0.03590106964111328,-0.022951477676615095,-0.7900437657858659,0.1255740758055381,0.019403653853304868,0.028430428949122757,0.35200640214628137,0.7183950813083498,-1.25,0.0,0.0005061626434326172,0.0006277561187744141,0
1.4400639533996582,0.04259921610355377,0.02249589003622532,-0.048572950065135956,-0.023048027446990194,-0.7867542047074698,0.08647818791660636,0.04664073902385722,0.028544310557007253,0.3485229310498536,0.720091498722502,-1.25,0.0,0.00020885467529296875,0.00027489662170410156,0
1.4501469135284424,0.04377097636461258,0.02462686225771904,-0.055088382214307785,-0.02309166529660578,-0.7836754313458306,0.051388643405158946,0.07157066280741295,0.028640391876132244,0.3448881903820079,0.7218394115972222,-1.25,0.0,0.00037980079650878906,0.0004818439483642578,0
1.4601924419403076,0.04631374776363373,0.029220351949334145,-0.0684533342719078,-0.02309492602663399,-0.7803529817781888,0.01135519545063983,0.0989401373521817,0.028708871573280316,0.34125822602952094,0.7235625910501348,-1.25,0.0,0.0007109642028808594,0.0008974075317382812,0
1.4702370166778564,0.04768406227231026,0.03168492019176483,-0.07529119402170181,-0.023054219772125517,-0.7772779649706512,-0.023813488154660944,0.12345148857826829,0.02874154251584329,0.33761999821237754,0.7252673553987345,-1.25,0.0,0.0006477832794189453,0.0008034706115722656,0
1.4805591106414795,0.049119848757982254,0.03426186367869377,-0.08222442865371704,-0.023015904308079982,-0.7744115542196953,-0.05532279837598965,0.14576008955108583,0.028750043876620297,0.3338723794523794,0.727000161099574,-1.25,0.0,0.0006546974182128906,0.0008375644683837891,0
1.4903943538665771,0.05062069743871689,0.03695070371031761,-0.0892658457159996,-0.022949375401009497,-0.771713820140451,-0.08406059921201928,0.16629188376612172,0.02873104648901277,0.3302932451471728,0.7286332220055229,-1.25,0.0,0.0005245208740234375,0.0006563663482666016,0
1.5003635883331299,0.052187543362379074,0.039752449840307236,-0.09639554470777512,-0.022818461276243873,-0.7691616540280288,-0.11065067296707098,0.18551725955983464,0.02866865552090039,0.326657199180165,0.7302705486487663,-1.25,0.0,0.0006005764007568359,0.000804901123046875,0
1.5104572772979736,0.05382120981812477,0.04266808182001114,-0.10360937565565109,-0.02268820572532304,-0.766729693577891,-0.13554314576839693,0.20363932170027277,0.028576136011626414,0.32296749286161863,0.7319098295245667,-1.25,0.0,0.0004248619079589844,0.0005671977996826172,0
1.520277500152588,0.057284165173769,0.04884015768766403,-0.1182713508605957,-0.02231549984572156,-0.7640432332714333,-0.16532818399481752,0.22371033917870825,0.028371607650284073,0.3193698552491469,0.7334868066694445,-1.25,0.0,0.0006282329559326172,0.0008513927459716797,0
1.530716896057129,0.059110794216394424,0.05209629237651825,-0.12570931017398834,-0.022095027547585744,-0.7615335774046266,-0.19169634189712254,0.24182534526535893,0.028145760685543506,0.31553694240606095,0.7351438212873956,-1.25,0.0,0.0011925697326660156,0.00133514404296875,0
1.5400946140289307,0.06035402789711952,0.05443378910422325,-0.13329724967479706,-0.021833462977046025,-0.7591662384711396,-0.214967014743272,0.25794112412314574,0.027889581096272712,0.31208650072786387,0.7366152428937628,-1.25,0.0,0.0003578662872314453,0.0004668235778808594,0
1.550370454788208,0.06167309358716011,0.05690375715494156,-0.14092563092708588,-0.021534866785507756,-0.7569221533017529,-0.23571643271669918,0.2726358473663445,0.027598281811956307,0.3082977276549563,0.7382089887848768,-1.25,0.0,0.0003154277801513672,0.00041484832763671875,0
1.560373306274414,0.06453512609004974,0.06223399192094803,-0.15634772181510925,-0.020838994174785075,-0.7544584568265013,-0.2589455381227681,0.2877639840413832,0.02713342008391382,0.3046017896955141,0.7397416776918074,-1.25,0.0,0.0005199909210205078,0.0006704330444335938,0
1.5700318813323975,0.06607579439878464,0.0650910958647728,-0.16413614153862,-0.02044485657941264,-0.7521587132699176,-0.2790341445120046,0.3012028946918363,0.026660215276019413,0.3010258263654596,0.74120405548067,-1.25,0.0,0.00029015541076660156,0.00037860870361328125,0
1.5804345607757568,0.06768783926963806,0.06807506829500198,-0.17197057604789734,-0.020049329260057203,-0.7500023694684194,-0.2966744545118838,0.31332294404669103,0.02618064916573504,0.2971665176957186,0.7427597597881836,-1.25,0.0,0.00039505958557128906,0.0005209445953369141,0
1.590301275253296,0.0711195096373558,0.07441335171461105,-0.18776379525661469,-0.019155748108480974,-0.7476608163877968,-0.3159795286641928,0.3252472457323366,0.025509859956694893,0.29349861710766323,0.7442167438024284,-1.25,0.0,0.00036597251892089844,0.0004699230194091797,0
1.5999336242675781,0.07293611019849777,0.07776368409395218,-0.19574256241321564,-0.018659077949698677,-0.7454813386461276,-0.332401256414645,0.3356677795538374,0.024854056200823427,0.2899109493324798,0.74562164765861,-1.25,0.0,0.00027680397033691406,0.0003604888916015625,0
1.6103463172912598,0.0748172476887703,0.08123330026865005,-0.20375658571720123,-0.018133686903593293,-0.7434383652283958,-0.3466539650456166,0.34497361050787834,0.024197971929423884,0.2860250730448673,0.7471209122957799,-1.25,0.0,0.0003407001495361328,0.00045299530029296875,0
1.6201159954071045,0.07876624912023544,0.08852411061525345,-0.21987804770469666,-0.017047439661424413,-0.7412317888932377,-0.3619017701460737,0.3535184012629401,0.02333137022363087,0.28237210963690595,0.7485091794354984,-1.25,0.0,0.0002777576446533203,0.0003619194030761719,0
1.6302905082702637,0.07876624912023544,0.08852411061525345,-0.21987804770469666,-0.017047439661424413,-0.7394623517518886,-0.37206369795298067,0.36086624360508773,0.022724749029575764,0.2785606140120299,0.7499359868157022,-1.25,0.0,0.0003840923309326172,0.0005018711090087891,0
1.6401052474975586,0.0829552561044693,0.09626340866088867,-0.2361050248146057,-0.015927644116004114,-0.7374932263476872,-0.383684887267029,0.3674798597683382,0.021880190864204577,0.27487706152931374,0.7512939511569422,-1.25,0.0,0.00039458274841308594,0.0005068778991699219,0
1.6501195430755615,0.08513457328081131,0.10029669851064682,-0.24425435066223145,-0.01535364252681548,-0.7356414794052705,-0.3935351050184019,0.3732681765334519,0.021073749552499008,0.27111179161513993,0.7526608774522754,-1.25,0.0,0.00036716461181640625,0.0005061626434326172,0
1.6599936485290527,0.08736847341060638,0.1044359877705574,-0.2524181306362152,-0.014760489261973042,-0.7338952909091743,-0.40188480583258623,0.3783664079067979,0.020286808159989195,0.26739257617435125,0.7539901923810706,-1.25,0.0,0.00017023086547851562,0.00023102760314941406,0
1.6699364185333252,0.08965426683425903,0.10867703706026077,-0.26059940457344055,-0.014161362673467348,-0.7322386024577489,-0.4089493431638308,0.3827266925830709,0.019511276714542693,0.2636409118274679,0.7553101810586041,-1.25,0.0,0.00016832351684570312,0.0002319812774658203,0
1.6799821853637695,0.09436765313148499,0.11745640635490417,-0.2770068943500519,-0.012907314560934859,-0.7304094233374392,-0.4163712839380028,0.3856075103750987,0.01849813666053046,0.2598437670598743,0.7566248850785532,-1.25,0.0,0.00017642974853515625,0.00023674964904785156,0
1.6902852058410645,0.09679178893566132,0.12199067324399948,-0.2852299213409424,-0.0122874673976483,-0.7286976712416232,-0.42233343110077554,0.38803901537828955,0.017556495936489433,0.2559425755905659,0.7579534273291912,-1.25,0.0,0.00022792816162109375,0.00029969215393066406,0
1.699974536895752,0.09925781935453415,0.12661796808242798,-0.2934624254703522,-0.01166485262782091,-0.7270889038738837,-0.42710511228679726,0.38986664552393896,0.016663866890975446,0.2522675555334872,0.7591844837884656,-1.25,0.0,0.0002105236053466797,0.0002841949462890625,0
1.7101397514343262,0.1017630323767662,0.13133478164672852,-0.30170223116874695,-0.011027979369125696,-0.7255659652590404,-0.43079239121221474,0.39127362441123503,0.01580019908710495,0.24840567717689468,0.7604568492335962,-1.25,0.0,0.0003018379211425781,0.0003960132598876953,0
1.720245599746704,0.1068846732378006,0.1410239338874817,-0.3182046413421631,-0.009786617994816726,-0.7238981996444348,-0.4342426497923914,0.39070922965363386,0.014730121109029735,0.2445599915995088,0.7617023109514952,-1.25,0.0,0.00027179718017578125,0.0003647804260253906,0
1.7301139831542969,0.10949791967868805,0.14599192142486572,-0.3264625668525696,-0.009161227614163714,-0.7223436151433966,-0.4365948571531894,0.3900766005542407,0.013746545131632208,0.24079864457342542,0.7628997396588894,-1.25,0.0,0.0002281665802001953,0.00029754638671875,0
1.7399497032165527,0.11214369535446167,0.15103639662265778,-0.33471956849098206,-0.008544581720736577,-0.720884783449446,-0.43794696460969146,0.38928909563810976,0.012826799737418761,0.23704391366566235,0.7640747234361742,-1.25,0.0,0.0001499652862548828,0.00020313262939453125,0
1.7501447200775146,0.11481920629739761,0.15615423023700714,-0.34297290444374084,-0.007963386426991903,-0.719507989628003,-0.43845121289908795,0.38825896674683524,0.011965029726315095,0.23314597345116095,0.7652731244879246,-1.25,0.0,0.00029349327087402344,0.0003898143768310547,0
1.7599945068359375,0.1202450767159462,0.16660407185554504,-0.3594699800014496,-0.006786144029098828,-0.717986863745288,-0.4382672269266644,0.38476664962646895,0.010920324819332628,0.22937427272001734,0.7664120582390149,-1.25,0.0,0.0003132820129394531,0.0004127025604248047,0
1.7701892852783203,0.12299317866563797,0.17193299531936646,-0.3677096664905548,-0.006213737734948932,-0.7165727850434535,-0.43745493703014293,0.38155784913936036,0.00997437902413869,0.22546460912091484,0.7675713061559514,-1.25,0.0,0.0002875328063964844,0.00037860870361328125,0
1.7801544666290283,0.1257612109184265,0.17732520401477814,-0.3759448230266571,-0.00565803120598396,-0.7152466747912651,-0.43599575430283716,0.37842579027615864,0.009103827019141067,0.22163733260272844,0.7686851714432558,-1.25,0.0,0.0003323554992675781,0.00043082237243652344,0
1.7905292510986328,0.12854668498039246,0.18277698755264282,-0.38416942954063416,-0.0051288305802605905,-0.7139935888614034,-0.4339659038594727,0.3753055126672947,0.008295990380996468,0.21764689697948483,0.7698245437989111,-1.25,0.0,0.0003998279571533203,0.000522613525390625,0
1.800246238708496,0.13416023552417755,0.19385434687137604,-0.40058666467666626,-0.0040821883896424715,-0.7126132862936406,-0.43087634180860473,0.3693505824118126,0.007338013912813454,0.21390415514871552,0.7708728899177311,-1.25,0.0,0.0003619194030761719,0.0004725456237792969,0
1.8100459575653076,0.13698434829711914,0.19947266578674316,-0.4087750017642975,-0.0035852265448390597,-0.7113309661551166,-0.4274827711521439,0.3639226637706856,0.006481069693284065,0.21012443369812492,0.7719117322356503,-1.25,0.0,0.0003058910369873047,0.00039458274841308594,0
1.8202636241912842,0.13981765508651733,0.20514045655727386,-0.4169471859931946,-0.003100801919797558,-0.7101285254115934,-0.423787524272271,0.3588799836765896,0.005699549505222929,0.20617814034383208,0.7729751447778636,-1.25,0.0,0.00038623809814453125,0.0005085468292236328,0
1.8304824829101562,0.14265763759613037,0.2108558714389801,-0.4251347482204437,-0.0026320207158181397,-0.7089914843271322,-0.41983087384263246,0.35401844653318915,0.004976692422087853,0.2022260043641748,0.7740185031114573,-1.25,0.0,0.0006604194641113281,0.0008571147918701172,0
1.8403007984161377,0.14834831655025482,0.22241957485675812,-0.4414539933204651,-0.001807160191742874,-0.707741076943333,-0.41442623901945913,0.3462427261119989,0.004161369767365075,0.19842380388973246,0.7750019316427084,-1.25,0.0,0.00038909912109375,0.0005040168762207031,0
1.8501513004302979,0.15119507908821106,0.22826172411441803,-0.44958433508872986,-0.001428096686214353,-0.7065744344606922,-0.4090351287779558,0.3392054546823665,0.003448495094485935,0.19460433359079038,0.7759698147142609,-1.25,0.0,0.0003161430358886719,0.00041031837463378906,0
1.8601312637329102,0.154039204120636,0.23414185643196106,-0.45769330859184265,-0.0010677055439480834,-0.7054795427062285,-0.4035955001376357,0.3325954335889431,0.0028143361451206856,0.19072985171159879,0.7769312219663151,-1.25,0.0,0.0003368854522705078,0.00042510032653808594,0
1.8701248168945312,0.15687936544418335,0.24005669355392456,-0.4657784104347229,-0.0007186573367059523,-0.7044520090458329,-0.39803304254697075,0.3263551539304799,0.002239531802849212,0.18684533508636758,0.7778745533545002,-1.25,0.0,0.00029659271240234375,0.00038051605224609375,0
1.8800256252288818,0.1625411957502365,0.2519734501838684,-0.481868714094162,-6.270884298764656e-05,-0.7033400288638488,-0.39081404026749844,0.31699519429014317,0.0015911880781148157,0.18299226792606926,0.7787899780295544,-1.25,0.0,0.00032019615173339844,0.0004138946533203125,0
1.8901350498199463,0.16535784304141998,0.25797194242477417,-0.4898824095726013,0.0002400482371494268,-0.7023091571477894,-0.3838527665539776,0.308646951057292,0.0010238135657493358,0.17905338767982795,0.7797049982912623,-1.25,0.0,0.00030159950256347656,0.00038743019104003906,0
1.9000189304351807,0.1709497570991516,0.2700367271900177,-0.5058209300041199,0.0008018524202902062,-0.7012115535171531,-0.3753160302105109,0.2975919053502006,0.0004159748384157076,0.17519796131947327,0.7805803445831188,-1.25,0.0,0.0003428459167480469,0.0004413127899169922,0
1.9101827144622803,0.1709497570991516,0.2700367271900177,-0.5058209300041199,0.0008018524202902062,-0.7003323868033261,-0.369024728155581,0.29127635546386127,-9.512270717832035e-06,0.17122889108098846,0.7814605984047917,-1.25,0.0,0.0003941059112548828,0.0005095005035400391,0
1.9203202724456787,0.17647506296634674,0.282175749540329,-0.5216330885887146,0.0012904199349750517,-0.6993731662585659,-0.3608322462478208,0.28154982190576444,-0.0004905660651181268,0.16726565733231125,0.7823184772694494,-1.25,0.0,0.00038361549377441406,0.0004944801330566406,0
1.9301271438598633,0.1792096346616745,0.2882668673992157,-0.5294901728630066,0.0015119785065691679,-0.6984754583520497,-0.3529939613738394,0.2727377722287088,-0.0009103881855461268,0.16342761351156673,0.7831292454901133,-1.25,0.0,0.00042057037353515625,0.0005285739898681641,0
1.9401183128356934,0.1817605048418045,0.2942039668560028,-0.5378984212875366,0.0016974595721104496,-0.6976157995373041,-0.34530321080045806,0.26446681629899355,-0.0012738190694237075,0.1595134022383121,0.7839358867320456,-1.25,0.0,0.000446319580078125,0.0005769729614257812,0
1.950620174407959,0.18428927659988403,0.30015265941619873,-0.5462374687194824,0.0018532652282579282,-0.6967927669421634,-0.3376248684190222,0.25659853092423496,-0.0015866478091933183,0.15539482900410337,0.7847626692948548,-1.25,0.0,0.0006642341613769531,0.0007994174957275391,0
1.9600944519042969,0.1892748326063156,0.31207147240638733,-0.5627685785293579,0.002150290198880601,-0.6958790054546344,-0.3278855890183108,0.24534111898990552,-0.001917012291015548,0.15167556969482598,0.7854899881970171,-1.25,0.0,0.0003597736358642578,0.0004603862762451172,0
1.9701628684997559,0.19173024594783783,0.31803780794143677,-0.5709584355354309,0.0022651219889484827,-0.6950204330033221,-0.31874758361886374,0.23537321315444207,-0.0021913293495665646,0.1477193442088731,0.7862435979685307,-1.25,0.0,0.0004489421844482422,0.0005719661712646484,0
1.9802985191345215,0.19415798783302307,0.32400697469711304,-0.5791001915931702,0.0023384324923159346,-0.6942058139933667,-0.30998422283611665,0.22632620759781347,-0.002410842729315071,0.14373291913011008,0.7869821141286105,-1.25,0.0,0.0006022453308105469,0.0007157325744628906,0
1.990462303161621,0.19655665755271912,0.32997411489486694,-0.5871919989585876,0.002404551301781655,-0.6934399436304268,-0.30141331435911906,0.21794294723098484,-0.00258929664868867,0.13973172223146885,0.7877023840272592,-1.25,0.0,0.0005140304565429688,0.00064849853515625,0
2.00004506111145,0.2012629359960556,0.3418926000595093,-0.6032165884971619,0.0025204815568751434,-0.6926121634543583,-0.29077776618987083,0.20645231242578557,-0.002757688237910248,0.1359559521016378,0.7883628473540196,-1.25,0.0,0.00044798851013183594,0.0005526542663574219,0
2.0102012157440186,0.20356719195842743,0.347839891910553,-0.611176073551178,0.002571255093233549,-0.6918468537500128,-0.2808880451962025,0.1963972013628805,-0.0028946024264997544,0.1319508488797729,0.7890430745402354,-1.25,0.0,0.0004963874816894531,0.0006225109100341797,0
2.020221471786499,0.20583631098270416,0.35377785563468933,-0.6190808415412903,0.0026127283932740005,-0.6911352574162971,-0.2716193877127906,0.18734299449655617,-0.0030059948460275784,0.1279960025296061,0.7896942594045123,-1.25,0.0,0.0004706382751464844,0.0006029605865478516,0
2.0304393768310547,0.2080683708190918,0.3597050905227661,-0.6269294619560242,0.0026437372440890846,-0.6904721688152222,-0.2627199111395403,0.1789546515766123,-0.0030955978587527116,0.12395983916869656,0.7903378760209274,-1.25,0.0,0.0004718303680419922,0.0006127357482910156,0
2.040170669555664,0.2124149203300476,0.37151676416397095,-0.6424583196640015,0.0026702975068906517,-0.6897644100816492,-0.2519703985464773,0.16753134996313546,-0.0031682800662108926,0.12011288238902346,0.7909316629672887,-1.25,0.0,0.00042057037353515625,0.0005488395690917969,0
2.050172805786133,0.2145274132490158,0.37739959359169006,-0.6501360535621643,0.0026711996305144544,-0.6891140698159967,-0.24206898561015902,0.1575458784857454,-0.003219495907790545,0.11615589370687336,0.7915224623200263,-1.25,0.0,0.00036597251892089844,0.00046515464782714844,0
2.060490846633911,0.21659736335277557,0.3832639157772064,-0.6577557921409607,0.0026569965309246827,-0.6885146943802788,-0.23276721946069298,0.148618797510363,-0.0032500208345501375,0.11207088550206104,0.7921111769333797,-1.25,0.0,0.00041413307189941406,0.0005364418029785156,0
2.0702459812164307,0.22060561180114746,0.39493346214294434,-0.6728712320327759,0.0025979596737200302,-0.6878889635470187,-0.22199175840259205,0.13702885382911686,-0.0032492494618301076,0.10820599213622147,0.7926483856451207,-1.25,0.0,0.00042176246643066406,0.0005509853363037109,0
2.0800440311431885,0.22254280745983124,0.40073680877685547,-0.6803372502326965,0.0025739207690949287,-0.6873242587562053,-0.21218965010981777,0.1270383087165293,-0.0032396949116916735,0.10432150494743425,0.7931689754431287,-1.25,0.0,0.0003788471221923828,0.0004901885986328125,0
2.0905935764312744,0.22443564236164093,0.40651679039001465,-0.6877405643463135,0.00254115303502569,-0.6868112901503283,-0.20313875456680555,0.11831090687832833,-0.003220718826318805,0.10013628705764444,0.7937082108774667,-1.25,0.0,0.0003230571746826172,0.00042510032653808594,0
2.100008010864258,0.2280784398317337,0.41799816489219666,-0.702357828617096,0.002453374146408361,-0.6862883560440626,-0.1925788463031728,0.10705503748652799,-0.003174518483326299,0.09639903449751276,0.7941707789562314,-1.25,0.0,0.00034332275390625,0.00043487548828125,0
2.1104037761688232,0.2280784398317337,0.41799816489219666,-0.702357828617096,0.002453374146408361,-0.6858697582197922,-0.1850111148597219,0.10065635271196213,-0.0031421782432315445,0.09226974432014654,0.7946611191464541,-1.25,0.0,0.0004038810729980469,0.0005218982696533203,0
2.1201252937316895,0.2315230667591095,0.42936384677886963,-0.7167237997055054,0.002370444541810702,-0.6854302521413956,-0.1755868836644723,0.09123973381488419,-0.0030884414734410944,0.08840601349208614,0.7951002306492164,-1.25,0.0,0.0004298686981201172,0.0005598068237304688,0
2.130531072616577,0.23317043483257294,0.4349992573261261,-0.7238224148750305,0.0023142703799668104,-0.6850327435764395,-0.1668590293397346,0.0829978801759747,-0.00302976042389632,0.0842680169850369,0.795549433607623,-1.25,0.0,0.0010104179382324219,0.0012707710266113281,0
2.1399986743927,0.2347651720046997,0.44060018658638,-0.730856716632843,0.002250882671790211,-0.6846717561991696,-0.1585891752955592,0.07548499098588224,-0.002964913298648753,0.08050111426112008,0.7959394264658073,-1.25,0.0,0.0002510547637939453,0.000331878662109375,0
2.150237798690796,0.23630771040916443,0.44616469740867615,-0.7378263473510742,0.002185602909803098,-0.6843425338079652,-0.1507270271246178,0.0686902976677087,-0.0028950404002302888,0.0764252157392824,0.7963411243928096,-1.25,0.0,0.00041556358337402344,0.0005395412445068359,0
2.160074472427368,0.23923145234584808,0.45718392729759216,-0.7515708208084106,0.0020279999425032672,-0.6840104769280808,-0.141357996235602,0.05932419925283415,-0.0027870282585999275,0.07250763325562201,0.7967073760921687,-1.25,0.0,0.000392913818359375,0.0005040168762207031,0
