time,x,y,z,yaw,throttle,roll_rate,pitch_rate,yaw_rate,x_ref,y_ref,z_ref,yaw_ref,pred_time,nr_time,ctrl_callback_time,metadata
2.86102294921875e-06,0.045055143535137177,0.011639432050287724,1.1414084434509277,-0.009183101000519146,0.6935150256235927,-0.0024009370709762385,0.011693630817987275,0.0005276006445271336,0.0,0.0,-0.6,0.0,0.001924753189086914,0.001924753189086914,0.003236532211303711,Sim
0.010072469711303711,0.044847797602415085,0.011689574457705021,1.1416256427764893,-0.0091941459945066,0.6963585791161724,-0.004106769881271843,0.020695114210394,0.0009400387455514838,0.0,0.0,-0.6,0.0,0.0026290416717529297,0.0026290416717529297,0.003719806671142578,flat wardi normal
0.019776344299316406,0.04464788734912872,0.011739973910152912,1.1419156789779663,-0.00920855547183192,0.7011693877174083,-0.005303622710965537,0.027218379221505096,0.001241069071086865,0.0,0.0,-0.6,0.0,0.0016853809356689453,0.0016853809356689453,0.002340555191040039,1x Speed
0.02985358238220215,0.044454582035541534,0.011790620163083076,1.142278790473938,-0.009220474790388036,0.7072933398798591,-0.006073608043329935,0.03167079404336539,0.0014492503853793526,0.0,0.0,-0.6,0.0,0.0025606155395507812,0.0025606155395507812,0.0034911632537841797,circle_horz_ref_func
0.039708852767944336,0.044088322669267654,0.011889295652508736,1.143220067024231,-0.009260141826239287,0.7142496782295644,-0.0066016655815515505,0.034384915933089275,0.0015763628744536683,0.0,0.0,-0.6,0.0,0.0026311874389648438,0.0026311874389648438,0.003570079803466797,0
0.04985928535461426,0.043914344161748886,0.01193910650908947,1.1437941789627075,-0.00927552742873123,0.7216905507621653,-0.006895405391116393,0.035820592563592824,0.0016437088602158948,0.0,0.0,-0.6,0.0,0.0020377635955810547,0.0020377635955810547,0.002894878387451172,0
0.05964088439941406,0.0437457337975502,0.011989972554147243,1.1444350481033325,-0.00929370320766882,0.7293658617642957,-0.007084090001373525,0.0362758069626811,0.0016628993840370598,0.0,0.0,-0.6,0.0,0.002900838851928711,0.002900838851928711,0.003853321075439453,0
0.06976675987243652,0.043581753969192505,0.012042456306517124,1.1450875997543335,-0.009310843391973753,0.7370988509234262,-0.007167396483843773,0.036023612365091696,0.0016493094266880456,0.0,0.0,-0.6,0.0,0.0031960010528564453,0.0031960010528564453,0.00420689582824707,0
0.07987642288208008,0.043318912386894226,0.012145479209721088,1.1465811729431152,-0.009366741002236311,0.7447664868134384,-0.007194553428215634,0.03519027735686681,0.0016061444084425908,0.0,0.0,-0.6,0.0,0.002266407012939453,0.002266407012939453,0.003147602081298828,0
0.09097957611083984,0.04319348931312561,0.012197698466479778,1.1474199295043945,-0.00938856381391832,0.7522859400540025,-0.0071840882370672815,0.0340194053341269,0.0015459693152883782,0.0,0.0,-0.6,0.0,0.0032341480255126953,0.0032341480255126953,0.004549980163574219,0
0.0997476577758789,0.043071385473012924,0.012250683270394802,1.1483185291290283,-0.009414279209487444,0.759601424523785,-0.007100508248283686,0.032614063710203436,0.001476135897561101,0.0,0.0,-0.6,0.0,0.002086639404296875,0.002086639404296875,0.0029573440551757812,0
0.10999035835266113,0.04295369237661362,0.012302535586059093,1.1492762565612793,-0.009425015581713853,0.7666777696615417,-0.006925823906298594,0.031101514954231767,0.001404017916125632,0.0,0.0,-0.6,0.0,0.0028395652770996094,0.0028395652770996094,0.0038535594940185547,0
0.1198880672454834,0.042732663452625275,0.01240461878478527,1.151363730430603,-0.009439748296399979,0.7734944649535495,-0.00679182779188806,0.029475661889528524,0.0013225211845019538,0.0,0.0,-0.6,0.0,0.002321481704711914,0.002321481704711914,0.003324270248413086,0
0.129868745803833,0.042629096657037735,0.01245476771146059,1.1524900197982788,-0.00944669265845294,0.780042842584544,-0.006618380914943407,0.027862497150772624,0.00124378792927423,0.0,0.0,-0.6,0.0,0.002201557159423828,0.002201557159423828,0.003120899200439453,0
0.14066243171691895,0.04253030940890312,0.012504338286817074,1.153634786605835,-0.009450761464457308,0.7863194335384167,-0.006433856854366342,0.026259879685507793,0.0011662807025552846,0.0,0.0,-0.6,0.0,0.002387523651123047,0.002387523651123047,0.0035448074340820312,0
0.14974546432495117,0.042468320578336716,0.012553601525723934,1.1548315286636353,-0.009483417623200827,0.7923260978307849,-0.006249729134243111,0.024682977833461926,0.001090099353049816,0.0,0.0,-0.6,0.0,0.0018992424011230469,0.0018992424011230469,0.0030984878540039062,0
0.15955710411071777,0.0423511266708374,0.012648209929466248,1.157378911972046,-0.009526733646821064,0.7980678617303701,-0.006035528449715102,0.023096976058760283,0.0010146075179032546,0.0,0.0,-0.6,0.0,0.0025806427001953125,0.0025806427001953125,0.0031402111053466797,0
0.169844388961792,0.04230157658457756,0.01269769947975874,1.1587269306182861,-0.009547625155419296,0.8035538954201225,-0.005818546444373413,0.021601704849099585,0.0009435572963066258,0.0,0.0,-0.6,0.0,0.0030088424682617188,0.0030088424682617188,0.004081249237060547,0
0.1797165870666504,0.042256128042936325,0.012746704742312431,1.1601234674453735,-0.009583683973178724,0.8087925619922707,-0.005631626303919599,0.020208512944090772,0.0008762966380591661,0.0,0.0,-0.6,0.0,0.001983165740966797,0.001983165740966797,0.002791166305541992,0
0.19021081924438477,0.04221441596746445,0.012795903719961643,1.161567211151123,-0.0096049218873931,0.8137932277674736,-0.005473227006060363,0.01888215145438489,0.0008112461036187639,0.0,0.0,-0.6,0.0,0.003183603286743164,0.003183603286743164,0.004193305969238281,0
0.19968461990356445,0.04194185882806778,0.012956042774021626,1.1606401205062866,-0.009630882316732776,0.8185657980062248,-0.005405569589555899,0.01752280138008218,0.0007415668592635804,0.0,0.0,-0.6,0.0,0.003253936767578125,0.003253936767578125,0.004252195358276367,0
0.2097916603088379,0.041716568171978,0.013066437095403671,1.158351182937622,-0.009648776328846302,0.8231168033101506,-0.005345696090186553,0.016224440546266167,0.0006745826930531794,0.0,0.0,-0.6,0.0,0.002899169921875,0.002899169921875,0.0038118362426757812,0
0.22011876106262207,0.04152218624949455,0.0131751149892807,1.1561986207962036,-0.009674572370408526,0.8274518272643887,-0.0052779598395946295,0.014991265838659205,0.0006110527907367061,0.0,0.0,-0.6,0.0,0.0024607181549072266,0.0024607181549072266,0.0037353038787841797,0
0.22989368438720703,0.041334591805934906,0.013281996361911297,1.154180884361267,-0.00972565928150043,0.8315776883207725,-0.005196176370701795,0.013832017403695768,0.0005517205122270848,0.0,0.0,-0.6,0.0,0.003242015838623047,0.003242015838623047,0.004631996154785156,0
0.23966145515441895,0.04097851738333702,0.013487904332578182,1.1505389213562012,-0.009753412640619429,0.8355022271964324,-0.0051521756633268224,0.01268540378607799,0.0004922744212120618,0.0,0.0,-0.6,0.0,0.0023338794708251953,0.0023338794708251953,0.003162860870361328,0
0.24987030029296875,0.040809355676174164,0.013589083217084408,1.148909330368042,-0.009760300713393672,0.8392316228521904,-0.00512309116508142,0.011621056121395622,0.0004359535055016429,0.0,0.0,-0.6,0.0,0.002632617950439453,0.002632617950439453,0.0037522315979003906,0
0.2596619129180908,0.0406465120613575,0.01368952076882124,1.147401213645935,-0.009780072157069141,0.8427754498782658,-0.005094823640240964,0.010629075857168458,0.0003833769004450363,0.0,0.0,-0.6,0.0,0.0025827884674072266,0.0025827884674072266,0.0034875869750976562,0
0.26982879638671875,0.04048941656947136,0.013789129443466663,1.1460120677947998,-0.009802995823777977,0.846143024854497,-0.005078641890639501,0.009706156101277993,0.00033390989360580797,0.0,0.0,-0.6,0.0,0.002811431884765625,0.002811431884765625,0.003841400146484375,0
0.2798128128051758,0.04019235447049141,0.01398489996790886,1.1435571908950806,-0.009848985333212313,0.8493434111737153,-0.005091828122363573,0.008811500179617187,0.0002847549725509661,0.0,0.0,-0.6,0.0,0.0033140182495117188,0.0033140182495117188,0.004779815673828125,0
0.2901930809020996,0.04007900878787041,0.014080545864999294,1.1424853801727295,-0.00986386825764219,0.852383617472826,-0.005108475634403314,0.007984310301359968,0.00023864183051952465,0.0,0.0,-0.6,0.0,0.003045320510864258,0.003045320510864258,0.00420832633972168,0
0.29981565475463867,0.0399693138897419,0.014176479540765285,1.1415210962295532,-0.009867245761307035,0.8552726883562117,-0.005142338675890947,0.007204712910282449,0.00019467031852528775,0.0,0.0,-0.6,0.0,0.003030538558959961,0.003030538558959961,0.0041697025299072266,0
0.3098289966583252,0.03986329585313797,0.014272219501435757,1.1406605243682861,-0.009881435155400293,0.8580189120501046,-0.005137668700260647,0.006476769866820028,0.00015498133905790184,0.0,0.0,-0.6,0.0,0.0026977062225341797,0.0026977062225341797,0.0037746429443359375,0
0.320112943649292,0.039661407470703125,0.014459008350968361,1.1392406225204468,-0.00990554447619293,0.8606300151076656,-0.005165809427747915,0.0057539752023379135,0.00011411984701367675,0.0,0.0,-0.6,0.0,0.0024247169494628906,0.0024247169494628906,0.003670215606689453,0
0.33006787300109863,0.03956490010023117,0.014551855623722076,1.138678789138794,-0.009908528864489487,0.8631126239166012,-0.0051721154641319765,0.0050839279278999325,7.702792468506732e-05,0.0,0.0,-0.6,0.0,0.0031347274780273438,0.0031347274780273438,0.004433155059814453,0
0.33953857421875,0.03947306051850319,0.014643415808677673,1.1382111310958862,-0.00992273725635236,0.8654742099842516,-0.005135037795690567,0.004511053676339096,4.7012620938917556e-05,0.0,0.0,-0.6,0.0,0.0028519630432128906,0.0028519630432128906,0.003732919692993164,0
0.3498396873474121,0.03938610479235649,0.01473313756287098,1.1378343105316162,-0.009959105423409735,0.867721444461634,-0.00506137625189323,0.003983792111525985,2.1028912867669574e-05,0.0,0.0,-0.6,0.0,0.0027887821197509766,0.0027887821197509766,0.003871917724609375,0
0.3600451946258545,0.039301689714193344,0.014821397140622139,1.1375305652618408,-0.009991317344446315,0.8698606829865213,-0.004976859943382637,0.0034819438661739294,-3.079188407256542e-06,0.0,0.0,-0.6,0.0,0.002278566360473633,0.002278566360473633,0.003677845001220703,0
0.3697853088378906,0.03920184448361397,0.014995647594332695,1.1371722221374512,-0.010038835228966557,0.8718976245598697,-0.004917754091712871,0.003025340815388007,-2.5908376655985982e-05,0.0,0.0,-0.6,0.0,0.002657651901245117,0.002657651901245117,0.003690004348754883,0
0.37969326972961426,0.039157066494226456,0.015081878751516342,1.1371169090270996,-0.010053418885695355,0.8738372192266933,-0.0048184071031208316,0.0026152544629886873,-4.462663252366441e-05,0.0,0.0,-0.6,0.0,0.0018067359924316406,0.0018067359924316406,0.002635478973388672,0
0.3899505138397217,0.03911513835191727,0.01516691967844963,1.137142300605774,-0.01006524010832165,0.8756849920811576,-0.004742415891952711,0.0022488937648978673,-6.194271758841986e-05,0.0,0.0,-0.6,0.0,0.0026798248291015625,0.0026798248291015625,0.0037310123443603516,0
0.399716854095459,0.03903816267848015,0.015337459743022919,1.1374269723892212,-0.010101176674298707,0.8774460553463349,-0.0047857109882041915,0.0018985364498364916,-8.314045674678989e-05,0.0,0.0,-0.6,0.0,0.002217531204223633,0.002217531204223633,0.0031578540802001953,0
0.4100637435913086,0.03900282084941864,0.01542439591139555,1.1376816034317017,-0.01012724648238532,0.879125254597828,-0.00481713035572428,0.0015634476176516882,-0.00010311565272941279,0.0,0.0,-0.6,0.0,0.0023126602172851562,0.0023126602172851562,0.003347635269165039,0
0.4198005199432373,0.038969025015830994,0.015510497614741325,1.1380096673965454,-0.010146459482921436,0.8807270799324467,-0.004799224181546542,0.0012744282632331577,-0.00011852989795450481,0.0,0.0,-0.6,0.0,0.0016818046569824219,0.0016818046569824219,0.0026178359985351562,0
0.4300415515899658,0.038969144225120544,0.015596264973282814,1.1383873224258423,-0.01017565443430541,0.8822558889439328,-0.00481127565190367,0.001028733617856986,-0.00013274567002314315,0.0,0.0,-0.6,0.0,0.002280712127685547,0.002280712127685547,0.0032677650451660156,0
0.44027042388916016,0.038972385227680206,0.015769682824611664,1.139353632926941,-0.010201412490347372,0.88371570911005,-0.004875960449009667,0.0007763671163440172,-0.0001494867599555592,0.0,0.0,-0.6,0.0,0.0022134780883789062,0.0022134780883789062,0.003377199172973633,0
0.4498779773712158,0.038976263254880905,0.015856891870498657,1.1399389505386353,-0.010237737977571973,0.8851110332890594,-0.004925977583025751,0.0005886509373610818,-0.00016204804489672195,0.0,0.0,-0.6,0.0,0.002386808395385742,0.002386808395385742,0.0032880306243896484,0
0.45987582206726074,0.03898297995328903,0.01594458892941475,1.1405891180038452,-0.010259582810723799,0.8864451611271525,-0.004957410902477863,0.0004367213598572674,-0.0001716962518161953,0.0,0.0,-0.6,0.0,0.0022630691528320312,0.0022630691528320312,0.003395557403564453,0
0.4700603485107422,0.03899103030562401,0.016031794250011444,1.141302466392517,-0.010272560382676967,0.8877211992388567,-0.004948277212172735,0.00028455304061241556,-0.0001797925032077365,0.0,0.0,-0.6,0.0,0.002772808074951172,0.002772808074951172,0.0039556026458740234,0
0.48032546043395996,0.039006590843200684,0.016205407679080963,1.1429110765457153,-0.01030660542319915,0.8889420762720823,-0.0049779332726908165,0.00013417606162173222,-0.00018939665618507987,0.0,0.0,-0.6,0.0,0.0025141239166259766,0.0025141239166259766,0.0040171146392822266,0
0.4905080795288086,0.039016738533973694,0.016292190179228783,1.1438034772872925,-0.010340047063884578,0.89011153452713,-0.004984150989354626,-1.8187717099387347e-06,-0.00019722039798428766,0.0,0.0,-0.6,0.0,0.003133058547973633,0.003133058547973633,0.004312038421630859,0
0.500483512878418,0.0390615351498127,0.01637747883796692,1.1447235345840454,-0.010348043793733478,0.8912320890753853,-0.004945430628312654,-0.00012812009300872536,-0.00020280342082775512,0.0,0.0,-0.6,0.0,0.002959012985229492,0.002959012985229492,0.004259824752807617,0
0.5100455284118652,0.039106108248233795,0.01646314188838005,1.145699381828308,-0.010350534128637725,0.8923060617397218,-0.0049486662707469604,-0.000232197976667463,-0.00020874565323181714,0.0,0.0,-0.6,0.0,0.0026900768280029297,0.0026900768280029297,0.0037276744842529297,0
0.5206043720245361,0.0391993373632431,0.01663552224636078,1.1478182077407837,-0.0104075484685793,0.8933357615179182,-0.004908294393574013,-0.00028454602006939335,-0.00021011544077842212,0.0,0.0,-0.6,0.0,0.0036859512329101562,0.0036859512329101562,0.004953622817993164,0
0.5298550128936768,0.03924747556447983,0.016717800870537758,1.1489588022232056,-0.010428937714601119,0.8943250882251059,-0.004825909248873814,-0.00030183489810007647,-0.00020781385544379197,0.0,0.0,-0.6,0.0,0.0031206607818603516,0.0031206607818603516,0.004187107086181641,0
0.5401499271392822,0.03929714113473892,0.016800181940197945,1.1501514911651611,-0.010448211622672222,0.8952758936338652,-0.004784336028135287,-0.00031053294959536347,-0.0002066147598090106,0.0,0.0,-0.6,0.0,0.0020859241485595703,0.0020859241485595703,0.003262042999267578,0
0.5497264862060547,0.039347197860479355,0.016883613541722298,1.1513947248458862,-0.010454418410763817,0.896189965430481,-0.004752982073105791,-0.0002986888937680464,-0.00020469085773071812,0.0,0.0,-0.6,0.0,0.0027387142181396484,0.0027387142181396484,0.0036644935607910156,0
0.5597097873687744,0.03945247083902359,0.017051510512828827,1.1540285348892212,-0.01046772136858222,0.8970690734922343,-0.0047787706005075065,-0.0002446303680796915,-0.0002027291986942796,0.0,0.0,-0.6,0.0,0.0018396377563476562,0.0018396377563476562,0.002647876739501953,0
0.5701463222503662,0.039544232189655304,0.017137661576271057,1.1553841829299927,-0.01047699816187551,0.8979165536344438,-0.004723172529271124,-0.0001772936777694166,-0.00019664425643351884,0.0,0.0,-0.6,0.0,0.002964496612548828,0.002964496612548828,0.004161357879638672,0
0.5800530910491943,0.03963529318571091,0.017221784219145775,1.1567870378494263,-0.010496722399916178,0.8987336612679631,-0.004644681568202078,-0.00013030280656985276,-0.00019085652877064157,0.0,0.0,-0.6,0.0,0.0021970272064208984,0.0021970272064208984,0.0034775733947753906,0
0.5903003215789795,0.03972397372126579,0.017305057495832443,1.1582343578338623,-0.010506809057135498,0.8995216052116972,-0.004558850906510577,-0.00011007159092356079,-0.0001862472191135112,0.0,0.0,-0.6,0.0,0.002736806869506836,0.002736806869506836,0.0038063526153564453,0
0.5997467041015625,0.03954506292939186,0.017452150583267212,1.1572932004928589,-0.010525284588687438,0.9002815298405896,-0.004465368394241194,-0.00013947945976011946,-0.00018408612046644438,0.0,0.0,-0.6,0.0,0.003033161163330078,0.003033161163330078,0.004217863082885742,0
0.6099283695220947,0.03928679600358009,0.017517171800136566,1.1550019979476929,-0.010542725790459256,0.9010112991164632,-0.0043892174739041,-0.00021777192695808138,-0.00018557439550394148,0.0,0.0,-0.6,0.0,0.0028252601623535156,0.0028252601623535156,0.0038542747497558594,0
0.6196861267089844,0.03903523460030556,0.017583390697836876,1.1528490781784058,-0.010572267142351087,0.9017080345094608,-0.004347007982994373,-0.00033826690328488357,-0.00019080518171923233,0.0,0.0,-0.6,0.0,0.003105640411376953,0.003105640411376953,0.0041179656982421875,0
0.6297087669372559,0.03879019245505333,0.017650607973337173,1.1508311033248901,-0.010612062489942205,0.9023704003138233,-0.004318494938842145,-0.0004942986694100604,-0.00019853667670979958,0.0,0.0,-0.6,0.0,0.0022699832916259766,0.0022699832916259766,0.003560304641723633,0
0.6396818161010742,0.038343023508787155,0.01778998039662838,1.147204041481018,-0.0106594494850978,0.9029979706766478,-0.004393613829123107,-0.0007154414952307523,-0.00021407935899600116,0.0,0.0,-0.6,0.0,0.00281524658203125,0.00281524658203125,0.0038771629333496094,0
0.6498236656188965,0.03813948109745979,0.017861558124423027,1.1455872058868408,-0.01068956761992904,0.903588846725725,-0.004465565038390389,-0.0009285139027756223,-0.00022912246073930847,0.0,0.0,-0.6,0.0,0.0026144981384277344,0.0026144981384277344,0.003782033920288086,0
0.6596798896789551,0.03794277459383011,0.01793450117111206,1.1440914869308472,-0.010725773457568992,0.9041447782307307,-0.004514130802014251,-0.0011185268382604852,-0.00024195885982426703,0.0,0.0,-0.6,0.0,0.002991914749145508,0.002991914749145508,0.003954648971557617,0
0.6699163913726807,0.03775246441364288,0.01800823025405407,1.1427135467529297,-0.010753405367403941,0.904667517786728,-0.004540921902664044,-0.0012934039912699754,-0.00025314667632462883,0.0,0.0,-0.6,0.0,0.002758026123046875,0.002758026123046875,0.0038568973541259766,0
0.6799709796905518,0.0373886302113533,0.01815873757004738,1.1402963399887085,-0.010828375409500074,0.905158853185553,-0.004632034602889665,-0.0014944162450390422,-0.0002684551077052287,0.0,0.0,-0.6,0.0,0.0021049976348876953,0.0021049976348876953,0.003222942352294922,0
0.6902079582214355,0.03721550479531288,0.018236486241221428,1.1392511129379272,-0.010866310926665403,0.9056187813379071,-0.004694606798651614,-0.0016668833875455955,-0.00028087116196342816,0.0,0.0,-0.6,0.0,0.0028581619262695312,0.0028581619262695312,0.003884553909301758,0
0.6997926235198975,0.037048228085041046,0.018314171582460403,1.1383121013641357,-0.01089714891658963,0.9060498073680776,-0.004694795601561801,-0.0018140213555531094,-0.0002894779786355145,0.0,0.0,-0.6,0.0,0.002208232879638672,0.002208232879638672,0.003387928009033203,0
0.7097663879394531,0.036886390298604965,0.018390526995062828,1.1374754905700684,-0.010917716643170376,0.9064541570937712,-0.004630355800580064,-0.0019489299982170063,-0.000294912938776188,0.0,0.0,-0.6,0.0,0.002925872802734375,0.002925872802734375,0.0038764476776123047,0
0.7203054428100586,0.036628518253564835,0.018544677644968033,1.1360574960708618,-0.010962230939722366,0.9068336835460765,-0.004666732136802348,-0.0021370519485429717,-0.0003075443198086381,0.0,0.0,-0.6,0.0,0.002950906753540039,0.002950906753540039,0.005055665969848633,0
0.7299695014953613,0.0365016832947731,0.018623655661940575,1.1354918479919434,-0.010980022571408872,0.9071888567559558,-0.004662092248540818,-0.0023302065059301186,-0.00031867109413623675,0.0,0.0,-0.6,0.0,0.0029227733612060547,0.0029227733612060547,0.0040509700775146484,0
0.7396876811981201,0.03637736663222313,0.018703240901231766,1.135018229484558,-0.011018287771795638,0.9075219819491236,-0.004667131868698319,-0.0025058214893394926,-0.0003291407393145166,0.0,0.0,-0.6,0.0,0.001941680908203125,0.001941680908203125,0.0025467872619628906,0
0.750359296798706,0.03625532239675522,0.018784301355481148,1.1346323490142822,-0.011044092861167488,0.907834842577606,-0.004677834654602239,-0.002683602623108848,-0.00033996241198896033,0.0,0.0,-0.6,0.0,0.003874063491821289,0.003874063491821289,0.005391836166381836,0
0.7595758438110352,0.03602025285363197,0.018951475620269775,1.1341158151626587,-0.011086389478364147,0.9081288400148856,-0.004752423747434504,-0.0028640898146955916,-0.0003535197475201107,0.0,0.0,-0.6,0.0,0.0030651092529296875,0.0030651092529296875,0.003958702087402344,0
0.7698588371276855,0.035909030586481094,0.019040346145629883,1.13398277759552,-0.011107000231843363,0.9084051126386387,-0.0048065410635540025,-0.0030371873607824545,-0.00036591571217270354,0.0,0.0,-0.6,0.0,0.002830028533935547,0.002830028533935547,0.0037567615509033203,0
0.7797625064849854,0.03579946607351303,0.019129175692796707,1.133931040763855,-0.011126362351735614,0.9086654504711171,-0.004802728612155576,-0.0031954351118720793,-0.00037519874286725445,0.0,0.0,-0.6,0.0,0.002527475357055664,0.002527475357055664,0.0034911632537841797,0
0.7902116775512695,0.03571873903274536,0.01921699568629265,1.1339209079742432,-0.011145890616800429,0.9089113562827277,-0.004803661517258828,-0.0033238127704583982,-0.00038280380702456347,0.0,0.0,-0.6,0.0,0.0026483535766601562,0.0026483535766601562,0.0037581920623779297,0
0.7998080253601074,0.035560447722673416,0.01939544640481472,1.1341338157653809,-0.011193822358001723,0.9091441605418716,-0.004821291120389074,-0.0034785641089603633,-0.0003927205225349002,0.0,0.0,-0.6,0.0,0.0034639835357666016,0.0034639835357666016,0.0046041011810302734,0
0.8099772930145264,0.03548424318432808,0.019485006108880043,1.134352684020996,-0.011222731324888068,0.9093652276573458,-0.00482045872399426,-0.0035831854433441483,-0.00039900843297347555,0.0,0.0,-0.6,0.0,0.0028638839721679688,0.0028638839721679688,0.004057884216308594,0
0.8198955059051514,0.03541139140725136,0.01957579329609871,1.1346443891525269,-0.011266686270288236,0.9095756020239891,-0.004820584558793731,-0.00364907189627715,-0.00040308142397670293,0.0,0.0,-0.6,0.0,0.002652883529663086,0.002652883529663086,0.003795623779296875,0
0.8296999931335449,0.035340677946805954,0.01966746337711811,1.1350064277648926,-0.011290367435560352,0.9097762932184152,-0.0048059287402502805,-0.0036916053830254193,-0.00040529012345490216,0.0,0.0,-0.6,0.0,0.0024209022521972656,0.0024209022521972656,0.003457784652709961,0
0.8397207260131836,0.03520538657903671,0.019852252677083015,1.1359361410140991,-0.011290442665960557,0.9099682690949342,-0.004788390512409404,-0.0037239235237173218,-0.00040649774866236254,0.0,0.0,-0.6,0.0,0.002574443817138672,0.002574443817138672,0.0039501190185546875,0
0.8496997356414795,0.03514103591442108,0.019944431260228157,1.1364985704421997,-0.011324374768819668,0.910152727023748,-0.004768068525220672,-0.0037429017132339913,-0.00040705881355218614,0.0,0.0,-0.6,0.0,0.002356290817260742,0.002356290817260742,0.0034368038177490234,0
0.8597412109375,0.03511011227965355,0.020037000998854637,1.137102484703064,-0.01134427688718397,0.9103303697887869,-0.004741175776457375,-0.0037200942621692518,-0.00040488761837999797,0.0,0.0,-0.6,0.0,0.0027618408203125,0.0027618408203125,0.0038764476776123047,0
0.8698575496673584,0.03508106246590614,0.020129844546318054,1.1377681493759155,-0.011352750994122744,0.910501813476811,-0.004690904906287915,-0.003677586864630904,-0.00040052503853878874,0.0,0.0,-0.6,0.0,0.0030803680419921875,0.0030803680419921875,0.0041921138763427734,0
0.8797488212585449,0.0350286141037941,0.020319130271673203,1.139283537864685,-0.011376873081608702,0.9106674995079967,-0.004736959585853591,-0.003607460151417405,-0.000398227308352133,0.0,0.0,-0.6,0.0,0.0023767948150634766,0.0023767948150634766,0.003222942352294922,0
0.8902087211608887,0.035005100071430206,0.020417002961039543,1.1401302814483643,-0.011396548984982085,0.9108292563425955,-0.004805873213073713,-0.003532698505032751,-0.0003966890238447947,0.0,0.0,-0.6,0.0,0.0029523372650146484,0.0029523372650146484,0.0041730403900146484,0
0.9002940654754639,0.03498255833983421,0.020518211647868156,1.14103364944458,-0.011413572557164527,0.9109873357193605,-0.004905022456298294,-0.003459204950249743,-0.00039662732402023917,0.0,0.0,-0.6,0.0,0.0022449493408203125,0.0022449493408203125,0.0037114620208740234,0
0.9100039005279541,0.03496108949184418,0.02062268927693367,1.141992449760437,-0.011433022805173084,0.9111421161049205,-0.005004370106547783,-0.0033759101966275022,-0.00039568603451367156,0.0,0.0,-0.6,0.0,0.002747774124145508,0.002747774124145508,0.0038039684295654297,0
0.9201316833496094,0.03494084253907204,0.020729921758174896,1.1430048942565918,-0.011440926244348141,0.9112938492144382,-0.005125215845398996,-0.003287448034174097,-0.00039542791738248926,0.0,0.0,-0.6,0.0,0.0029103755950927734,0.0029103755950927734,0.004409074783325195,0
0.9298126697540283,0.034938015043735504,0.02095075696706772,1.1451667547225952,-0.011461313731513214,0.911442944168453,-0.005274857855037697,-0.0032179708748918093,-0.00039765244617229764,0.0,0.0,-0.6,0.0,0.002232074737548828,0.002232074737548828,0.003045320510864258,0
0.9396841526031494,0.03495343402028084,0.021063098683953285,1.1463148593902588,-0.011468577848677667,0.9115911895733063,-0.0053831378251655605,-0.0031506638325785943,-0.0003981716427068729,0.0,0.0,-0.6,0.0,0.005425453186035156,0.005425453186035156,0.007226467132568359,0
0.9504005908966064,0.034968506544828415,0.021176401525735855,1.14751398563385,-0.011482174724405457,0.9117386663797175,-0.0054473936719676205,-0.003078623302952298,-0.00039659276486309205,0.0,0.0,-0.6,0.0,0.004357337951660156,0.004357337951660156,0.00600886344909668,0
0.9599096775054932,0.03499823808670044,0.021407758817076683,1.1500580310821533,-0.011500042159598352,0.9118855563844637,-0.005559869535417398,-0.003008971632930752,-0.00039706100282021,0.0,0.0,-0.6,0.0,0.0028209686279296875,0.0028209686279296875,0.003905057907104492,0
0.9701149463653564,0.03501494601368904,0.021528275683522224,1.1514005661010742,-0.011503601779639046,0.9120335091995376,-0.005630014927194186,-0.00296780898940539,-0.00039742890704495896,0.0,0.0,-0.6,0.0,0.002832651138305664,0.002832651138305664,0.003931999206542969,0
0.9795923233032227,0.035028889775276184,0.021650688722729683,1.1527888774871826,-0.011512139626666718,0.9121823129118546,-0.00570573176030177,-0.002948670036018219,-0.0003993489584280427,0.0,0.0,-0.6,0.0,0.0018503665924072266,0.0018503665924072266,0.002476215362548828,0
0.9903295040130615,0.035041823983192444,0.021774809807538986,1.1542222499847412,-0.011520389915884624,0.9123318347267744,-0.0057432706805577004,-0.0029133639650991074,-0.00039891834780023046,0.0,0.0,-0.6,0.0,0.0026941299438476562,0.0026941299438476562,0.0037031173706054688,0
1.0001497268676758,0.03490182012319565,0.02203536406159401,1.1532926559448242,-0.0115512126634462,0.9124820930249938,-0.005812845767105488,-0.0029227723304837225,-0.00040235805902600214,0.0,0.0,-0.6,0.0,0.0024666786193847656,0.0024666786193847656,0.003638029098510742,0
1.009960651397705,0.03475202992558479,0.022169873118400574,1.1510255336761475,-0.011592069289105144,0.9126298957657096,-0.005824743513131373,-0.0029589348588927485,-0.00040523660952020515,0.0,0.0,-0.6,0.0,0.0015864372253417969,0.0015864372253417969,0.0024602413177490234,0
1.0197947025299072,0.03460449352860451,0.022303452715277672,1.148895502090454,-0.011625807449038308,0.9127711828282837,-0.005784555325532593,-0.0030152929147639557,-0.0004072619593087219,0.0,0.0,-0.6,0.0,0.0019037723541259766,0.0019037723541259766,0.002724885940551758,0
1.0295867919921875,0.03445950895547867,0.02243637852370739,1.1468976736068726,-0.011638478455791811,0.9129033409373206,-0.005736670406058941,-0.003073867332845218,-0.00040903722531731467,0.0,0.0,-0.6,0.0,0.0020728111267089844,0.0020728111267089844,0.0031576156616210938,0
1.0395457744598389,0.03431880846619606,0.022571183741092682,1.1450281143188477,-0.011663240356927217,0.9130245893222341,-0.00575097145430002,-0.0031011619552508865,-0.00041137174776343966,0.0,0.0,-0.6,0.0,0.003106355667114258,0.003106355667114258,0.0039825439453125,0
1.0500037670135498,0.03404698520898819,0.022847114130854607,1.141666054725647,-0.011721839345915301,0.9131341226535654,-0.005849460307500549,-0.0031864818631036356,-0.0004208973671212455,0.0,0.0,-0.6,0.0,0.0027344226837158203,0.0027344226837158203,0.003818035125732422,0
1.0598509311676025,0.0339149534702301,0.022987013682723045,1.1401684284210205,-0.011738365574247869,0.9132297979080903,-0.005898115844171034,-0.003258086402248226,-0.00042730019221184424,0.0,0.0,-0.6,0.0,0.0019233226776123047,0.0019233226776123047,0.0025916099548339844,0
1.0700514316558838,0.033785369247198105,0.02312719076871872,1.1387875080108643,-0.011750172092870504,0.9133126585948104,-0.005929878824483316,-0.0033368877399689283,-0.000433414861271556,0.0,0.0,-0.6,0.0,0.0021872520446777344,0.0021872520446777344,0.0034732818603515625,0
1.0798358917236328,0.033580854535102844,0.023413492366671562,1.1363167762756348,-0.011794266276145509,0.913383568861012,-0.006033636182407119,-0.0034260510021466776,-0.0004428823286780995,0.0,0.0,-0.6,0.0,0.002369403839111328,0.002369403839111328,0.003333568572998047,0
1.091273546218872,0.033483050763607025,0.023558177053928375,1.1352430582046509,-0.011823848340118114,0.9134415848321488,-0.0061137935331659135,-0.003488626922663787,-0.0004499330485740056,0.0,0.0,-0.6,0.0,0.0026531219482421875,0.0026531219482421875,0.003591775894165039,0
1.0997216701507568,0.0333872064948082,0.02370467036962509,1.134273886680603,-0.01184568802153026,0.9134881780486851,-0.0061884252107168415,-0.0035376191691982796,-0.0004559651582039053,0.0,0.0,-0.6,0.0,0.0025844573974609375,0.0025844573974609375,0.0035092830657958984,0
1.1098856925964355,0.03329305350780487,0.023853497579693794,1.1334068775177002,-0.011860837285873551,0.9135248843629314,-0.006266385940732095,-0.003588557806833373,-0.0004622768859447628,0.0,0.0,-0.6,0.0,0.0021431446075439453,0.0021431446075439453,0.0033919811248779297,0
1.1195659637451172,0.033106569200754166,0.024156875908374786,1.1319692134857178,-0.011922756185245102,0.913552902474143,-0.006400370686051691,-0.0036872728164646664,-0.0004739867875725643,0.0,0.0,-0.6,0.0,0.002221822738647461,0.002221822738647461,0.0028777122497558594,0
1.1299755573272705,0.033014386892318726,0.024310851469635963,1.1313954591751099,-0.011968643581090082,0.9135726927384263,-0.006501276494030547,-0.0037626255958176672,-0.0004827712078026053,0.0,0.0,-0.6,0.0,0.002330780029296875,0.002330780029296875,0.0031960010528564453,0
1.1397480964660645,0.032924387603998184,0.02446654625236988,1.130913257598877,-0.011995371310621427,0.9135858350647976,-0.006571174507494807,-0.0038059982811531994,-0.000488503038670747,0.0,0.0,-0.6,0.0,0.002902984619140625,0.002902984619140625,0.004098415374755859,0
1.149775743484497,0.03286827728152275,0.024622842669487,1.1305363178253174,-0.012031287134880468,0.9135932221064468,-0.006611772545607115,-0.0038366816037677547,-0.0004920101136546189,0.0,0.0,-0.6,0.0,0.002148866653442383,0.002148866653442383,0.0031080245971679688,0
1.1602628231048584,0.032759889960289,0.024946898221969604,1.1299604177474976,-0.012111097294491342,0.913595793119395,-0.006939307865898262,-0.0037482713060750785,-0.000500054704128455,0.0,0.0,-0.6,0.0,0.0026018619537353516,0.0026018619537353516,0.004081249237060547,0
1.1698169708251953,0.032719675451517105,0.025126216933131218,1.129577398300171,-0.01216091595257111,0.9135778631165362,-0.007454060864763732,-0.0034865863919014478,-0.0005052594423308771,0.0,0.0,-0.6,0.0,0.001834869384765625,0.001834869384765625,0.0026586055755615234,0
1.1799914836883545,0.03269021958112717,0.02532060630619526,1.1290096044540405,-0.012209941881787473,0.9135189722897192,-0.00821001227218451,-0.003087623613645271,-0.0005120869645787532,0.0,0.0,-0.6,0.0,0.0029387474060058594,0.0029387474060058594,0.003886699676513672,0
1.1897969245910645,0.032672785222530365,0.025533773005008698,1.1282118558883667,-0.012253423650704904,0.9133984936349048,-0.009194590056156202,-0.0025354999571575933,-0.000519116490199591,0.0,0.0,-0.6,0.0,0.0015442371368408203,0.0015442371368408203,0.002137899398803711,0
1.1997864246368408,0.03266976401209831,0.025767171755433083,1.127159595489502,-0.012296674823256477,0.9131987512077808,-0.010367363941103387,-0.0018446678856493535,-0.000525509442790705,0.0,0.0,-0.6,0.0,0.002338409423828125,0.002338409423828125,0.003381013870239258,0
1.209822654724121,0.03268153592944145,0.026021553203463554,1.1258405447006226,-0.012311253788984351,0.9129060003574655,-0.01166000278009415,-0.0010390664044093384,-0.0005301598825857804,0.0,0.0,-0.6,0.0,0.0022678375244140625,0.0022678375244140625,0.0032999515533447266,0
1.219602108001709,0.032815124839544296,0.026585400104522705,1.1223633289337158,-0.012343170579571856,0.9125105693363016,-0.013559096166039248,7.853947803567811e-05,-0.0005427070541749479,0.0,0.0,-0.6,0.0,0.002069234848022461,0.002069234848022461,0.0028128623962402344,0
1.2297101020812988,0.03290250897407532,0.026896381750702858,1.1202025413513184,-0.012375287710855274,0.9119649678188143,-0.015334191900513402,0.0012375742276200267,-0.0005463102572893376,0.0,0.0,-0.6,0.0,0.0021407604217529297,0.0021407604217529297,0.0031845569610595703,0
1.240131139755249,0.033120881766080856,0.02757539041340351,1.1150397062301636,-0.012423386006655983,0.9112772605630435,-0.01757301144675625,0.002668385434386364,-0.0005551891928831134,0.0,0.0,-0.6,0.0,0.0024421215057373047,0.0024421215057373047,0.0035965442657470703,0
1.249786138534546,0.03325103223323822,0.0279438067227602,1.1120365858078003,-0.012440389437046862,0.9104127547396083,-0.019576537402459678,0.004066186147758875,-0.000554177955979977,0.0,0.0,-0.6,0.0,0.0021584033966064453,0.0021584033966064453,0.0030155181884765625,0
1.2597615718841553,0.033396266400814056,0.02833101898431778,1.108750820159912,-0.012463622585586,0.9093897620730653,-0.02139237643652053,0.005443077541102198,-0.0005466123167353581,0.0,0.0,-0.6,0.0,0.0024077892303466797,0.0024077892303466797,0.0033516883850097656,0
1.2698032855987549,0.033556513488292694,0.028737381100654602,1.1051849126815796,-0.012493185029333413,0.9082228605527686,-0.023089967741669323,0.00679455918966572,-0.0005360335513690499,0.0,0.0,-0.6,0.0,0.0026116371154785156,0.0026116371154785156,0.0038137435913085938,0
1.2797808647155762,0.0339537188410759,0.02960841730237007,1.0971812009811401,-0.012564585072628837,0.9069240719844123,-0.025312648453186887,0.008433120352471058,-0.0005333747024512898,0.0,0.0,-0.6,0.0,0.0022237300872802734,0.0022237300872802734,0.0030364990234375,0
1.2903132438659668,0.03419055789709091,0.03007209673523903,1.092746376991272,-0.012588130183346,0.905460985842499,-0.027265518800841868,0.010004174128110355,-0.0005199554365026723,0.0,0.0,-0.6,0.0,0.002559661865234375,0.002559661865234375,0.0036427974700927734,0
1.2997732162475586,0.034442052245140076,0.030553419142961502,1.0880353450775146,-0.012622307511757351,0.9038541111687934,-0.028997241427088,0.011517310576521745,-0.0005005450007127338,0.0,0.0,-0.6,0.0,0.001924753189086914,0.001924753189086914,0.0029518604278564453,0
1.3101167678833008,0.034708354622125626,0.031052444130182266,1.0830490589141846,-0.012644878197575732,0.9021193453569843,-0.03059302567811737,0.012982348021647789,-0.00047818826541941246,0.0,0.0,-0.6,0.0,0.0026094913482666016,0.0026094913482666016,0.0034279823303222656,0
1.319969892501831,0.03528403863310814,0.03210286796092987,1.0722594261169434,-0.012705198135543772,0.9002693315148336,-0.032642889107563355,0.014713936647006211,-0.00046507320686140527,0.0,0.0,-0.6,0.0,0.0026895999908447266,0.0026895999908447266,0.0040318965911865234,0
1.3296427726745605,0.035592928528785706,0.032653193920850754,1.06645929813385,-0.012739268924665394,0.8982718259224277,-0.03441725148350282,0.016325976858247306,-0.0004408836740769577,0.0,0.0,-0.6,0.0,0.0016644001007080078,0.0016644001007080078,0.002263784408569336,0
1.3397202491760254,0.03591490164399147,0.03321956843137741,1.0603621006011963,-0.012769003287314673,0.8961476238744629,-0.03599406969152939,0.017847285209572437,-0.0004125406533732588,0.0,0.0,-0.6,0.0,0.0023696422576904297,0.0023696422576904297,0.003429889678955078,0
1.3498573303222656,0.03625041991472244,0.03380165249109268,1.0540003776550293,-0.012816271210827514,0.8939127764752027,-0.03740926673465426,0.019285209156528652,-0.00038129324551834133,0.0,0.0,-0.6,0.0,0.0025949478149414062,0.0025949478149414062,0.003944873809814453,0
1.359771490097046,0.03702590614557266,0.03500329703092575,1.0404928922653198,-0.012922061754640283,0.8915800305452235,-0.03922791578343533,0.020979625916868236,-0.0003573728965571355,0.0,0.0,-0.6,0.0,0.002106904983520508,0.002106904983520508,0.0031304359436035156,0
1.3698620796203613,0.037432339042425156,0.03562675416469574,1.033353567123413,-0.012991280816526101,0.8891172026921532,-0.040863753242842776,0.022559781636667473,-0.0003249919265983487,0.0,0.0,-0.6,0.0,0.0028235912322998047,0.0028235912322998047,0.003927946090698242,0
1.3797507286071777,0.03785087168216705,0.03626665845513344,1.0259602069854736,-0.013044727775227404,0.8865449133293241,-0.042325512935266436,0.02404697008511137,-0.0002913139644219528,0.0,0.0,-0.6,0.0,0.003411531448364258,0.003411531448364258,0.004525184631347656,0
1.3908734321594238,0.03828194737434387,0.0369209460914135,1.0183161497116089,-0.01310217241130712,0.8838790105731028,-0.04365244693303964,0.025461123381404365,-0.0002552402569269138,0.0,0.0,-0.6,0.0,0.002584695816040039,0.002584695816040039,0.003651142120361328,0
1.399712324142456,0.038825031369924545,0.037839896976947784,0.9995239973068237,-0.013142537601080749,0.8811319065440644,-0.045363801346071396,0.02711051302526242,-0.00022805674584706843,0.0,0.0,-0.6,0.0,0.002421140670776367,0.002421140670776367,0.003518342971801758,0
1.4096267223358154,0.03894374519586563,0.03810955956578255,0.9884293079376221,-0.013164939785100502,0.8782679795471438,-0.0467072820389074,0.028557188930462905,-0.0001894713318505769,0.0,0.0,-0.6,0.0,0.0022280216217041016,0.0022280216217041016,0.0031003952026367188,0
1.4198298454284668,0.03908059373497963,0.038400713354349136,0.9771674871444702,-0.013209668289328963,0.8753048355662435,-0.047787488866411876,0.02983667481669234,-0.00014737084248637238,0.0,0.0,-0.6,0.0,0.0031020641326904297,0.0031020641326904297,0.0042781829833984375,0
1.4296770095825195,0.039260078221559525,0.03871342912316322,0.9657385945320129,-0.013257144063538059,0.8722560928016994,-0.04865575167722536,0.03100430559582582,-0.0001028751727943662,0.0,0.0,-0.6,0.0,0.0025937557220458984,0.0025937557220458984,0.003814697265625,0
1.439685344696045,0.03967279568314552,0.03939571604132652,0.9423989653587341,-0.013333675721078506,0.8691327596864179,-0.049786589773872396,0.03236548823084826,-6.45926468439569e-05,0.0,0.0,-0.6,0.0,0.002688884735107422,0.002688884735107422,0.0036542415618896484,0
1.4500482082366943,0.03990664705634117,0.03976466506719589,0.9304916858673096,-0.013353965472422059,0.8658997075474617,-0.05071756940452766,0.03361841906006321,-1.403738903960327e-05,0.0,0.0,-0.6,0.0,0.002776622772216797,0.002776622772216797,0.003935098648071289,0
1.459747076034546,0.040157996118068695,0.040152739733457565,0.9184287786483765,-0.013366986281103261,0.8625773117263964,-0.051520933506640415,0.034753190041220496,3.489492880778673e-05,0.0,0.0,-0.6,0.0,0.002869129180908203,0.002869129180908203,0.004115104675292969,0
1.4698565006256104,0.040426064282655716,0.04055878520011902,0.9062120318412781,-0.013382290952755699,0.8591813917494102,-0.05219068181728562,0.03581139975345831,8.460820964744265e-05,0.0,0.0,-0.6,0.0,0.0028090476989746094,0.0028090476989746094,0.003912925720214844,0
1.4801580905914307,0.041015785187482834,0.041420742869377136,0.8813202381134033,-0.013420493165162355,0.8557239652083883,-0.053200372350084985,0.037159039765432667,0.00013303097910915038,0.0,0.0,-0.6,0.0,0.002534151077270508,0.002534151077270508,0.003821134567260742,0
1.4901018142700195,0.04133564233779907,0.04187384247779846,0.8686531782150269,-0.013434943616730156,0.8521718293197392,-0.05398710995942622,0.038365230577719275,0.0001887243525633344,0.0,0.0,-0.6,0.0,0.0028028488159179688,0.0028028488159179688,0.003752470016479492,0
1.4996709823608398,0.04169703274965286,0.04233932122588158,0.8558436036109924,-0.013453954977232004,0.8485457204259085,-0.054621318237646675,0.03946642181072793,0.0002461163978855824,0.0,0.0,-0.6,0.0,0.002515077590942383,0.002515077590942383,0.0034513473510742188,0
1.5100023746490479,0.042073119431734085,0.04281900078058243,0.8428964614868164,-0.013485989389369768,0.8448616068099636,-0.05516975345787327,0.040490192058897825,0.00030236183589642636,0.0,0.0,-0.6,0.0,0.0029921531677246094,0.0029921531677246094,0.004180908203125,0
1.519928216934204,0.042462654411792755,0.043311748653650284,0.8298149704933167,-0.013494865161087858,0.8411317977693527,-0.05561043469651958,0.04143088779505331,0.00035968192724416615,0.0,0.0,-0.6,0.0,0.002607583999633789,0.002607583999633789,0.0036468505859375,0
1.5299925804138184,0.04328126087784767,0.04433063045144081,0.8032570481300354,-0.013535121225092988,0.8373658144803625,-0.05634761084334001,0.04265403330316017,0.0004176912616136701,0.0,0.0,-0.6,0.0,0.002667665481567383,0.002667665481567383,0.003684520721435547,0
1.5395267009735107,0.043711282312870026,0.044855665415525436,0.7897868156433105,-0.013542758996545343,0.8335302844572344,-0.05692991583408641,0.04379384274875881,0.00048368122743540365,0.0,0.0,-0.6,0.0,0.0019989013671875,0.0019989013671875,0.002777099609375,0
1.550001621246338,0.044154319912195206,0.04539043828845024,0.776195228099823,-0.013559759104909233,0.829643458944237,-0.05737450138579791,0.04483739135270989,0.0005510002350859279,0.0,0.0,-0.6,0.0,0.002698659896850586,0.002698659896850586,0.003705263137817383,0
1.5599255561828613,0.04507613182067871,0.04648655280470848,0.7486114501953125,-0.013592421965564587,0.8257193694891937,-0.05811665551127092,0.04612498077359834,0.00061624131328625,0.0,0.0,-0.6,0.0,0.0033326148986816406,0.0033326148986816406,0.005339384078979492,0
1.5696501731872559,0.04557782784104347,0.04704662412405014,0.7346513271331787,-0.01358545998206984,0.8217298089989833,-0.058659417624580365,0.04727449624288891,0.0006880927330419342,0.0,0.0,-0.6,0.0,0.0014488697052001953,0.0014488697052001953,0.001979351043701172,0
1.5796518325805664,0.04608951136469841,0.04761374741792679,0.7205854058265686,-0.013589235992086992,0.8176949145975766,-0.059067759771354,0.04831115498383193,0.0007591629078721951,0.0,0.0,-0.6,0.0,0.0031151771545410156,0.0031151771545410156,0.0041522979736328125,0
1.5899245738983154,0.04660934954881668,0.04818829521536827,0.7064179182052612,-0.01358723765205066,0.8136298718082222,-0.059374893726479784,0.049212222873137694,0.0008278421939241349,0.0,0.0,-0.6,0.0,0.0024843215942382812,0.0024843215942382812,0.003448486328125,0
1.599724292755127,0.04713700711727142,0.048768505454063416,0.6921539306640625,-0.013582657002769729,0.8095464314748864,-0.05954374130852372,0.05003655639741463,0.0008952732030612012,0.0,0.0,-0.6,0.0,0.0019140243530273438,0.0019140243530273438,0.002695322036743164,0
1.6098384857177734,0.048216819763183594,0.049943964928388596,0.663357138633728,-0.013597273120033507,0.8054537293643154,-0.06000486708049691,0.051059249035052545,0.0009565528543338322,0.0,0.0,-0.6,0.0,0.0029020309448242188,0.0029020309448242188,0.004061222076416016,0
1.6197524070739746,0.04876524209976196,0.05053948983550072,0.6488307118415833,-0.01358403075960531,0.8013230618593159,-0.0603016473186307,0.051950746846382734,0.0010245899960922872,0.0,0.0,-0.6,0.0,0.0028722286224365234,0.0028722286224365234,0.0037832260131835938,0
1.6301147937774658,0.0493202768266201,0.051138736307621,0.6342224478721619,-0.01357740001943352,0.7971706881885763,-0.06047237884852901,0.052720901881703336,0.0010916425259354513,0.0,0.0,-0.6,0.0,0.0026750564575195312,0.0026750564575195312,0.0036356449127197266,0
1.639876127243042,0.050478894263505936,0.05234310403466225,0.6047865748405457,-0.013564249688320183,0.7930092055672664,-0.06076372977244376,0.05370708292659275,0.0011626554528343768,0.0,0.0,-0.6,0.0,0.002177715301513672,0.002177715301513672,0.003294706344604492,0
1.6496706008911133,0.05108198896050453,0.05294553190469742,0.5899664759635925,-0.013552199972278633,0.7888144919891142,-0.060868230710998464,0.05456561839999207,0.0012419008922435221,0.0,0.0,-0.6,0.0,0.0024869441986083984,0.0024869441986083984,0.0032930374145507812,0
1.6604437828063965,0.05168871209025383,0.053548626601696014,0.5750828385353088,-0.013556245284300836,0.7846041127136195,-0.060836268915016145,0.05527286750162326,0.0013159660352578492,0.0,0.0,-0.6,0.0,0.003138303756713867,0.003138303756713867,0.004209995269775391,0
1.6696302890777588,0.05229847505688667,0.05415201559662819,0.5601406693458557,-0.013536257881391936,0.7803911944669398,-0.060683999694862455,0.05588080753540781,0.0013893310302028146,0.0,0.0,-0.6,0.0,0.0020799636840820312,0.0020799636840820312,0.003103017807006836,0
1.6797211170196533,0.05291029438376427,0.05475360527634621,0.5451442003250122,-0.013543345810181472,0.7761859095682794,-0.0603639956656506,0.056340850447015194,0.0014595111097180263,0.0,0.0,-0.6,0.0,0.0022423267364501953,0.0022423267364501953,0.003147602081298828,0
1.6905899047851562,0.054135702550411224,0.055948927998542786,0.5150051116943359,-0.01357620228383643,0.7719957495784421,-0.06013309018558755,0.0569641615229606,0.001531226049601924,0.0,0.0,-0.6,0.0,0.0024900436401367188,0.0024900436401367188,0.0036869049072265625,0
1.6996963024139404,0.054750751703977585,0.05654259771108627,0.4998455047607422,-0.013574296778114496,0.7677958163683298,-0.059745838908506585,0.05747464951992138,0.0016069997514980869,0.0,0.0,-0.6,0.0,0.0018281936645507812,0.0018281936645507812,0.002615690231323242,0
1.7104766368865967,0.0553663969039917,0.05713292211294174,0.48464974761009216,-0.013592828098408555,0.7636001147002818,-0.05928009554644397,0.0578236769828473,0.00167456309681436,0.0,0.0,-0.6,0.0,0.0023081302642822266,0.0023081302642822266,0.0037288665771484375,0
1.7196271419525146,0.05601458251476288,0.05771739035844803,0.4694204330444336,-0.013608814142341883,0.7594192992531381,-0.05874082406120283,0.0580425408062057,0.0017343585165220895,0.0,0.0,-0.6,0.0,0.0035865306854248047,0.0035865306854248047,0.004611968994140625,0
1.7295582294464111,0.056660789996385574,0.05829808861017227,0.45416590571403503,-0.013618664507262623,0.75526143429953,-0.05811112071651105,0.05816223858476889,0.0017910521000203804,0.0,0.0,-0.6,0.0,0.0016717910766601562,0.0016717910766601562,0.002255678176879883,0
1.7403044700622559,0.056660789996385574,0.05829808861017227,0.45416590571403503,-0.013618664507262623,0.7511330852325758,-0.05729750515154235,0.05796025582017301,0.0018399583351711988,0.0,0.0,-0.6,0.0,0.0031239986419677734,0.0031239986419677734,0.0045092105865478516,0
1.7496716976165771,0.05859280377626419,0.060009825974702835,0.40829527378082275,-0.013585123715889647,0.7470670869849593,-0.05663263150292827,0.05826950127050996,0.0018956315043383285,0.0,0.0,-0.6,0.0,0.0034456253051757812,0.0034456253051757812,0.0043659210205078125,0
1.7604916095733643,0.05986776947975159,0.06111695244908333,0.3776753544807434,-0.013572673600775678,0.7430042799674387,-0.055768672551658204,0.058596529467012826,0.0019684954795069413,0.0,0.0,-0.6,0.0,0.0025777816772460938,0.0025777816772460938,0.003514528274536133,0
1.7697949409484863,0.060497984290122986,0.06165824830532074,0.36232832074165344,-0.013561055135728532,0.7389332484834108,-0.054810376684831234,0.05872504888427289,0.0020348893206059535,0.0,0.0,-0.6,0.0,0.002768993377685547,0.002768993377685547,0.003731250762939453,0
1.7798776626586914,0.060497984290122986,0.06165824830532074,0.36232832074165344,-0.013561055135728532,0.7348720821797253,-0.053783205579511946,0.058515897214187367,0.0020866501364321054,0.0,0.0,-0.6,0.0,0.0016074180603027344,0.0016074180603027344,0.0024123191833496094,0
1.7909634113311768,0.0617821142077446,0.06271499395370483,0.3316589295864105,-0.013589266245998323,0.7308583968793463,-0.052656702724686213,0.058461205904667184,0.002135461883895961,0.0,0.0,-0.6,0.0,0.001802682876586914,0.001802682876586914,0.0028612613677978516,0
1.7999732494354248,0.0617821142077446,0.06271499395370483,0.3316589295864105,-0.013589266245998323,0.7268710465485264,-0.051510491818252666,0.058102568895177516,0.002178897637330473,0.0,0.0,-0.6,0.0,0.0023539066314697266,0.0023539066314697266,0.0034737586975097656,0
1.809633731842041,0.06196959689259529,0.06174057722091675,0.28013548254966736,-0.013567262162553833,0.7229423679415004,-0.04902368134259533,0.05751191469271267,0.002224942875623136,0.0,0.0,-0.6,0.0,0.0018491744995117188,0.0018491744995117188,0.0025522708892822266,0
1.8200597763061523,0.06196959689259529,0.06174057722091675,0.28013548254966736,-0.013567262162553833,0.7190193050653322,-0.04690900553597677,0.05669737969878955,0.0022638026359684516,0.0,0.0,-0.6,0.0,0.0020127296447753906,0.0020127296447753906,0.002906322479248047,0
1.8295724391937256,0.06154903769493103,0.06031571701169014,0.24432902038097382,-0.013572939135624004,0.7151393369825051,-0.04386160994549666,0.05548622947971671,0.0022866427269070326,0.0,0.0,-0.6,0.0,0.0021224021911621094,0.0021224021911621094,0.0028634071350097656,0
1.839920997619629,0.06154903769493103,0.06031571701169014,0.24432902038097382,-0.013572939135624004,0.7112787305268183,-0.04136124939849433,0.05416583140803486,0.0022983176148620517,0.0,0.0,-0.6,0.0,0.0018296241760253906,0.0018296241760253906,0.0028209686279296875,0
1.8497028350830078,0.060980599373579025,0.058272771537303925,0.1913716048002243,-0.013539154184738523,0.7074705278409252,-0.03711886467988617,0.052446770858614475,0.002309926294626246,0.0,0.0,-0.6,0.0,0.003018617630004883,0.003018617630004883,0.0039827823638916016,0
1.860114336013794,0.060980599373579025,0.058272771537303925,0.1913716048002243,-0.013539154184738523,0.7036687517311775,-0.03378807329162678,0.05070560024508491,0.002309956563710975,0.0,0.0,-0.6,0.0,0.0026540756225585938,0.0026540756225585938,0.00396728515625,0
1.8703200817108154,0.060689784586429596,0.05695459246635437,0.15660616755485535,-0.013518452403176675,0.699909468696923,-0.029647259768452856,0.04871818551027649,0.0022962339870701656,0.0,0.0,-0.6,0.0,0.002678394317626953,0.002678394317626953,0.003692150115966797,0
1.880516529083252,0.060689784586429596,0.05695459246635437,0.15660616755485535,-0.013518452403176675,0.6961755923866096,-0.02643145827548377,0.046775635980112654,0.0022727343227018156,0.0,0.0,-0.6,0.0,0.0025839805603027344,0.0025839805603027344,0.004126310348510742,0
1.89046049118042,0.060279183089733124,0.05502363666892052,0.10534033924341202,-0.013460814913018855,0.6924972540472434,-0.021413032143930564,0.04429233507812293,0.002229129080479694,0.0,0.0,-0.6,0.0,0.0028667449951171875,0.0028667449951171875,0.003873109817504883,0
1.9004619121551514,0.060279183089733124,0.05502363666892052,0.10534033924341202,-0.013460814913018855,0.6888372082066403,-0.017607775613539937,0.04194905346593542,0.0021876833836938048,0.0,0.0,-0.6,0.0,0.002405881881713867,0.002405881881713867,0.003985404968261719,0
1.910139560699463,0.06000829488039017,0.05375152453780174,0.07177191972732544,-0.01340166514723693,0.685226863744443,-0.012945281752005175,0.03928448294066863,0.002126931183837292,0.0,0.0,-0.6,0.0,0.002989053726196289,0.002989053726196289,0.004015684127807617,0
1.9204018115997314,0.06000829488039017,0.05375152453780174,0.07177191972732544,-0.01340166514723693,0.6816531601102619,-0.009451727486492326,0.03682151985542028,0.0020635709060837664,0.0,0.0,-0.6,0.0,0.002431154251098633,0.002431154251098633,0.0035982131958007812,0
1.9307887554168701,0.05963268503546715,0.051858168095350266,0.02227790653705597,-0.013355726291536722,0.6781415844816485,-0.004277350840986765,0.03391139820493979,0.001980638542261583,0.0,0.0,-0.6,0.0,0.0031461715698242188,0.0031461715698242188,0.004111051559448242,0
1.940056562423706,0.05963268503546715,0.051858168095350266,0.02227790653705597,-0.013355726291536722,0.6746620872703357,-0.00046585991465234643,0.03126472305939153,0.0019073087571875257,0.0,0.0,-0.6,0.0,0.002104043960571289,0.002104043960571289,0.0032918453216552734,0
1.950218915939331,0.059527598321437836,0.05122877657413483,0.006042962893843651,-0.013328566535592222,0.6712405502335725,0.0032130306950038747,0.028588307029403674,0.0018179688930536355,0.0,0.0,-0.6,0.0,0.002669095993041992,0.002669095993041992,0.0038115978240966797,0
1.9600098133087158,0.059419211000204086,0.05059874802827835,-0.010056465864181519,-0.013312128433820417,0.6678806262806775,0.006880795102657279,0.025927892557300422,0.0017271821192134348,0.0,0.0,-0.6,0.0,0.0024123191833496094,0.0024123191833496094,0.0037202835083007812,0
1.9699645042419434,0.059194307774305344,0.049330081790685654,-0.04184325784444809,-0.013289952902774864,0.6645850775695376,0.01152152018489998,0.023015257086498972,0.0016293701621934798,0.0,0.0,-0.6,0.0,0.0029959678649902344,0.0029959678649902344,0.004090785980224609,0
1.9805071353912354,0.059076253324747086,0.04869157448410988,-0.05752469599246979,-0.013260658807326702,0.6613435429038528,0.015827874410241135,0.02010899963796072,0.0015333909607734386,0.0,0.0,-0.6,0.0,0.002482891082763672,0.002482891082763672,0.003977775573730469,0
1.9898667335510254,0.05882212892174721,0.047405779361724854,-0.08848178386688232,-0.013232829725816403,0.6581623380578383,0.020980626421162826,0.01679952572401942,0.0014202097616740064,0.0,0.0,-0.6,0.0,0.0021626949310302734,0.0021626949310302734,0.003081083297729492,0
1.9998655319213867,0.05882212892174721,0.047405779361724854,-0.08848178386688232,-0.013232829725816403,0.6550360498371833,0.024595378903997198,0.01392234643646279,0.0013202218889177297,0.0,0.0,-0.6,0.0,0.0019180774688720703,0.0019180774688720703,0.002826213836669922,0
2.009800434112549,0.05856810882687569,0.046095337718725204,-0.11887289583683014,-0.01322182693951862,0.6519809075518457,0.02933622203154684,0.010583510889827348,0.001194553712454166,0.0,0.0,-0.6,0.0,0.002195119857788086,0.002195119857788086,0.0033059120178222656,0
2.0197365283966064,0.05844569951295853,0.04543144628405571,-0.1338384598493576,-0.013185557950011662,0.6489904522545291,0.033655569595119186,0.007338756230414726,0.001076045741720717,0.0,0.0,-0.6,0.0,0.0018677711486816406,0.0018677711486816406,0.0024747848510742188,0
2.0302016735076904,0.05831547826528549,0.04476333037018776,-0.1486479490995407,-0.013136882562027751,0.6460691915811222,0.037647514583037875,0.004165468731440076,0.0009563036821593334,0.0,0.0,-0.6,0.0,0.0027916431427001953,0.0027916431427001953,0.004102945327758789,0
2.0402944087982178,0.058176424354314804,0.044089704751968384,-0.1632993221282959,-0.013109549365903072,0.6432204803091678,0.04144010257025948,0.0010373287627781012,0.0008361532715712899,0.0,0.0,-0.6,0.0,0.0020759105682373047,0.0020759105682373047,0.0033583641052246094,0
2.050205707550049,0.0577048659324646,0.04203638806939125,-0.2062808871269226,-0.013005291405455607,0.6404466922795504,0.047269325905777114,-0.002944362416341335,0.0006852369364360501,0.0,0.0,-0.6,0.0,0.0015873908996582031,0.0015873908996582031,0.002277374267578125,0
2.0603790283203125,0.0577048659324646,0.04203638806939125,-0.2062808871269226,-0.013005291405455607,0.6377413446893861,0.05115416946906203,-0.006246645465128954,0.0005703756402842924,0.0,0.0,-0.6,0.0,0.002317667007446289,0.002317667007446289,0.0036890506744384766,0
2.069584608078003,0.05734159052371979,0.040636688470840454,-0.2341470718383789,-0.012989604134557258,0.635112926707291,0.05605033541703917,-0.010014458849103229,0.00042831991678360544,0.0,0.0,-0.6,0.0,0.002770662307739258,0.002770662307739258,0.0036649703979492188,0
2.080233573913574,0.05734159052371979,0.040636688470840454,-0.2341470718383789,-0.012989604134557258,0.6325608597752904,0.059171884452287826,-0.01308763943070837,0.0003184905748731748,0.0,0.0,-0.6,0.0,0.002134084701538086,0.002134084701538086,0.0033559799194335938,0
2.090806007385254,0.057006482034921646,0.039207469671964645,-0.2613399028778076,-0.012939369194985693,0.630089952498872,0.06329198453081696,-0.016557921145455047,0.00018440601290797828,0.0,0.0,-0.6,0.0,0.0027310848236083984,0.0027310848236083984,0.003801107406616211,0
2.0996992588043213,0.056824423372745514,0.03848451375961304,-0.27467796206474304,-0.012924890087374751,0.6276994793561969,0.06697992239013646,-0.01981269855505024,6.823690929948559e-05,0.0,0.0,-0.6,0.0,0.0022406578063964844,0.0022406578063964844,0.003122091293334961,0
2.110227584838867,0.05663204938173294,0.037754807621240616,-0.2878393232822418,-0.012911023604563664,0.6253911607480184,0.07031478338185133,-0.02294165068100282,-4.267241701098984e-05,0.0,0.0,-0.6,0.0,0.0027272701263427734,0.0027272701263427734,0.0036416053771972656,0
2.1203572750091553,0.05642741918563843,0.037018775939941406,-0.30082255601882935,-0.012910376685371578,0.6231664170997595,0.07334095223021907,-0.02597721135256491,-0.00014935486196004707,0.0,0.0,-0.6,0.0,0.002408266067504883,0.002408266067504883,0.003949880599975586,0
2.1297903060913086,0.0559808611869812,0.035526156425476074,-0.3262515068054199,-0.012872679129507913,0.6210258757739662,0.07743984379095036,-0.029498270490894707,-0.0002721247893752665,0.0,0.0,-0.6,0.0,0.0027704238891601562,0.0027704238891601562,0.0038750171661376953,0
2.1403629779815674,0.055740270763635635,0.034768760204315186,-0.338738352060318,-0.012849111203921036,0.6189722960851082,0.08094917093549997,-0.03278680640609512,-0.00037801257937389565,0.0,0.0,-0.6,0.0,0.0023233890533447266,0.0023233890533447266,0.0036444664001464844,0
2.149867296218872,0.05552896484732628,0.034001316875219345,-0.3510453999042511,-0.012829858597493235,0.6170056199769883,0.08410670428833684,-0.035869319830306313,-0.00047228607914070244,0.0,0.0,-0.6,0.0,0.0028128623962402344,0.0028128623962402344,0.003982067108154297,0
2.159940004348755,0.05530489608645439,0.03322566673159599,-0.3631693720817566,-0.012808138569035848,0.6151250515041045,0.08688465504411862,-0.03877346414885169,-0.0005584945416733998,0.0,0.0,-0.6,0.0,0.00270843505859375,0.00270843505859375,0.004026174545288086,0
2.1703312397003174,0.05455787479877472,0.03085612878203392,-0.39841654896736145,-0.01278550779050734,0.6133303116496911,0.09191909892276492,-0.042718340526372904,-0.0006828387185306116,0.0,0.0,-0.6,0.0,0.0029578208923339844,0.0029578208923339844,0.004062175750732422,0
2.179767608642578,0.05455787479877472,0.03085612878203392,-0.39841654896736145,-0.01278550779050734,0.6116331166216596,0.09471317589360913,-0.045653389584682534,-0.0007480396594438039,0.0,0.0,-0.6,0.0,0.002088785171508789,0.002088785171508789,0.0031020641326904297,0
2.190819025039673,0.05399641767144203,0.029238712042570114,-0.42095789313316345,-0.012756173101171869,0.6100238778736256,0.09834193106646531,-0.04900252106841239,-0.0008398279646512199,0.0,0.0,-0.6,0.0,0.002978801727294922,0.002978801727294922,0.0039174556732177734,0
2.2001521587371826,0.05399641767144203,0.029238712042570114,-0.42095789313316345,-0.012756173101171869,0.608510031145799,0.10003230001348516,-0.05139189454658019,-0.0008840699077456039,0.0,0.0,-0.6,0.0,0.002233743667602539,0.002233743667602539,0.0036389827728271484,0
