time,x,y,z,yaw,throttle,roll_rate,pitch_rate,yaw_rate,x_ref,y_ref,z_ref,yaw_ref,pred_time,nr_time,ctrl_callback_time,metadata
7.152557373046875e-07,-0.3394864499568939,0.08056756854057312,0.2739155888557434,-0.11296545716514053,0.0,0.0,0.0,0.0,0.0,0.0,-0.6,0.0,0.0004885196685791016,0.11347842216491699,0.13053679466247559,Sim
0.13086915016174316,-0.3394864499568939,0.08056756854057312,0.2739155888557434,-0.11296545716514053,0.0,0.0,0.0,0.0,0.0,0.0,-0.6,0.0,0.0003561973571777344,0.0028591156005859375,0.005557537078857422,NN
0.13987183570861816,-0.3394160866737366,0.08467811346054077,0.271114706993103,-0.1130465539252688,0.0,0.0,0.0,0.0,0.0,0.0,-0.6,0.0,0.00037980079650878906,0.0028367042541503906,0.005199432373046875,2x Speed
0.1501171588897705,-0.33943501114845276,0.08500631153583527,0.2710474133491516,-0.11306344919423482,0.0,0.0,0.0,0.0,0.0,0.0,-0.6,0.0,0.0005223751068115234,0.0030465126037597656,0.005640506744384766,1stOrderHold
0.15982389450073242,-0.33948391675949097,0.0856897309422493,0.2709120810031891,-0.11308391957040292,0.0,0.0,0.0,0.0,0.0,0.0,-0.6,0.0,0.00039386749267578125,0.002772808074951172,0.005237579345703125,QuatYawError
0.16997003555297852,-0.3394966423511505,0.08604244887828827,0.27084416151046753,-0.11310005166089929,0.0,0.0,0.0,0.0,0.0,0.0,-0.6,0.0,0.0004918575286865234,0.0029070377349853516,0.0054624080657958984,NoPyJoules
0.1798095703125,-0.3395127058029175,0.08640345931053162,0.27077651023864746,-0.11312766704161255,0.0,0.0,0.0,0.0,0.0,0.0,-0.6,0.0,0.00033926963806152344,0.002799510955810547,0.0052433013916015625,0
0.18990254402160645,-0.3396192491054535,0.08602165430784225,0.2699928879737854,-0.11312837970073104,0.0,0.0,0.0,0.0,0.0,0.0,-0.6,0.0,0.00037360191345214844,0.0026030540466308594,0.0050029754638671875,0
0.2000563144683838,-0.3398406505584717,0.08533240854740143,0.268552303314209,-0.11315525258290166,0.0,0.0,0.0,0.0,0.0,0.0,-0.6,0.0,0.00047898292541503906,0.0030994415283203125,0.005530595779418945,0
0.20978474617004395,-0.3399546146392822,0.08502300828695297,0.2678912580013275,-0.11318595963913197,0.0,0.0,0.0,0.0,0.0,0.0,-0.6,0.0,0.00034308433532714844,0.00257110595703125,0.0050334930419921875,0
0.21986651420593262,-0.34007105231285095,0.08473564684391022,0.2672472298145294,-0.11318769823292531,0.0,0.0,0.0,0.0,0.0,0.0,-0.6,0.0,0.00039315223693847656,0.0029151439666748047,0.005347490310668945,0
0.2299671173095703,-0.3403078019618988,0.08422722667455673,0.26600387692451477,-0.1132239842651883,0.0,0.0,0.0,0.0,0.0,0.0,-0.6,0.0,0.0005116462707519531,0.0031342506408691406,0.005743265151977539,0
0.23981642723083496,-0.3404204547405243,0.08400522172451019,0.26540520787239075,-0.11322537267275858,0.0,0.0,0.0,0.0,0.0,0.0,-0.6,0.0,0.0003628730773925781,0.0027375221252441406,0.005168914794921875,0
0.2499837875366211,-0.3405347168445587,0.08380435407161713,0.26482099294662476,-0.11323911185700661,0.0,0.0,0.0,0.0,0.0,0.0,-0.6,0.0,0.0004923343658447266,0.0030701160430908203,0.0055789947509765625,0
0.2598428726196289,-0.34065157175064087,0.08362414687871933,0.2642507553100586,-0.1132603411179369,0.0,0.0,0.0,0.0,0.0,0.0,-0.6,0.0,0.0002970695495605469,0.0028946399688720703,0.005305767059326172,0
0.26991796493530273,-0.3410148620605469,0.0832047313451767,0.2627394199371338,-0.11325598411820093,0.0,0.0,0.0,0.0,0.0,0.0,-0.6,0.0,0.00041484832763671875,0.0027573108673095703,0.005150318145751953,0
0.28000974655151367,-0.3410148620605469,0.0832047313451767,0.2627394199371338,-0.11325598411820093,0.0,0.0,0.0,0.0,0.0,0.0,-0.6,0.0,0.0004906654357910156,0.0032122135162353516,0.005739688873291016,0
0.2897610664367676,-0.34125956892967224,0.08301244676113129,0.2618233263492584,-0.11327734858962328,0.0,0.0,0.0,0.0,0.0,0.0,-0.6,0.0,0.0003383159637451172,0.0025343894958496094,0.005120038986206055,0
0.29991698265075684,-0.34125956892967224,0.08301244676113129,0.2618233263492584,-0.11327734858962328,0.0,0.0,0.0,0.0,0.0,0.0,-0.6,0.0,0.00042557716369628906,0.0029342174530029297,0.005403995513916016,0
0.31001734733581543,-0.3414982855319977,0.08288522064685822,0.26094678044319153,-0.11333251669618162,0.0,0.0,0.0,0.0,0.0,0.0,-0.6,0.0,0.000530242919921875,0.0029730796813964844,0.005532979965209961,0
0.3198516368865967,-0.34161603450775146,0.08284471184015274,0.26052266359329224,-0.11335233746479123,0.0,0.0,0.0,0.0,0.0,0.0,-0.6,0.0,0.0003445148468017578,0.0026526451110839844,0.00499272346496582,0
0.32999205589294434,-0.34173688292503357,0.0828193947672844,0.2601079046726227,-0.1133616197763984,0.0,0.0,0.0,0.0,0.0,0.0,-0.6,0.0,0.0004725456237792969,0.002861499786376953,0.005320549011230469,0
0.3398134708404541,-0.34185948967933655,0.08280885219573975,0.2597030997276306,-0.11336770311168888,0.0,0.0,0.0,0.0,0.0,0.0,-0.6,0.0,0.0004222393035888672,0.0030171871185302734,0.0053331851959228516,0
0.349884033203125,-0.3421153426170349,0.08283601701259613,0.25906050205230713,-0.11340241472092016,0.0,0.0,0.0,0.0,0.0,0.0,-0.6,0.0,0.0003669261932373047,0.002615213394165039,0.005162477493286133,0
0.36010026931762695,-0.3422470986843109,0.0828729122877121,0.2587484121322632,-0.11341420329052762,0.0,0.0,0.0,0.0,0.0,0.0,-0.6,0.0,0.0005526542663574219,0.0032448768615722656,0.005754947662353516,0
0.36977243423461914,-0.34238147735595703,0.08292604237794876,0.2584434449672699,-0.11341969118738526,0.0,0.0,0.0,0.0,0.0,0.0,-0.6,0.0,0.0003597736358642578,0.0026619434356689453,0.00518488883972168,0
0.3798346519470215,-0.3425177037715912,0.08299512416124344,0.2581450045108795,-0.11342723048917608,0.0,0.0,0.0,0.0,0.0,0.0,-0.6,0.0,0.0003752708435058594,0.002732992172241211,0.004972696304321289,0
0.39008593559265137,-0.3427668809890747,0.08317102491855621,0.2575681805610657,-0.11340344703693224,0.0,0.0,0.0,0.0,0.0,0.0,-0.6,0.0,0.00046753883361816406,0.0029227733612060547,0.0054531097412109375,0
0.3998425006866455,-0.3428950011730194,0.0832793191075325,0.25728753209114075,-0.11341131313021102,0.0,0.0,0.0,0.0,0.0,0.0,-0.6,0.0,0.0003898143768310547,0.002748727798461914,0.005043506622314453,0
0.4099709987640381,-0.34302544593811035,0.083400197327137,0.25701218843460083,-0.11343457838642548,0.0,0.0,0.0,0.0,0.0,0.0,-0.6,0.0,0.00046634674072265625,0.0028467178344726562,0.005235433578491211,0
0.41989588737487793,-0.34315750002861023,0.08353463560342789,0.2568140923976898,-0.1134672587022641,0.0,0.0,0.0,0.0,0.0,0.0,-0.6,0.0,0.0004642009735107422,0.0031585693359375,0.005647420883178711,0
0.4297325611114502,-0.34357085824012756,0.0840223953127861,0.25624337792396545,-0.11352464417429498,0.0,0.0,0.0,0.0,0.0,0.0,-0.6,0.0,0.00037097930908203125,0.0025441646575927734,0.004763364791870117,0
0.43999385833740234,-0.34357085824012756,0.0840223953127861,0.25624337792396545,-0.11352464417429498,0.0,0.0,0.0,0.0,0.0,0.0,-0.6,0.0,0.0005426406860351562,0.0030975341796875,0.005466461181640625,0
0.44979000091552734,-0.3438490927219391,0.08440949022769928,0.2558766305446625,-0.11355882936524919,0.0,0.0,0.0,0.0,0.0,0.0,-0.6,0.0,0.0003685951232910156,0.002633333206176758,0.005170106887817383,0
0.4599764347076416,-0.3438490927219391,0.08440949022769928,0.2558766305446625,-0.11355882936524919,0.0,0.0,0.0,0.0,0.0,0.0,-0.6,0.0,0.0004038810729980469,0.0028791427612304688,0.005298614501953125,0
0.4698033332824707,-0.3442593216896057,0.08507350832223892,0.25534817576408386,-0.11364447251371049,0.0,0.0,0.0,0.0,0.0,0.0,-0.6,0.0,0.00045990943908691406,0.0029451847076416016,0.005315303802490234,0
0.47984910011291504,-0.3442593216896057,0.08507350832223892,0.25534817576408386,-0.11364447251371049,0.0,0.0,0.0,0.0,0.0,0.0,-0.6,0.0,0.0004093647003173828,0.0026738643646240234,0.005060434341430664,0
0.4902222156524658,-0.3445449769496918,0.08557019382715225,0.2551620602607727,-0.11365219090777225,0.0,0.0,0.0,0.0,0.0,0.0,-0.6,0.0,0.00044989585876464844,0.0027930736541748047,0.00499415397644043,0
0.49979329109191895,-0.3445449769496918,0.08557019382715225,0.2551620602607727,-0.11365219090777225,0.0,0.0,0.0,0.0,0.0,0.0,-0.6,0.0,0.0003237724304199219,0.0027472972869873047,0.005083560943603516,0
0.5096645355224609,-0.34498777985572815,0.08640530705451965,0.2548796236515045,-0.11371806742867728,0.0,0.0,0.0,0.0,0.0,0.0,-0.6,0.0,0.0004024505615234375,0.002607107162475586,0.004894256591796875,0
0.5200381278991699,-0.34498777985572815,0.08640530705451965,0.2548796236515045,-0.11371806742867728,0.0,0.0,0.0,0.0,0.0,0.0,-0.6,0.0,0.0005769729614257812,0.0030622482299804688,0.0054967403411865234,0
0.5297002792358398,-0.34524258971214294,0.08701025694608688,0.2546970844268799,-0.11372194946174218,0.0,0.0,0.0,0.0,0.0,0.0,-0.6,0.0,0.000335693359375,0.002555370330810547,0.004944562911987305,0
0.5399208068847656,-0.34524258971214294,0.08701025694608688,0.2546970844268799,-0.11372194946174218,0.0,0.0,0.0,0.0,0.0,0.0,-0.6,0.0,0.00046896934509277344,0.002809762954711914,0.005204677581787109,0
0.5497260093688965,-0.34565404057502747,0.08799447119235992,0.2545073628425598,-0.11380609877748121,0.0,0.0,0.0,0.0,0.0,0.0,-0.6,0.0,0.0005698204040527344,0.002984285354614258,0.0053899288177490234,0
0.5598289966583252,-0.34565404057502747,0.08799447119235992,0.2545073628425598,-0.11380609877748121,0.0,0.0,0.0,0.0,0.0,0.0,-0.6,0.0,0.0004229545593261719,0.002637147903442383,0.0048558712005615234,0
0.5697071552276611,-0.34594306349754333,0.08870096504688263,0.2544787526130676,-0.11383837158724518,0.0,0.0,0.0,0.0,0.0,0.0,-0.6,0.0,0.000518798828125,0.002882719039916992,0.005254030227661133,0
0.5798280239105225,-0.34594306349754333,0.08870096504688263,0.2544787526130676,-0.11383837158724518,0.0,0.0,0.0,0.0,0.0,0.0,-0.6,0.0,0.00039839744567871094,0.0028612613677978516,0.005236148834228516,0
0.5897612571716309,-0.3458441197872162,0.08756891638040543,0.25224605202674866,-0.11389719584986872,0.0,0.0,0.0,0.0,0.0,0.0,-0.6,0.0,0.0003666877746582031,0.002572298049926758,0.0047838687896728516,0
0.6000142097473145,-0.3458441197872162,0.08756891638040543,0.25224605202674866,-0.11389719584986872,0.0,0.0,0.0,0.0,0.0,0.0,-0.6,0.0,0.0005753040313720703,0.003083944320678711,0.005589723587036133,0
0.6097209453582764,-0.3457971513271332,0.08693473786115646,0.2508438229560852,-0.11395331728201365,0.0,0.0,0.0,0.0,0.0,0.0,-0.6,0.0,0.0003724098205566406,0.002582550048828125,0.004956245422363281,0
0.6200079917907715,-0.3457971513271332,0.08693473786115646,0.2508438229560852,-0.11395331728201365,0.0,0.0,0.0,0.0,0.0,0.0,-0.6,0.0,0.00047087669372558594,0.0029325485229492188,0.005329132080078125,0
0.6299149990081787,-0.3457672894001007,0.08615239709615707,0.24897684156894684,-0.1139702613800462,0.0,0.0,0.0,0.0,0.0,0.0,-0.6,0.0,0.0005350112915039062,0.0029299259185791016,0.0053708553314208984,0
0.6398699283599854,-0.3457672894001007,0.08615239709615707,0.24897684156894684,-0.1139702613800462,0.0,0.0,0.0,0.0,0.0,0.0,-0.6,0.0,0.0003764629364013672,0.002755403518676758,0.0051343441009521484,0
0.6499440670013428,-0.34576642513275146,0.08593285828828812,0.24840287864208221,-0.11400164290737683,0.0,0.0,0.0,0.0,0.0,0.0,-0.6,0.0,0.0004863739013671875,0.0028989315032958984,0.005345821380615234,0
0.6597964763641357,-0.3457697033882141,0.085732601583004,0.24784132838249207,-0.11402092482568964,0.0,0.0,0.0,0.0,0.0,0.0,-0.6,0.0,0.0003190040588378906,0.0029141902923583984,0.005356550216674805,0
0.6699094772338867,-0.3457767069339752,0.08555249124765396,0.24729092419147491,-0.11403037876242647,0.0,0.0,0.0,0.0,0.0,0.0,-0.6,0.0,0.00040030479431152344,0.0027005672454833984,0.005129098892211914,0
0.679999828338623,-0.34578797221183777,0.0852455273270607,0.24622519314289093,-0.11406845027613544,0.0,0.0,0.0,0.0,0.0,0.0,-0.6,0.0,0.000514984130859375,0.002958536148071289,0.005322933197021484,0
0.6898841857910156,-0.3458021283149719,0.08511780202388763,0.24570950865745544,-0.11407619693962671,0.0,0.0,0.0,0.0,0.0,0.0,-0.6,0.0,0.00034809112548828125,0.002485513687133789,0.004873514175415039,0
0.699913501739502,-0.3458211123943329,0.0850088894367218,0.24520531296730042,-0.11409501787358325,0.0,0.0,0.0,0.0,0.0,0.0,-0.6,0.0,0.0004699230194091797,0.0030031204223632812,0.00539398193359375,0
0.7100815773010254,-0.34587323665618896,0.08484391868114471,0.24439285695552826,-0.11412091397448762,0.0,0.0,0.0,0.0,0.0,0.0,-0.6,0.0,0.0004963874816894531,0.0028498172760009766,0.005352973937988281,0
0.7198173999786377,-0.34590697288513184,0.08478716760873795,0.24399816989898682,-0.11414039015826155,0.0,0.0,0.0,0.0,0.0,0.0,-0.6,0.0,0.0003509521484375,0.002640247344970703,0.004942417144775391,0
0.7300405502319336,-0.3459460139274597,0.08474334329366684,0.24362419545650482,-0.11414861421401994,0.0,0.0,0.0,0.0,0.0,0.0,-0.6,0.0,0.0004734992980957031,0.002919912338256836,0.0055081844329833984,0
0.7398262023925781,-0.34599360823631287,0.08469460159540176,0.24332742393016815,-0.11417238544908019,0.0,0.0,0.0,0.0,0.0,0.0,-0.6,0.0,0.00036215782165527344,0.002826690673828125,0.005185365676879883,0
0.7498226165771484,-0.3460255265235901,0.08467785269021988,0.24296878278255463,-0.11419207911039085,0.0,0.0,0.0,0.0,0.0,0.0,-0.6,0.0,0.0003991127014160156,0.002576589584350586,0.004880189895629883,0
0.7600493431091309,-0.346062034368515,0.08468057215213776,0.2426043003797531,-0.1142158989253547,0.0,0.0,0.0,0.0,0.0,0.0,-0.6,0.0,0.0004858970642089844,0.003053903579711914,0.0054056644439697266,0
0.7698423862457275,-0.3461463451385498,0.08473262190818787,0.24189750850200653,-0.11423383041826596,0.0,0.0,0.0,0.0,0.0,0.0,-0.6,0.0,0.00039124488830566406,0.002643585205078125,0.0050928592681884766,0
0.7798938751220703,-0.34619462490081787,0.08478133380413055,0.241633802652359,-0.11424039927765477,0.0,0.0,0.0,0.0,0.0,0.0,-0.6,0.0,0.000415802001953125,0.0027816295623779297,0.005007028579711914,0
0.79018235206604,-0.3463030755519867,0.08492311835289001,0.2411229908466339,-0.11424015513260695,0.0,0.0,0.0,0.0,0.0,0.0,-0.6,0.0,0.0005564689636230469,0.002974987030029297,0.0054705142974853516,0
0.7998313903808594,-0.3463630974292755,0.08501489460468292,0.24087247252464294,-0.11424590879068888,0.0,0.0,0.0,0.0,0.0,0.0,-0.6,0.0,0.0003867149353027344,0.002675771713256836,0.004973411560058594,0
0.8101065158843994,-0.346428781747818,0.08512057363986969,0.2406267374753952,-0.1142579160343391,0.0,0.0,0.0,0.0,0.0,0.0,-0.6,0.0,0.0004990100860595703,0.0028777122497558594,0.00532841682434082,0
0.819835901260376,-0.3464844524860382,0.08523357659578323,0.24038560688495636,-0.11427256458494596,0.0,0.0,0.0,0.0,0.0,0.0,-0.6,0.0,0.00037932395935058594,0.0028448104858398438,0.00528264045715332,0
0.8301894664764404,-0.34660640358924866,0.08549614995718002,0.23991642892360687,-0.11430545487663582,0.0,0.0,0.0,0.0,0.0,0.0,-0.6,0.0,0.0005662441253662109,0.0044176578521728516,0.0067441463470458984,0
0.840003252029419,-0.34667325019836426,0.08564751595258713,0.239688903093338,-0.11432266852447788,0.0,0.0,0.0,0.0,0.0,0.0,-0.6,0.0,0.0005118846893310547,0.0032944679260253906,0.005761146545410156,0
0.8498353958129883,-0.3467444181442261,0.08581075072288513,0.2395332008600235,-0.11434168045172957,0.0,0.0,0.0,0.0,0.0,0.0,-0.6,0.0,0.00036787986755371094,0.002645254135131836,0.00506901741027832,0
0.8599870204925537,-0.34681960940361023,0.08598493784666061,0.23938021063804626,-0.11435598430875837,0.0,0.0,0.0,0.0,0.0,0.0,-0.6,0.0,0.0005290508270263672,0.00318145751953125,0.0056002140045166016,0
0.8700315952301025,-0.34698501229286194,0.08636889606714249,0.23908351361751556,-0.11440181169209239,0.0,0.0,0.0,0.0,0.0,0.0,-0.6,0.0,0.0005066394805908203,0.0029497146606445312,0.0054781436920166016,0
0.8798058032989502,-0.3470746576786041,0.08657818287611008,0.23894011974334717,-0.11444176369721108,0.0,0.0,0.0,0.0,0.0,0.0,-0.6,0.0,0.0003592967987060547,0.0026760101318359375,0.004984378814697266,0
0.8902010917663574,-0.34714648127555847,0.08680021017789841,0.23879937827587128,-0.11446726206544422,0.0,0.0,0.0,0.0,0.0,0.0,-0.6,0.0,0.0005350112915039062,0.0032532215118408203,0.0058727264404296875,0
0.899721622467041,-0.34722188115119934,0.08703383803367615,0.23866240680217743,-0.11448872903901718,0.0,0.0,0.0,0.0,0.0,0.0,-0.6,0.0,0.0004334449768066406,0.0031499862670898438,0.0055768489837646484,0
0.9097344875335693,-0.3473014235496521,0.08727778494358063,0.2385278046131134,-0.1145045170826785,0.0,0.0,0.0,0.0,0.0,0.0,-0.6,0.0,0.00042176246643066406,0.0027244091033935547,0.005150556564331055,0
0.9197742938995361,-0.34747400879859924,0.08779715746641159,0.23832455277442932,-0.11453115990929476,0.0,0.0,0.0,0.0,0.0,0.0,-0.6,0.0,0.0004918575286865234,0.0034215450286865234,0.006145954132080078,0
0.9297506809234619,-0.3475669324398041,0.0880749449133873,0.23825548589229584,-0.11454334289273974,0.0,0.0,0.0,0.0,0.0,0.0,-0.6,0.0,0.0004894733428955078,0.003010988235473633,0.005408287048339844,0
0.939873456954956,-0.3476625680923462,0.08836463838815689,0.2381872683763504,-0.11454576455389767,0.0,0.0,0.0,0.0,0.0,0.0,-0.6,0.0,0.00048041343688964844,0.002947092056274414,0.0054149627685546875,0
0.949819803237915,-0.34786224365234375,0.08897712826728821,0.23805354535579681,-0.11457049715311006,0.0,0.0,0.0,0.0,0.0,0.0,-0.6,0.0,0.0004744529724121094,0.003276824951171875,0.005989789962768555,0
0.9597868919372559,-0.3479529917240143,0.08929785341024399,0.23798859119415283,-0.11459345294032573,0.0,0.0,0.0,0.0,0.0,0.0,-0.6,0.0,0.0005309581756591797,0.0031595230102539062,0.005563020706176758,0
0.9699175357818604,-0.34804767370224,0.08962814509868622,0.2379235029220581,-0.11461911565261756,0.0,0.0,0.0,0.0,0.0,0.0,-0.6,0.0,0.00045871734619140625,0.0028815269470214844,0.005735635757446289,0
0.9796969890594482,-0.3481455147266388,0.0899682492017746,0.23785807192325592,-0.11464075037832185,0.0,0.0,0.0,0.0,0.0,0.0,-0.6,0.0,0.0003581047058105469,0.0029745101928710938,0.005620002746582031,0
0.9900116920471191,-0.3481326401233673,0.0891442745923996,0.2365575134754181,-0.11467630367102288,0.0,0.0,0.0,0.0,0.0,0.0,-0.6,0.0,0.0005643367767333984,0.0031626224517822266,0.005633115768432617,0
0.9998207092285156,-0.34813642501831055,0.08877287805080414,0.2359698861837387,-0.11469100046777993,0.0,0.0,0.0,0.0,0.0,0.0,-0.6,0.0,0.0004918575286865234,0.003204822540283203,0.0062944889068603516,0
1.0097510814666748,-0.3481459617614746,0.08842851966619492,0.2353965789079666,-0.11470456894385965,0.0,0.0,0.0,0.0,0.0,0.0,-0.6,0.0,0.0003795623779296875,0.0029363632202148438,0.005589723587036133,0
1.0199429988861084,-0.34816163778305054,0.0881091058254242,0.23483633995056152,-0.11473094822700436,0.0,0.0,0.0,0.0,0.0,0.0,-0.6,0.0,0.0006270408630371094,0.0032851696014404297,0.005811214447021484,0
1.0297975540161133,-0.348200261592865,0.08753634989261627,0.2337590456008911,-0.11476345051622402,0.0,0.0,0.0,0.0,0.0,0.0,-0.6,0.0,0.0004558563232421875,0.0029935836791992188,0.005566835403442383,0
1.039886474609375,-0.3482210040092468,0.08728286623954773,0.23324188590049744,-0.11477452295653497,0.0,0.0,0.0,0.0,0.0,0.0,-0.6,0.0,0.0004048347473144531,0.0034134387969970703,0.005791902542114258,0
1.0499274730682373,-0.34824690222740173,0.08705092966556549,0.23273800313472748,-0.11478337506850558,0.0,0.0,0.0,0.0,0.0,0.0,-0.6,0.0,0.0006539821624755859,0.0030934810638427734,0.005670070648193359,0
1.0597264766693115,-0.3482782542705536,0.08684223145246506,0.23224620521068573,-0.11479295952756645,0.0,0.0,0.0,0.0,0.0,0.0,-0.6,0.0,0.00035834312438964844,0.0027463436126708984,0.005694866180419922,0
1.0697555541992188,-0.34831503033638,0.08665750920772552,0.23183539509773254,-0.11481374760682261,0.0,0.0,0.0,0.0,0.0,0.0,-0.6,0.0,0.000431060791015625,0.0032987594604492188,0.005766391754150391,0
1.080024003982544,-0.34835612773895264,0.08649443089962006,0.2314329296350479,-0.11484046469273572,0.0,0.0,0.0,0.0,0.0,0.0,-0.6,0.0,0.0006039142608642578,0.0031816959381103516,0.005721092224121094,0
1.1211135387420654,-0.34844982624053955,0.08622336387634277,0.23065464198589325,-0.11487065101396035,0.0,0.0,0.0,0.0,0.0,0.0,-0.6,0.0,0.0004723072052001953,0.003465414047241211,0.00633549690246582,0
1.1297483444213867,-0.3487107455730438,0.08587467670440674,0.22886794805526733,-0.11496349775295395,0.0,0.0,0.0,0.0,0.0,0.0,-0.6,0.0,0.00046896934509277344,0.0034203529357910156,0.00601506233215332,0
1.1397771835327148,-0.3487754464149475,0.08585938066244125,0.22859342396259308,-0.11498881700040896,0.0,0.0,0.0,0.0,0.0,0.0,-0.6,0.0,0.00046181678771972656,0.002742767333984375,0.005197286605834961,0
1.1497960090637207,-0.34884461760520935,0.08585982024669647,0.228324756026268,-0.11500433115648206,0.0,0.0,0.0,0.0,0.0,0.0,-0.6,0.0,0.0004277229309082031,0.0027811527252197266,0.005677938461303711,0
1.1597931385040283,-0.3489975929260254,0.08590485155582428,0.22780418395996094,-0.11503870743692853,0.0,0.0,0.0,0.0,0.0,0.0,-0.6,0.0,0.0004909038543701172,0.003523111343383789,0.005960941314697266,0
1.1698009967803955,-0.34908145666122437,0.08595111966133118,0.22755278646945953,-0.11503229832382615,0.0,0.0,0.0,0.0,0.0,0.0,-0.6,0.0,0.00047135353088378906,0.0026421546936035156,0.005120992660522461,0
1.1797986030578613,-0.3491545021533966,0.08601061254739761,0.2273050993680954,-0.11501927585135137,0.0,0.0,0.0,0.0,0.0,0.0,-0.6,0.0,0.00042891502380371094,0.0029144287109375,0.005917787551879883,0
1.1898858547210693,-0.3493085503578186,0.08617569506168365,0.22682341933250427,-0.1150494422322531,0.0,0.0,0.0,0.0,0.0,0.0,-0.6,0.0,0.00045752525329589844,0.0033643245697021484,0.005976676940917969,0
1.1997828483581543,-0.34938865900039673,0.08628121018409729,0.2265898734331131,-0.1150799324210305,0.0,0.0,0.0,0.0,0.0,0.0,-0.6,0.0,0.0003714561462402344,0.0027425289154052734,0.005154609680175781,0
1.2098219394683838,-0.3494712710380554,0.08640211820602417,0.22641095519065857,-0.1150802551820073,0.0,0.0,0.0,0.0,0.0,0.0,-0.6,0.0,0.000492095947265625,0.0029435157775878906,0.006002187728881836,0
1.2197284698486328,-0.3495560586452484,0.08653770387172699,0.22623489797115326,-0.1150962122588358,0.0,0.0,0.0,0.0,0.0,0.0,-0.6,0.0,0.00040340423583984375,0.003473043441772461,0.005905628204345703,0
1.229801893234253,-0.34973326325416565,0.08684919774532318,0.22588962316513062,-0.11509727971531289,0.0,0.0,0.0,0.0,0.0,0.0,-0.6,0.0,0.0003933906555175781,0.0026578903198242188,0.005190134048461914,0
1.239811897277832,-0.34982576966285706,0.08702333271503448,0.22572149336338043,-0.11510616592961298,0.0,0.0,0.0,0.0,0.0,0.0,-0.6,0.0,0.0005009174346923828,0.0031938552856445312,0.006064891815185547,0
1.2497303485870361,-0.3498981297016144,0.08720942586660385,0.2255573570728302,-0.11512467297675845,0.0,0.0,0.0,0.0,0.0,0.0,-0.6,0.0,0.00042629241943359375,0.0031418800354003906,0.005644559860229492,0
1.2599148750305176,-0.3499751389026642,0.0874086543917656,0.22539687156677246,-0.11514353718675621,0.0,0.0,0.0,0.0,0.0,0.0,-0.6,0.0,0.00047588348388671875,0.0029952526092529297,0.005362987518310547,0
1.269810676574707,-0.3500577509403229,0.08762073516845703,0.2252385914325714,-0.1151493286837446,0.0,0.0,0.0,0.0,0.0,0.0,-0.6,0.0,0.00046896934509277344,0.002836942672729492,0.0058135986328125,0
1.2798271179199219,-0.35014650225639343,0.08784458786249161,0.22516962885856628,-0.11517009631479017,0.0,0.0,0.0,0.0,0.0,0.0,-0.6,0.0,0.00048422813415527344,0.0032281875610351562,0.005605936050415039,0
1.2900550365447998,-0.3503369987010956,0.08832309395074844,0.22503161430358887,-0.11519797484631775,0.0,0.0,0.0,0.0,0.0,0.0,-0.6,0.0,0.00047135353088378906,0.002755880355834961,0.00544428825378418,0
1.2997183799743652,-0.35043829679489136,0.08857732266187668,0.22496196627616882,-0.1152149820720282,0.0,0.0,0.0,0.0,0.0,0.0,-0.6,0.0,0.00042319297790527344,0.0032913684844970703,0.005896091461181641,0
1.309957504272461,-0.3506492078304291,0.08911722153425217,0.2248230278491974,-0.11525316394207784,0.0,0.0,0.0,0.0,0.0,0.0,-0.6,0.0,0.0005385875701904297,0.00312042236328125,0.0056078433990478516,0
1.3199255466461182,-0.3507438898086548,0.08939848840236664,0.22475484013557434,-0.11526566143264125,0.0,0.0,0.0,0.0,0.0,0.0,-0.6,0.0,0.0004699230194091797,0.0030531883239746094,0.005730390548706055,0
1.3297617435455322,-0.3508419096469879,0.08969146013259888,0.224757120013237,-0.11529110779899047,0.0,0.0,0.0,0.0,0.0,0.0,-0.6,0.0,0.00036406517028808594,0.0027704238891601562,0.005665779113769531,0
1.339775562286377,-0.35094329714775085,0.08999606221914291,0.2247590571641922,-0.11531123016673868,0.0,0.0,0.0,0.0,0.0,0.0,-0.6,0.0,0.0006000995635986328,0.0033113956451416016,0.0057070255279541016,0
1.349937915802002,-0.35115498304367065,0.09063319116830826,0.22475843131542206,-0.11534229059220284,0.0,0.0,0.0,0.0,0.0,0.0,-0.6,0.0,0.0004851818084716797,0.002944469451904297,0.005837678909301758,0
1.3597373962402344,-0.35126861929893494,0.09096591919660568,0.22475458681583405,-0.11536922865860849,0.0,0.0,0.0,0.0,0.0,0.0,-0.6,0.0,0.0003726482391357422,0.002922534942626953,0.005583047866821289,0
1.3701858520507812,-0.3513878583908081,0.09130966663360596,0.2247491180896759,-0.11537753216472643,0.0,0.0,0.0,0.0,0.0,0.0,-0.6,0.0,0.0006186962127685547,0.003142118453979492,0.005733013153076172,0
1.3797221183776855,-0.35151153802871704,0.09166403114795685,0.2247423678636551,-0.11538205663135122,0.0,0.0,0.0,0.0,0.0,0.0,-0.6,0.0,0.00032806396484375,0.002800464630126953,0.005436897277832031,0
1.389854907989502,-0.3514905273914337,0.09113047271966934,0.2241295427083969,-0.11541025331120904,0.0,0.0,0.0,0.0,0.0,0.0,-0.6,0.0,0.000408172607421875,0.0030112266540527344,0.005625724792480469,0
1.399991750717163,-0.351434588432312,0.09014890342950821,0.22303912043571472,-0.11541757450518884,0.0,0.0,0.0,0.0,0.0,0.0,-0.6,0.0,0.0006611347198486328,0.0033600330352783203,0.005986928939819336,0
1.4097862243652344,-0.351419061422348,0.08969935774803162,0.22255657613277435,-0.1154149576460215,0.0,0.0,0.0,0.0,0.0,0.0,-0.6,0.0,0.0003597736358642578,0.0025920867919921875,0.005533695220947266,0
1.419797420501709,-0.3514118492603302,0.08927550166845322,0.2220870554447174,-0.11541328496957805,0.0,0.0,0.0,0.0,0.0,0.0,-0.6,0.0,0.0004322528839111328,0.0033884048461914062,0.005791187286376953,0
1.4300563335418701,-0.35141924023628235,0.08850330114364624,0.2211860865354538,-0.11541717191691198,0.0,0.0,0.0,0.0,0.0,0.0,-0.6,0.0,0.0007276535034179688,0.0031576156616210938,0.005924224853515625,0
1.4397251605987549,-0.35143303871154785,0.08815307915210724,0.22075192630290985,-0.11542863175141459,0.0,0.0,0.0,0.0,0.0,0.0,-0.6,0.0,0.0003771781921386719,0.0027086734771728516,0.005326032638549805,0
1.4498491287231445,-0.35145303606987,0.0878264382481575,0.22032895684242249,-0.11545745546110413,0.0,0.0,0.0,0.0,0.0,0.0,-0.6,0.0,0.00047969818115234375,0.003357410430908203,0.005910396575927734,0
1.4597573280334473,-0.35147833824157715,0.08752328157424927,0.21991696953773499,-0.11547852743965355,0.0,0.0,0.0,0.0,0.0,0.0,-0.6,0.0,0.0004525184631347656,0.003025531768798828,0.005496501922607422,0
1.469771385192871,-0.3514956533908844,0.08724194765090942,0.21951667964458466,-0.11550354453320484,0.0,0.0,0.0,0.0,0.0,0.0,-0.6,0.0,0.0004127025604248047,0.002705097198486328,0.005506277084350586,0
1.4798095226287842,-0.35154637694358826,0.0867457389831543,0.2188636213541031,-0.11550781512886019,0.0,0.0,0.0,0.0,0.0,0.0,-0.6,0.0,0.0004973411560058594,0.0035066604614257812,0.0059087276458740234,0
1.4900166988372803,-0.3515791893005371,0.08652620017528534,0.21854884922504425,-0.11551122999557806,0.0,0.0,0.0,0.0,0.0,0.0,-0.6,0.0,0.00041794776916503906,0.002659320831298828,0.005204677581787109,0
1.4997963905334473,-0.3516165614128113,0.08632877469062805,0.2182416170835495,-0.11552241873049014,0.0,0.0,0.0,0.0,0.0,0.0,-0.6,0.0,0.00042724609375,0.0028035640716552734,0.005688905715942383,0
1.509810209274292,-0.3517027199268341,0.08599652349948883,0.21764513850212097,-0.11554859373406942,0.0,0.0,0.0,0.0,0.0,0.0,-0.6,0.0,0.0006706714630126953,0.0036458969116210938,0.006244659423828125,0
1.5197629928588867,-0.3517526686191559,0.08586065471172333,0.217356339097023,-0.11557346869249864,0.0,0.0,0.0,0.0,0.0,0.0,-0.6,0.0,0.00043702125549316406,0.0027031898498535156,0.004992008209228516,0
1.5298714637756348,-0.3518071472644806,0.0857434943318367,0.21707481145858765,-0.11559664560554551,0.0,0.0,0.0,0.0,0.0,0.0,-0.6,0.0,0.0005369186401367188,0.002975940704345703,0.00597071647644043,0
1.539708137512207,-0.3518487215042114,0.08564198017120361,0.21680143475532532,-0.11561616253985557,0.0,0.0,0.0,0.0,0.0,0.0,-0.6,0.0,0.000354766845703125,0.003287792205810547,0.0057795047760009766,0
1.5497708320617676,-0.3519459068775177,0.08549507707357407,0.21640266478061676,-0.11568948378206904,0.0,0.0,0.0,0.0,0.0,0.0,-0.6,0.0,0.0004551410675048828,0.0027549266815185547,0.005184650421142578,0
1.5598251819610596,-0.3520009219646454,0.08544863015413284,0.216211199760437,-0.11572497561601774,0.0,0.0,0.0,0.0,0.0,0.0,-0.6,0.0,0.0004839897155761719,0.003061532974243164,0.0060122013092041016,0
1.5697386264801025,-0.3520590364933014,0.08542119711637497,0.2160261869430542,-0.11573739147444402,0.0,0.0,0.0,0.0,0.0,0.0,-0.6,0.0,0.0003790855407714844,0.0031592845916748047,0.005616426467895508,0
1.5799412727355957,-0.3521207869052887,0.08540986478328705,0.21584632992744446,-0.11573348326874612,0.0,0.0,0.0,0.0,0.0,0.0,-0.6,0.0,0.0004706382751464844,0.0029337406158447266,0.005335569381713867,0
1.5898280143737793,-0.3521864712238312,0.0854150801897049,0.2156706303358078,-0.11575086281375742,0.0,0.0,0.0,0.0,0.0,0.0,-0.6,0.0,0.0005009174346923828,0.002880573272705078,0.005828380584716797,0
1.599684715270996,-0.35232946276664734,0.08547662943601608,0.2153281718492508,-0.11580096177460796,0.0,0.0,0.0,0.0,0.0,0.0,-0.6,0.0,0.0003819465637207031,0.0031762123107910156,0.005448579788208008,0
1.610048770904541,-0.3523913621902466,0.08553018420934677,0.2151627093553543,-0.11581081536223922,0.0,0.0,0.0,0.0,0.0,0.0,-0.6,0.0,0.00046825408935546875,0.002730131149291992,0.005242586135864258,0
1.619849681854248,-0.35245659947395325,0.08559858798980713,0.21507155895233154,-0.11585218623156097,0.0,0.0,0.0,0.0,0.0,0.0,-0.6,0.0,0.0003256797790527344,0.00362396240234375,0.006179094314575195,0
1.6298768520355225,-0.3525267243385315,0.08568188548088074,0.21498225629329681,-0.11588622850401191,0.0,0.0,0.0,0.0,0.0,0.0,-0.6,0.0,0.00043892860412597656,0.002669095993041992,0.005035400390625,0
1.640028715133667,-0.3526831269264221,0.08589425683021545,0.21480900049209595,-0.11585794245091012,0.0,0.0,0.0,0.0,0.0,0.0,-0.6,0.0,0.0004913806915283203,0.00304412841796875,0.005553483963012695,0
1.649892807006836,-0.35276728868484497,0.08602219820022583,0.2147269994020462,-0.11588077870161938,0.0,0.0,0.0,0.0,0.0,0.0,-0.6,0.0,0.0003516674041748047,0.0026226043701171875,0.004979372024536133,0
1.660013198852539,-0.3528553247451782,0.0861649215221405,0.21464772522449493,-0.11589303115589066,0.0,0.0,0.0,0.0,0.0,0.0,-0.6,0.0,0.0005333423614501953,0.0030798912048339844,0.005506992340087891,0
1.6700105667114258,-0.35304468870162964,0.08649025857448578,0.21449777483940125,-0.11590260027996045,0.0,0.0,0.0,0.0,0.0,0.0,-0.6,0.0,0.0004966259002685547,0.0029230117797851562,0.005413055419921875,0
1.6798560619354248,-0.3531295657157898,0.08667143434286118,0.2144259512424469,-0.11592766737959721,0.0,0.0,0.0,0.0,0.0,0.0,-0.6,0.0,0.0004343986511230469,0.002890348434448242,0.006749629974365234,0
1.6901578903198242,-0.3532176613807678,0.08686357736587524,0.21443194150924683,-0.11594947966298777,0.0,0.0,0.0,0.0,0.0,0.0,-0.6,0.0,0.0005133152008056641,0.00359344482421875,0.006206512451171875,0
1.6999905109405518,-0.3533095121383667,0.08706813305616379,0.21443849802017212,-0.1159679539095507,0.0,0.0,0.0,0.0,0.0,0.0,-0.6,0.0,0.00052642822265625,0.0036852359771728516,0.0069086551666259766,0
1.7101001739501953,-0.35350140929222107,0.08751089870929718,0.21445049345493317,-0.11600406039222494,0.0,0.0,0.0,0.0,0.0,0.0,-0.6,0.0,0.0006310939788818359,0.005141019821166992,0.008458375930786133,0
1.7197604179382324,-0.3536032438278198,0.08774948865175247,0.21445737779140472,-0.11601756165209148,0.0,0.0,0.0,0.0,0.0,0.0,-0.6,0.0,0.0005252361297607422,0.003802776336669922,0.006490945816040039,0
1.7298922538757324,-0.3537093997001648,0.08799954503774643,0.2144637554883957,-0.11606148438223235,0.0,0.0,0.0,0.0,0.0,0.0,-0.6,0.0,0.00041937828063964844,0.0029010772705078125,0.005647420883178711,0
1.7400541305541992,-0.3538205623626709,0.08826134353876114,0.2144690752029419,-0.116089132656096,0.0,0.0,0.0,0.0,0.0,0.0,-0.6,0.0,0.0006341934204101562,0.003846406936645508,0.006545066833496094,0
1.749826192855835,-0.35403919219970703,0.08882018178701401,0.21448175609111786,-0.11609727261180906,0.0,0.0,0.0,0.0,0.0,0.0,-0.6,0.0,0.0005257129669189453,0.0032525062561035156,0.006113290786743164,0
1.7597897052764893,-0.3541460633277893,0.08911862224340439,0.2145436704158783,-0.11611971933780968,0.0,0.0,0.0,0.0,0.0,0.0,-0.6,0.0,0.0004165172576904297,0.002950429916381836,0.005547761917114258,0
1.7700684070587158,-0.35425660014152527,0.08942949771881104,0.21460384130477905,-0.11614008202193664,0.0,0.0,0.0,0.0,0.0,0.0,-0.6,0.0,0.0005161762237548828,0.003067493438720703,0.005793094635009766,0
1.7797572612762451,-0.3543703854084015,0.08975294232368469,0.2146635204553604,-0.11614664077959452,0.0,0.0,0.0,0.0,0.0,0.0,-0.6,0.0,0.0004146099090576172,0.0031540393829345703,0.0058155059814453125,0
1.7900519371032715,-0.3544502854347229,0.08867999166250229,0.21353080868721008,-0.11616455697497349,0.0,0.0,0.0,0.0,0.0,0.0,-0.6,0.0,0.0004603862762451172,0.0029103755950927734,0.005460262298583984,0
1.800001859664917,-0.3544993996620178,0.08818724751472473,0.21298396587371826,-0.11617674635961368,0.0,0.0,0.0,0.0,0.0,0.0,-0.6,0.0,0.0004973411560058594,0.003163576126098633,0.005765199661254883,0
1.8098664283752441,-0.3545539379119873,0.08772291988134384,0.21244952082633972,-0.11620468965044484,0.0,0.0,0.0,0.0,0.0,0.0,-0.6,0.0,0.0003604888916015625,0.002737283706665039,0.0052165985107421875,0
1.8199598789215088,-0.35461288690567017,0.08728539943695068,0.21192742884159088,-0.116223388948925,0.0,0.0,0.0,0.0,0.0,0.0,-0.6,0.0,0.0005080699920654297,0.003027677536010742,0.005488157272338867,0
1.8298194408416748,-0.354729562997818,0.08648497611284256,0.21096941828727722,-0.11623207511081715,0.0,0.0,0.0,0.0,0.0,0.0,-0.6,0.0,0.0004734992980957031,0.003016233444213867,0.0058629512786865234,0
1.839806079864502,-0.3547944128513336,0.0861235037446022,0.21053093671798706,-0.11623311529783281,0.0,0.0,0.0,0.0,0.0,0.0,-0.6,0.0,0.000576019287109375,0.0030210018157958984,0.006210803985595703,0
1.849862813949585,-0.3548623323440552,0.0857868641614914,0.2101033627986908,-0.11625910335747276,0.0,0.0,0.0,0.0,0.0,0.0,-0.6,0.0,0.0005342960357666016,0.003072977066040039,0.006316184997558594,0
1.8597118854522705,-0.35493382811546326,0.08547428995370865,0.20968787372112274,-0.11627997284235125,0.0,0.0,0.0,0.0,0.0,0.0,-0.6,0.0,0.0003399848937988281,0.003387451171875,0.005970954895019531,0
1.8700652122497559,-0.3551769554615021,0.08468401432037354,0.20850305259227753,-0.1163386030668082,0.0,0.0,0.0,0.0,0.0,0.0,-0.6,0.0,0.0004649162292480469,0.0029594898223876953,0.005560398101806641,0
1.8798763751983643,-0.3551769554615021,0.08468401432037354,0.20850305259227753,-0.1163386030668082,0.0,0.0,0.0,0.0,0.0,0.0,-0.6,0.0,0.0004885196685791016,0.0029897689819335938,0.005995988845825195,0
1.889843225479126,-0.35526812076568604,0.08446463942527771,0.20812684297561646,-0.11635249231676079,0.0,0.0,0.0,0.0,0.0,0.0,-0.6,0.0,0.0003662109375,0.0027637481689453125,0.005369424819946289,0
1.8999385833740234,-0.35535022616386414,0.08426648378372192,0.20776012539863586,-0.11636838843395514,0.0,0.0,0.0,0.0,0.0,0.0,-0.6,0.0,0.00045752525329589844,0.0030341148376464844,0.005601167678833008,0
1.9099476337432861,-0.35552629828453064,0.08393681794404984,0.20717069506645203,-0.11637288903581303,0.0,0.0,0.0,0.0,0.0,0.0,-0.6,0.0,0.00048470497131347656,0.003176450729370117,0.006318092346191406,0
1.9198575019836426,-0.35562124848365784,0.08380293846130371,0.2068856656551361,-0.1163760983677921,0.0,0.0,0.0,0.0,0.0,0.0,-0.6,0.0,0.00039267539978027344,0.002835512161254883,0.005458354949951172,0
1.9300363063812256,-0.3557197153568268,0.08368810266256332,0.20660796761512756,-0.11638745034195953,0.0,0.0,0.0,0.0,0.0,0.0,-0.6,0.0,0.0004887580871582031,0.0029993057250976562,0.005601644515991211,0
1.9398090839385986,-0.35582244396209717,0.0835910215973854,0.20633837580680847,-0.11639497594165236,0.0,0.0,0.0,0.0,0.0,0.0,-0.6,0.0,0.0003933906555175781,0.0029816627502441406,0.005448341369628906,0
1.949838399887085,-0.3559289276599884,0.08351080864667892,0.20607614517211914,-0.11641593697824247,0.0,0.0,0.0,0.0,0.0,0.0,-0.6,0.0,0.00038361549377441406,0.002638578414916992,0.0049664974212646484,0
1.960015058517456,-0.35615089535713196,0.08340683579444885,0.20557083189487457,-0.11643866097757725,0.0,0.0,0.0,0.0,0.0,0.0,-0.6,0.0,0.0005228519439697266,0.003223896026611328,0.005757570266723633,0
1.969879150390625,-0.3562513589859009,0.08338026702404022,0.20532923936843872,-0.11644132528990123,0.0,0.0,0.0,0.0,0.0,0.0,-0.6,0.0,0.00037550926208496094,0.0026328563690185547,0.005101919174194336,0
1.9799201488494873,-0.3563556671142578,0.0833720788359642,0.20515768229961395,-0.11643616524665527,0.0,0.0,0.0,0.0,0.0,0.0,-0.6,0.0,0.0004227161407470703,0.0028755664825439453,0.005335330963134766,0
1.9900400638580322,-0.35657602548599243,0.08341147005558014,0.20482417941093445,-0.1164395480719693,0.0,0.0,0.0,0.0,0.0,0.0,-0.6,0.0,0.00048160552978515625,0.0029621124267578125,0.005507707595825195,0
1.9998316764831543,-0.35669228434562683,0.0834566280245781,0.2046646624803543,-0.11645671654257503,0.0,0.0,0.0,0.0,0.0,0.0,-0.6,0.0,0.0004253387451171875,0.0028333663940429688,0.00516510009765625,0
2.0100510120391846,-0.35681384801864624,0.08351819962263107,0.20451007783412933,-0.1164803995011905,0.0,0.0,0.0,0.0,0.0,0.0,-0.6,0.0,0.0004780292510986328,0.0028374195098876953,0.0052340030670166016,0
2.019787549972534,-0.3569401800632477,0.08359494060277939,0.20436035096645355,-0.11650973552728472,0.0,0.0,0.0,0.0,0.0,0.0,-0.6,0.0,0.00038361549377441406,0.003124237060546875,0.005551576614379883,0
2.029937505722046,-0.35707026720046997,0.08368794620037079,0.20421423017978668,-0.11652035965763705,0.0,0.0,0.0,0.0,0.0,0.0,-0.6,0.0,0.0003650188446044922,0.003726959228515625,0.006032705307006836,0
2.0400214195251465,-0.3572043478488922,0.08379573374986649,0.20407171547412872,-0.11653290701895123,0.0,0.0,0.0,0.0,0.0,0.0,-0.6,0.0,0.0005078315734863281,0.0031304359436035156,0.005705118179321289,0
2.049840211868286,-0.3574521541595459,0.08405403792858124,0.2038593888282776,-0.11652878497505044,0.0,0.0,0.0,0.0,0.0,0.0,-0.6,0.0,0.0003478527069091797,0.0026786327362060547,0.005276203155517578,0
2.0599794387817383,-0.3575819432735443,0.08420488983392715,0.2037864327430725,-0.11651499474716674,0.0,0.0,0.0,0.0,0.0,0.0,-0.6,0.0,0.00052642822265625,0.0032682418823242188,0.00581669807434082,0
2.0699265003204346,-0.3578549921512604,0.08454965800046921,0.20364579558372498,-0.11651748842008068,0.0,0.0,0.0,0.0,0.0,0.0,-0.6,0.0,0.0004742145538330078,0.0031142234802246094,0.005697727203369141,0
2.0798678398132324,-0.3579980731010437,0.0847431942820549,0.20357871055603027,-0.11653732198510153,0.0,0.0,0.0,0.0,0.0,0.0,-0.6,0.0,0.0003800392150878906,0.0026941299438476562,0.005080223083496094,0
2.090153455734253,-0.3581446409225464,0.08494598418474197,0.2035122662782669,-0.11655022422725606,0.0,0.0,0.0,0.0,0.0,0.0,-0.6,0.0,0.0005104541778564453,0.002851724624633789,0.005366086959838867,0
2.0998001098632812,-0.35829490423202515,0.0851614773273468,0.20344579219818115,-0.11655802812591999,0.0,0.0,0.0,0.0,0.0,0.0,-0.6,0.0,0.0003437995910644531,0.002696990966796875,0.0051500797271728516,0
2.109919309616089,-0.3585966229438782,0.0856308788061142,0.2033160775899887,-0.1165680841841494,0.0,0.0,0.0,0.0,0.0,0.0,-0.6,0.0,0.00040435791015625,0.0026531219482421875,0.0049800872802734375,0
2.120002508163452,-0.3587508499622345,0.08588485419750214,0.2033109813928604,-0.11656437949461641,0.0,0.0,0.0,0.0,0.0,0.0,-0.6,0.0,0.0005028247833251953,0.00312042236328125,0.005583286285400391,0
2.129851818084717,-0.35890868306159973,0.0861530750989914,0.20330554246902466,-0.11653319853771069,0.0,0.0,0.0,0.0,0.0,0.0,-0.6,0.0,0.00037407875061035156,0.0026106834411621094,0.005063056945800781,0
2.1399190425872803,-0.3590697944164276,0.08643428236246109,0.20330260694026947,-0.1165235358619945,0.0,0.0,0.0,0.0,0.0,0.0,-0.6,0.0,0.0004086494445800781,0.0028264522552490234,0.005171537399291992,0
2.149914503097534,-0.35940349102020264,0.0870322734117508,0.20329922437667847,-0.11652370614677869,0.0,0.0,0.0,0.0,0.0,0.0,-0.6,0.0,0.0004608631134033203,0.0027871131896972656,0.005249500274658203,0
2.159909248352051,-0.35957497358322144,0.08734913915395737,0.20329976081848145,-0.11654204240193607,0.0,0.0,0.0,0.0,0.0,0.0,-0.6,0.0,0.00042748451232910156,0.0028696060180664062,0.005226612091064453,0
2.170147180557251,-0.35974955558776855,0.08767776191234589,0.20330193638801575,-0.11656645761927499,0.0,0.0,0.0,0.0,0.0,0.0,-0.6,0.0,0.00046181678771972656,0.0027692317962646484,0.0051991939544677734,0
2.1797924041748047,-0.3599284291267395,0.0880175456404686,0.20330390334129333,-0.11657892658416853,0.0,0.0,0.0,0.0,0.0,0.0,-0.6,0.0,0.0003325939178466797,0.002702474594116211,0.004995822906494141,0
2.190169334411621,-0.3597910404205322,0.08756066113710403,0.20278462767601013,-0.11658335702211427,0.0,0.0,0.0,0.0,0.0,0.0,-0.6,0.0,0.0004699230194091797,0.0028727054595947266,0.005313873291015625,0
2.2000153064727783,-0.3596639931201935,0.08713196963071823,0.20227882266044617,-0.1165773129454464,0.0,0.0,0.0,0.0,0.0,0.0,-0.6,0.0,0.0004885196685791016,0.003031015396118164,0.005423545837402344,0
2.209831476211548,-0.35943904519081116,0.08635837584733963,0.20130793750286102,-0.11661141348352164,0.0,0.0,0.0,0.0,0.0,0.0,-0.6,0.0,0.0003561973571777344,0.0025615692138671875,0.00494384765625,0
2.2199411392211914,-0.3593407869338989,0.08601025491952896,0.20084184408187866,-0.11660794216190246,0.0,0.0,0.0,0.0,0.0,0.0,-0.6,0.0,0.0004487037658691406,0.0029633045196533203,0.005339622497558594,0
