time,x,y,z,yaw,throttle,roll_rate,pitch_rate,yaw_rate,x_ref,y_ref,z_ref,yaw_ref,pred_time,nr_time,metadata
1.6689300537109375e-06,-0.05827968195080757,-0.047909680753946304,-0.15404033660888672,-0.002157634938292574,-0.7199587858049346,0.11661142074944002,-0.3266937430045281,0.0008091255359095275,0.5557046068687596,0.22625735326136323,-0.8,0.0,0.28392577171325684,0.28409767150878906,Sim
0.28545284271240234,-0.05827968195080757,-0.047909680753946304,-0.15404033660888672,-0.002157634938292574,-0.7324129085611294,0.23539860174804983,-0.46868562010316966,0.0013755023943486575,0.5193076480609058,0.3005321391556158,-0.8,0.0,0.0005619525909423828,0.0006601810455322266,Jax
0.2899746894836426,-0.0593530610203743,-0.04748479649424553,-0.15652990341186523,-0.002268631029058721,-0.7424829128661423,0.3173969541893482,-0.5680799340722188,0.0018135777645571852,0.5186495930327301,0.30166637142211167,-0.8,0.0,0.0005369186401367188,0.0006389617919921875,1stOrderHold
0.30001044273376465,-0.05938379094004631,-0.047504592686891556,-0.1565852165222168,-0.002275813194593912,-0.7510537843546747,0.37299122696166703,-0.6376559538505532,0.0021229495133079064,0.5171802648840439,0.304178522605509,-0.8,0.0,0.0006129741668701172,0.0007145404815673828,QuatYawError
0.3105325698852539,-0.059412457048892975,-0.047515951097011566,-0.15665318071842194,-0.0023009061387617713,-0.7584819776911249,0.4098386009966036,-0.6863591676953873,0.0023489156368442367,0.5156266609475291,0.3068047367954118,-0.8,0.0,0.0008308887481689453,0.0009632110595703125,NoPyJoules
0.32015466690063477,-0.0594663992524147,-0.04751568287611008,-0.15682891011238098,-0.0022940871730381396,-0.7649398197963201,0.43330215647375936,-0.7204514173867711,0.002504528678951434,0.5141942730560958,0.3091993686221127,-0.8,0.0,0.0009806156158447266,0.001154184341430664,0
0.33034229278564453,-0.0594918318092823,-0.04750542715191841,-0.15693260729312897,-0.0022847442354083647,-0.7705361217689829,0.44752394980963073,-0.7443159921707397,0.0026099517610175434,0.512665578193357,0.3117274529708138,-0.8,0.0,0.000522613525390625,0.0006041526794433594,0
0.34008240699768066,-0.059542398899793625,-0.04746231064200401,-0.15717194974422455,-0.0023023400840700425,-0.7753433597225202,0.45523103024507194,-0.7610211945195178,0.002690345449079597,0.5111924113043884,0.31413741996903993,-0.8,0.0,0.0008714199066162109,0.0010597705841064453,0
0.35020923614501953,-0.05956597998738289,-0.04742780700325966,-0.15730682015419006,-0.002317993366103277,-0.7794509456474007,0.4587139372406897,-0.7727148361636624,0.0027524899829129024,0.5096487428119014,0.31663568805529224,-0.8,0.0,0.0006499290466308594,0.0007538795471191406,0
0.36017322540283203,-0.05958849564194679,-0.04738475754857063,-0.15745022892951965,-0.0023163466443785197,-0.7829322139735155,0.4595652803758793,-0.7809003853145637,0.0027953756987055523,0.5081179800161414,0.31908638075655327,-0.8,0.0,0.0007693767547607422,0.0008983612060546875,0
0.37056899070739746,-0.05960916727781296,-0.0473334975540638,-0.15760260820388794,-0.0023311289253991068,-0.7858629210657146,0.45899370547415386,-0.7866302697201947,0.002830934729366391,0.5065083228933123,0.3216353818220318,-0.8,0.0,0.0007586479187011719,0.0009646415710449219,0
0.38012027740478516,-0.05962852016091347,-0.04727563261985779,-0.15777045488357544,-0.0023235214731758265,-0.7883097303656909,0.4577252076296605,-0.7906411888041363,0.002852975587541234,0.5050181508017212,0.32397016430654524,-0.8,0.0,0.0004878044128417969,0.00057220458984375,0
0.3908207416534424,-0.05964755639433861,-0.04721195250749588,-0.1579495221376419,-0.0023246625505071172,-0.7903399309711095,0.45640270601996613,-0.7934488321628954,0.002868831311825014,0.5033359054548409,0.32657765734960403,-0.8,0.0,0.0008382797241210938,0.001018524169921875,0
0.40007615089416504,-0.059681203216314316,-0.04706940799951553,-0.15833601355552673,-0.0023667510603044843,-0.7920177718056537,0.4551059091244779,-0.7954141825140268,0.0028957140642348676,0.5018699805750041,0.3288259761601035,-0.8,0.0,0.0007069110870361328,0.0008761882781982422,0
0.410128116607666,-0.05969443917274475,-0.04698757827281952,-0.15854237973690033,-0.002368581351457344,-0.7934064481557512,0.4540522881332576,-0.7967899277598188,0.0029152170083938645,0.5002665169876721,0.3312603386779395,-0.8,0.0,0.0006773471832275391,0.0007908344268798828,0
0.4200906753540039,-0.05971212685108185,-0.04680327698588371,-0.1589783877134323,-0.002356761718983247,-0.7945497191877839,0.4532976853603076,-0.7977529494318731,0.0029244381139866514,0.49866566434885545,0.333665334129146,-0.8,0.0,0.0007541179656982422,0.0008842945098876953,0
0.4301445484161377,-0.059718042612075806,-0.04670155420899391,-0.15917031466960907,-0.0023474612113929534,-0.7954914687529326,0.45292433873248816,-0.7984270646023112,0.0029274045148192144,0.4970384176212436,0.33608453015360606,-0.8,0.0,0.0005462169647216797,0.0006260871887207031,0
0.4399735927581787,-0.05972425267100334,-0.046592827886343,-0.15937066078186035,-0.002350266106939891,-0.7962676298993668,0.4529825243864282,-0.7988989452216179,0.0029305317830851467,0.49543621425827966,0.33844195603001703,-0.8,0.0,0.0007510185241699219,0.0008847713470458984,0
0.4503364562988281,-0.05972995236515999,-0.046478141099214554,-0.1595798134803772,-0.002360199872947444,-0.7969051771782134,0.4535203081085996,-0.7992292616551325,0.0029364475135900737,0.4937348869142506,0.3409191420905727,-0.8,0.0,0.0009374618530273438,0.0011203289031982422,0
0.46001219749450684,-0.05974000692367554,-0.046232957392930984,-0.1600220799446106,-0.0023558319241212544,-0.7974258166932751,0.4544272229830346,-0.7994604831585927,0.002938950375963422,0.4921351861243629,0.34322435603893064,-0.8,0.0,0.0006175041198730469,0.0007340908050537109,0
0.47060251235961914,-0.05974000692367554,-0.046232957392930984,-0.1600220799446106,-0.0023558319241212544,-0.7978641281452069,0.45584569463494623,-0.7996223382110149,0.002940702640794152,0.49037194228357417,0.34573885841923374,-0.8,0.0,0.0010459423065185547,0.0012946128845214844,0
0.48016881942749023,-0.05974677577614784,-0.04596951603889465,-0.16049602627754211,-0.0023536503719516766,-0.798221147054937,0.457473140629819,-0.7988721219385161,0.0029411111624199995,0.4887681461543125,0.3480024415214304,-0.8,0.0,0.000652313232421875,0.0007791519165039062,0
0.49019575119018555,-0.05974782630801201,-0.04583102464675903,-0.1607445478439331,-0.0023649644037275763,-0.7985108399813505,0.4593732449618288,-0.7971681450400406,0.002945639711217803,0.48707591113898946,0.3503670315371057,-0.8,0.0,0.0004711151123046875,0.0005514621734619141,0
0.5001130104064941,-0.05974569544196129,-0.04553829878568649,-0.1612301468849182,-0.002366228094104361,-0.7987250459187832,0.4613340072852905,-0.7948381425103042,0.002949283759758595,0.48539093285812923,0.35269766415318815,-0.8,0.0,0.0007982254028320312,0.000989675521850586,0
0.5103476047515869,-0.05974569544196129,-0.04553829878568649,-0.1612301468849182,-0.002366228094104361,-0.798892543852112,0.46360731693641233,-0.7921906549702288,0.002951834725059847,0.48364034579772197,0.35509437607016514,-0.8,0.0,0.0008580684661865234,0.001007080078125,0
0.520000696182251,-0.05974164977669716,-0.045227184891700745,-0.16174809634685516,-0.002344823500195936,-0.7990035369793198,0.46590221861064496,-0.7894512355419925,0.002945593549797394,0.4819783771287512,0.3573469518274016,-0.8,0.0,0.0006711483001708984,0.0007903575897216797,0
0.5300283432006836,-0.059739649295806885,-0.04506538063287735,-0.16201703250408173,-0.0023462529027589163,-0.7990787437909849,0.46837974909150837,-0.7866929500906309,0.0029417597891820296,0.4802408119784277,0.35967869343387626,-0.8,0.0,0.0004849433898925781,0.0005648136138916016,0
0.5401854515075684,-0.059738364070653915,-0.04489896446466446,-0.1622910350561142,-0.0023434241237723086,-0.7991257585924678,0.4709728811493292,-0.7839495476476072,0.0029380159908715033,0.4784693143653941,0.3620319256788131,-0.8,0.0,0.0006661415100097656,0.0008032321929931641,0
0.5504748821258545,-0.05979670211672783,-0.04512212052941322,-0.16207647323608398,-0.002337419526690976,-0.7991562749726351,0.4739108010376067,-0.7813193038945996,0.002933143096124132,0.4766629813608694,0.3644069184307118,-0.8,0.0,0.0008840560913085938,0.0010640621185302734,0
0.5601119995117188,-0.05991002544760704,-0.04552873596549034,-0.16177339851856232,-0.002330838180330641,-0.7991813838866414,0.47711041967674445,-0.7788532895668164,0.0029272643918807567,0.4749604712154048,0.3666231727303126,-0.8,0.0,0.0006759166717529297,0.0008137226104736328,0
0.5703601837158203,-0.059963665902614594,-0.04571220651268959,-0.16164781153202057,-0.0023316915442310737,-0.7991974193074654,0.48048911624982266,-0.7763644829347843,0.0029234693386133194,0.473138704574215,0.3689712268373155,-0.8,0.0,0.0012664794921875,0.001514434814453125,0
0.5809376239776611,-0.06001513823866844,-0.045883070677518845,-0.16154024004936218,-0.002347564888472764,-0.7992083578274009,0.4839693222891938,-0.7738242175759475,0.002926764375545679,0.4712462349672942,0.37138522591663464,-0.8,0.0,0.0011305809020996094,0.0013468265533447266,0
0.5912332534790039,-0.06011331081390381,-0.04618757218122482,-0.1613743007183075,-0.0023389713907624454,-0.7992173221701818,0.48760483644305513,-0.771352132031006,0.0029258494299082742,0.469392356804582,0.3737255883311176,-0.8,0.0,0.0008819103240966797,0.0010330677032470703,0
0.6001677513122559,-0.06016116961836815,-0.04632220044732094,-0.16130095720291138,-0.0023266814236513333,-0.7992284278144351,0.49111706329556815,-0.7689911529361585,0.002920600438749667,0.4677741490353402,0.3757490458993387,-0.8,0.0,0.0010571479797363281,0.0012173652648925781,0
0.6104335784912109,-0.060208335518836975,-0.046446628868579865,-0.1612422615289688,-0.002314166778083937,-0.7992375583892716,0.49472648239880235,-0.7666243333056625,0.0029122334049561456,0.4659040448745365,0.3780653660011002,-0.8,0.0,0.0008039474487304688,0.0009503364562988281,0
0.6201338768005371,-0.060255348682403564,-0.04656165838241577,-0.16119800508022308,-0.0023135381593406557,-0.7992489659734616,0.4982966835779683,-0.7642638678800002,0.0029061405632018877,0.46412642169951723,0.38024553209788264,-0.8,0.0,0.0006327629089355469,0.0007498264312744141,0
0.630246639251709,-0.06034309044480324,-0.04675881564617157,-0.16115017235279083,-0.002312936730923809,-0.799263109591324,0.5019371291939645,-0.7616876820760891,0.0029016506650026636,0.4622623514599417,0.382509501088176,-0.8,0.0,0.0007364749908447266,0.0008616447448730469,0
0.640082836151123,-0.06038326025009155,-0.0468418151140213,-0.16114619374275208,-0.002320843263129202,-0.7992780884917069,0.5054354321507355,-0.7591709725638455,0.0029014714956104052,0.4604386652962878,0.38470278852664047,-0.8,0.0,0.0006489753723144531,0.0007731914520263672,0
0.6501171588897705,-0.06042257323861122,-0.04691420868039131,-0.16115416586399078,-0.0023289424252772584,-0.7992915060474953,0.5088832775493566,-0.7566397892605087,0.002904383622366729,0.45856752289911,0.38693129486017824,-0.8,0.0,0.0008492469787597656,0.0009992122650146484,0
0.6603517532348633,-0.060460012406110764,-0.04697680473327637,-0.1611754298210144,-0.0023343581854637922,-0.7993012626995133,0.512321586966375,-0.7540007605208074,0.0029084533265027537,0.45664792448145136,0.38919490370093834,-0.8,0.0,0.0008027553558349609,0.000972747802734375,0
0.6699256896972656,-0.060526084154844284,-0.04707537591457367,-0.1612156480550766,-0.002307392976927502,-0.7993156999086398,0.5157790970928314,-0.7512325592026617,0.002901189207184273,0.4548421229890377,0.391303773499343,-0.8,0.0,0.0006320476531982422,0.0007598400115966797,0
0.6800236701965332,-0.06055597588419914,-0.04711052402853966,-0.16125333309173584,-0.0023072520927218676,-0.7993246811982354,0.5191826326239819,-0.7484865772520222,0.0028960518348672276,0.4529269257615648,0.39351899562813725,-0.8,0.0,0.0006153583526611328,0.0007195472717285156,0
0.6904346942901611,-0.060584694147109985,-0.047136496752500534,-0.16130293905735016,-0.0023116955214503854,-0.7993309302619156,0.5225835332382587,-0.7457339934736146,0.0028941226702011505,0.45094106116491234,0.39579307643699724,-0.8,0.0,0.0008742809295654297,0.0010204315185546875,0
0.7001650333404541,-0.06061330437660217,-0.047153130173683167,-0.16136376559734344,-0.002313799860690136,-0.7993330216650012,0.5258749845179216,-0.7430741949294486,0.0028935612214500642,0.44907471139093336,0.39790941631123766,-0.8,0.0,0.0005674362182617188,0.0006840229034423828,0
0.7099258899688721,-0.06066734343767166,-0.0471607930958271,-0.16151823103427887,-0.002330805324069374,-0.7993314980821024,0.5291804219166161,-0.7403883664236861,0.00289954511156997,0.4471925291618829,0.4000235516338988,-0.8,0.0,0.0007588863372802734,0.0008685588836669922,0
0.7203731536865234,-0.06069084629416466,-0.047153644263744354,-0.16161562502384186,-0.002335992270973808,-0.7993289553673221,0.5325443058227187,-0.7375759715594012,0.0029056788778482018,0.4451669612103012,0.4022764927842368,-0.8,0.0,0.0007610321044921875,0.0009284019470214844,0
0.7304055690765381,-0.06071210652589798,-0.047140080481767654,-0.16172350943088531,-0.002330357869539945,-0.799321263961766,0.5358930934163736,-0.7348052259653118,0.0029078588424057404,0.44321114247821003,0.4044303193173822,-0.8,0.0,0.0009312629699707031,0.0011229515075683594,0
0.7407670021057129,-0.06073334440588951,-0.04711926355957985,-0.1618407815694809,-0.002340799009153738,-0.7993145834396852,0.5392278837453273,-0.7320951895588569,0.0029133011285108917,0.44118024345341444,0.4066447992860427,-0.8,0.0,0.0007071495056152344,0.0008199214935302734,0
0.7499103546142578,-0.06077989563345909,-0.04705847427248955,-0.1621023714542389,-0.002336617436487831,-0.7993006339747984,0.5424668583469124,-0.7295540734809247,0.0029155431879495032,0.4393789036086787,0.4085904784299745,-0.8,0.0,0.0006496906280517578,0.0007586479187011719,0
0.7601661682128906,-0.06080208718776703,-0.04701806977391243,-0.16224893927574158,-0.002341906838018382,-0.7992827570080789,0.5456493645777719,-0.7268382332398555,0.002919095433380813,0.4373481883283581,0.4107633895150625,-0.8,0.0,0.0009272098541259766,0.0011310577392578125,0
0.7703857421875,-0.060821838676929474,-0.046969279646873474,-0.1624055653810501,-0.0023246230398497048,-0.7992666923406934,0.5487302430630241,-0.7240358314201917,0.002915101591170582,0.43531395972755854,0.4129185833385482,-0.8,0.0,0.0008554458618164062,0.001043081283569336,0
0.7802143096923828,-0.06084026023745537,-0.04691376909613609,-0.16257041692733765,-0.0023095676241147167,-0.7992488725003825,0.5518178197214769,-0.721251157912303,0.002906659751616816,0.4333475425748647,0.41498181567910397,-0.8,0.0,0.0010037422180175781,0.0012054443359375,0
0.7902090549468994,-0.06087653711438179,-0.04678482934832573,-0.1629195511341095,-0.002320887804319493,-0.799224300436595,0.5548582199556585,-0.7184725970445428,0.002904994691441386,0.4313378499510019,0.4170703288411283,-0.8,0.0,0.0007779598236083984,0.0009126663208007812,0
0.8002486228942871,-0.06089390069246292,-0.04671158269047737,-0.16310720145702362,-0.002324506596159459,-0.7991933817838665,0.5578814323266158,-0.7157005787125883,0.0029051858992563094,0.42930901141716277,0.4191584100504467,-0.8,0.0,0.0010962486267089844,0.001310110092163086,0
0.8102860450744629,-0.06091133877635002,-0.04663204774260521,-0.16330508887767792,-0.0023164135974576006,-0.7991567825699399,0.5608777743626909,-0.7129628928588709,0.0029022850701184147,0.427270501583194,0.42123617897427307,-0.8,0.0,0.001195669174194336,0.0014412403106689453,0
0.8204476833343506,-0.06092892587184906,-0.04654649645090103,-0.16351279616355896,-0.002317751270063173,-0.7991145554503276,0.5638572470414315,-0.7102034499830268,0.002900756983750147,0.4251965214847086,0.4233295620640068,-0.8,0.0,0.0012180805206298828,0.0013928413391113281,0
0.8299963474273682,-0.06096355989575386,-0.046353779733181,-0.16395224630832672,-0.002335423303604589,-0.7990705511916167,0.5665975297692184,-0.7075745700189238,0.0029063140708364284,0.4232383009703807,0.42528736237008674,-0.8,0.0,0.0008175373077392578,0.0009942054748535156,0
0.8402895927429199,-0.060981184244155884,-0.046246934682130814,-0.16420264542102814,-0.0023610979738868383,-0.7990243637081824,0.5694301277201702,-0.7048613988704382,0.002919831274229812,0.4211172881615575,0.42738768069687705,-0.8,0.0,0.000980377197265625,0.0011610984802246094,0
0.850327730178833,-0.06099925562739372,-0.046134695410728455,-0.16446058452129364,-0.0023768895901317144,-0.7989774698352241,0.5723143494889509,-0.7021220476526134,0.0029352150023751198,0.41903880371528685,0.42942575723966686,-0.8,0.0,0.0010783672332763672,0.0013003349304199219,0
0.8603494167327881,-0.061018332839012146,-0.0460176058113575,-0.16472485661506653,-0.0023818995017785833,-0.7989310772662622,0.5752541700970702,-0.6994069178877845,0.0029478628267136636,0.41695388623818364,0.43145041053506455,-0.8,0.0,0.0010046958923339844,0.0012083053588867188,0
0.8710994720458984,-0.06106136366724968,-0.04576680436730385,-0.16527163982391357,-0.002383645311146765,-0.798879918557309,0.5780673710090904,-0.6966784869525776,0.0029573707322097056,0.4147065652110614,0.4336109601599615,-0.8,0.0,0.0009491443634033203,0.0011131763458251953,0
0.8801767826080322,-0.06108333542943001,-0.04563143476843834,-0.16555510461330414,-0.0023857621151743835,-0.7988276458795601,0.5807502406302297,-0.6939462127231968,0.0029648215387058515,0.4128002146672068,0.4354262081807984,-0.8,0.0,0.0007395744323730469,0.0008814334869384766,0
0.8905065059661865,-0.06110423430800438,-0.045490507036447525,-0.16584599018096924,-0.0023781095782289263,-0.7987735811926654,0.5835107927471742,-0.691062034126931,0.002967166374696286,0.4106211779553241,0.4374817118630013,-0.8,0.0,0.0008308887481689453,0.000995635986328125,0
0.9004483222961426,-0.06112338602542877,-0.04534507170319557,-0.16614322364330292,-0.0023735216979519076,-0.7987201224504357,0.5862752914857882,-0.6881150557823925,0.002967086717428544,0.4085143031359,0.4394497287897559,-0.8,0.0,0.0011925697326660156,0.0015559196472167969,0
0.9103434085845947,-0.061159081757068634,-0.045040030032396317,-0.1666877120733261,-0.0023650710358236182,-0.7986461741018801,0.5889262246762718,-0.6851911972064803,0.002963863478824888,0.40640796553729136,0.4413984204183787,-0.8,0.0,0.0007452964782714844,0.0008738040924072266,0
0.9214401245117188,-0.06117848679423332,-0.04488080367445946,-0.16697187721729279,-0.0023399194106183963,-0.7985753349235047,0.591641726891162,-0.6822390615971877,0.0029521738978211536,0.404034785650073,0.443571743897985,-0.8,0.0,0.0013279914855957031,0.001600027084350586,0
0.9312565326690674,-0.06121852993965149,-0.044544197618961334,-0.16755886375904083,-0.002342787481659947,-0.7985033373668478,0.594101245204034,-0.6793071664014922,0.002945066668363665,0.4019257264065139,0.44548368146610723,-0.8,0.0,0.0011646747589111328,0.0014052391052246094,0
0.9405033588409424,-0.06121852993965149,-0.044544197618961334,-0.16755886375904083,-0.002342787481659947,-0.7984399828730128,0.5966789259102496,-0.6764390666249976,0.002940092191966711,0.39993076606198746,0.4472755105715847,-0.8,0.0,0.0008544921875,0.0010199546813964844,0
0.9507303237915039,-0.061262425035238266,-0.04472777247428894,-0.1670537143945694,-0.002345922342758211,-0.7984000971775921,0.5995142740411583,-0.6736781648099972,0.0029377856322975247,0.39771504388558543,0.4492468629462947,-0.8,0.0,0.0012462139129638672,0.0014698505401611328,0
0.9600224494934082,-0.061348143965005875,-0.04505901783704758,-0.1660902500152588,-0.002331719240068253,-0.7984005016559718,0.6026506299262343,-0.6710269475799462,0.0029308443083415204,0.39569343242116645,0.45102849969681047,-0.8,0.0,0.0008192062377929688,0.0009844303131103516,0
0.9702374935150146,-0.06138871610164642,-0.04520619660615921,-0.16563130915164948,-0.0023370521874741534,-0.7984199216579663,0.6058006528299672,-0.6682957432674044,0.002927985954264255,0.39346182126966806,0.4529765945423182,-0.8,0.0,0.0008258819580078125,0.0009720325469970703,0
0.9802353382110596,-0.061429187655448914,-0.04534042626619339,-0.1651950627565384,-0.0023255948989677755,-0.7984575255569832,0.6089311701229826,-0.6655203905886872,0.0029216881129173586,0.39126837271500253,0.4548725761275941,-0.8,0.0,0.0009243488311767578,0.0010917186737060547,0
0.990452766418457,-0.061510100960731506,-0.04557611048221588,-0.16438701748847961,-0.0023289508482866594,-0.7985139712758917,0.6122617709158613,-0.6627347819716517,0.0029185385419993656,0.3890173103881101,0.456799225282181,-0.8,0.0,0.0005707740783691406,0.0006721019744873047,0
0.9998941421508789,-0.06154988706111908,-0.045679282397031784,-0.16401761770248413,-0.0023512364262132657,-0.7985719125936349,0.6155112184789919,-0.6598619062734863,0.0029246911851079412,0.3869287901398105,0.4585696363268532,-0.8,0.0,0.0006265640258789062,0.0007588863372802734,0
1.0105738639831543,-0.061626967042684555,-0.04585854336619377,-0.16334319114685059,-0.0023973798411947023,-0.7986444754148775,0.6189087559612589,-0.656877793431541,0.002946301662285597,0.3845566270299135,0.46056074583856577,-0.8,0.0,0.0013456344604492188,0.001611948013305664,0
1.0206577777862549,-0.061626967042684555,-0.04585854336619377,-0.16334319114685059,-0.0023973798411947023,-0.798708743651404,0.6220736618682473,-0.6537407846065583,0.002961428990514795,0.3823073983029927,0.46242951160452217,-0.8,0.0,0.001249551773071289,0.0014853477478027344,0
1.0303740501403809,-0.06166328489780426,-0.0459333211183548,-0.1630452424287796,-0.002407805043370015,-0.7987731500278137,0.6251262042449935,-0.6505078247769588,0.002975927558533366,0.380131581207088,0.46421975503957075,-0.8,0.0,0.0009996891021728516,0.0011813640594482422,0
1.0401911735534668,-0.06173095479607582,-0.046053603291511536,-0.16250894963741302,-0.0023839681477118013,-0.7988413777834722,0.6281399772361625,-0.6472231162872742,0.002977138140240703,0.3779246660714537,0.46601818288000335,-0.8,0.0,0.0007364749908447266,0.0008690357208251953,0
1.050288438796997,-0.06176232919096947,-0.046099286526441574,-0.16226880252361298,-0.0023657441507483057,-0.7989034307766437,0.6310189154489724,-0.6439075316236685,0.0029711514053832244,0.3756458987922002,0.46785698532842285,-0.8,0.0,0.0007872581481933594,0.0009279251098632812,0
1.0603549480438232,-0.06179304048418999,-0.04613451287150383,-0.162047877907753,-0.0023583132784241734,-0.7989577960893767,0.6337522972191761,-0.6405594477243826,0.0029641733567060953,0.3733651667497664,0.46967909497647337,-0.8,0.0,0.0008997917175292969,0.0010831356048583984,0
1.0702009201049805,-0.06185280531644821,-0.046177275478839874,-0.16165994107723236,-0.0023945621419816376,-0.799012035855354,0.6365102860664574,-0.6372418796645947,0.0029728826080807733,0.3711258507465303,0.4714505307109793,-0.8,0.0,0.0008637905120849609,0.001028299331665039,0
1.0803091526031494,-0.06188163161277771,-0.04618481919169426,-0.16149580478668213,-0.0023945633459780957,-0.7990599952760329,0.6391517784438485,-0.6338417068464988,0.002978979949556011,0.36881814482778796,0.4732580438257641,-0.8,0.0,0.0006468296051025391,0.0007803440093994141,0
1.0904126167297363,-0.061909593641757965,-0.046182386577129364,-0.16134801506996155,-0.002390122782851112,-0.7991041362406899,0.6416985136439541,-0.6304211296032108,0.0029815827582783663,0.36650273066103817,0.4750534163838868,-0.8,0.0,0.0008206367492675781,0.000980377197265625,0
1.100156545639038,-0.06193707883358002,-0.046170901507139206,-0.1612159013748169,-0.0023801952407560556,-0.7991408601408905,0.6442059877510384,-0.6270470550238082,0.002979681715067049,0.3642614320738379,0.47677416992064153,-0.8,0.0,0.0007274150848388672,0.0008502006530761719,0
1.1101844310760498,-0.061964843422174454,-0.046150460839271545,-0.1610991209745407,-0.0023755323820857654,-0.7991722212452681,0.6466717941120942,-0.6237123697548634,0.0029766022604002123,0.3619463828006012,0.478534028024717,-0.8,0.0,0.0005924701690673828,0.0007054805755615234,0
1.1200320720672607,-0.062020447105169296,-0.04608853906393051,-0.16091199219226837,-0.002380391858656239,-0.7991982656675103,0.6492317379969594,-0.6204676507382831,0.0029762682305890303,0.3596646702368655,0.48025131440049884,-0.8,0.0,0.0005490779876708984,0.0006480216979980469,0
1.1302006244659424,-0.06204871088266373,-0.04604717344045639,-0.16084003448486328,-0.0023816038205515255,-0.799221531790965,0.6517638325270387,-0.6171430360165372,0.002976489070807789,0.3573000523443703,0.4820131456658731,-0.8,0.0,0.0006692409515380859,0.0007965564727783203,0
1.1403191089630127,-0.0620766207575798,-0.04599788412451744,-0.16078287363052368,-0.002366845593487099,-0.7992377484580783,0.6542599648887085,-0.6137849504362389,0.002971108532819179,0.35493851064364224,0.4837547453638807,-0.8,0.0,0.0009496212005615234,0.0011191368103027344,0
1.1502561569213867,-0.06210564821958542,-0.04594133421778679,-0.1607266515493393,-0.0023540843526705935,-0.799246034783006,0.6567620220580548,-0.6104515046704911,0.0029625574609869554,0.35261105185083175,0.48545385580160966,-0.8,0.0,0.0013592243194580078,0.0015294551849365234,0
1.159956693649292,-0.0621635876595974,-0.045809805393218994,-0.1606566458940506,-0.002323142278581436,-0.7992537093450689,0.6593098701108927,-0.60725331360582,0.0029449690605348627,0.3503311428638705,0.4871017248375275,-0.8,0.0,0.00064849853515625,0.0007660388946533203,0
1.1700787544250488,-0.06219393387436867,-0.04573426768183708,-0.1606403887271881,-0.0023425529179683657,-0.7992623965872391,0.6618037362476993,-0.6040003571137588,0.002939936922177929,0.34794395407181666,0.4888097838882417,-0.8,0.0,0.0006995201110839844,0.0008373260498046875,0
1.179990291595459,-0.0622236430644989,-0.045652199536561966,-0.16063719987869263,-0.0023151194336734626,-0.7992678370348391,0.6642549339702825,-0.6006566960024188,0.002926125389707246,0.34559834523386324,0.4904709815795584,-0.8,0.0,0.0006268024444580078,0.0007398128509521484,0
1.2268307209014893,-0.062252119183540344,-0.0455634780228138,-0.16064688563346863,-0.0022999777570915643,-0.799283552664658,0.6693899240839141,-0.5933393928150582,0.002910780393446908,0.3344069574290592,0.498168632917649,-0.8,0.0,0.0005400180816650391,0.0006194114685058594,0
1.229848861694336,-0.062436606734991074,-0.04490647837519646,-0.16084523499011993,-0.0022870945561579425,-0.7992690554310485,0.6728013445241474,-0.5884681792022187,0.0028952073277552135,0.3336799065290348,0.4986559134100132,-0.8,0.0,0.00043487548828125,0.0004947185516357422,0
1.2398970127105713,-0.06247211992740631,-0.04477732256054878,-0.1609189659357071,-0.002308148251216835,-0.7992485580362655,0.6758585570568837,-0.5840906986507939,0.002892201495716365,0.3312542626410063,0.5002705402901146,-0.8,0.0,0.0007097721099853516,0.0008218288421630859,0
1.250610113143921,-0.06250868737697601,-0.044643111526966095,-0.161004438996315,-0.0023088039411391925,-0.7992233478947872,0.6787674818043792,-0.5799156742558703,0.0028903424551655617,0.32865949459243216,0.5019790200937156,-0.8,0.0,0.0006039142608642578,0.0007658004760742188,0
1.259903907775879,-0.06258214265108109,-0.044358592480421066,-0.16119706630706787,-0.0022967417096402265,-0.7992000295741758,0.6812281118774836,-0.5760742741524143,0.002884517323472897,0.32640134947247296,0.5034502548043337,-0.8,0.0,0.0004932880401611328,0.0005791187286376953,0
1.2702600955963135,-0.06258214265108109,-0.044358592480421066,-0.16119706630706787,-0.0022967417096402265,-0.7991773355610438,0.6836989811784161,-0.5722727153946797,0.002880439593907342,0.3238773149726085,0.5050777017906589,-0.8,0.0,0.0008187294006347656,0.000965118408203125,0
1.280158281326294,-0.06265689432621002,-0.04404725506901741,-0.16141828894615173,-0.002286785619787235,-0.7991506428935765,0.6857950829212607,-0.5686003213463623,0.0028738520168227685,0.32145732096998814,0.506621348538332,-0.8,0.0,0.0007016658782958984,0.0008478164672851562,0
1.2902615070343018,-0.06269394606351852,-0.043881624937057495,-0.16155584156513214,-0.0022902803755959766,-0.7990536149736328,0.6874151730711009,-0.5646392280070235,0.002870551975662357,0.31897961013454207,0.508185013866422,-0.8,0.0,0.0007507801055908203,0.0008835792541503906,0
1.3005144596099854,-0.06272400915622711,-0.04370035231113434,-0.1617659032344818,-0.002285098952090614,-0.7987524075329299,0.6873809266190011,-0.5595996112382029,0.0028662987443589384,0.31645740475065576,0.5097594638439581,-0.8,0.0,0.0009050369262695312,0.0010561943054199219,0
1.3102307319641113,-0.06273848563432693,-0.043492391705513,-0.16210401058197021,-0.002247627848391165,-0.7981689768804905,0.6851204013540073,-0.55313738201262,0.0028492693366291974,0.31406004896811546,0.5112399491844754,-0.8,0.0,0.0007550716400146484,0.0008904933929443359,0
1.3201534748077393,-0.06269708275794983,-0.042974092066287994,-0.16327407956123352,-0.002128700063282807,-0.7969572234371292,0.6756281266808393,-0.5415748280624078,0.002792749709983741,0.31160460147676106,0.5127402581605124,-0.8,0.0,0.0006897449493408203,0.0008122920989990234,0
1.3300354480743408,-0.06263444572687149,-0.04265826940536499,-0.16412708163261414,-0.002050160065248274,-0.7954765829501159,0.664709240226248,-0.5291665066599504,0.002723733483093973,0.30915211968149087,0.5142226822072721,-0.8,0.0,0.0009675025939941406,0.0011630058288574219,0
1.3400344848632812,-0.062543585896492,-0.04230159893631935,-0.16516287624835968,-0.001989592191978584,-0.7937780346418702,0.6523470909529081,-0.515838697037387,0.002652709636070099,0.30666340747294046,0.5157107275567236,-0.8,0.0,0.0006554126739501953,0.0007748603820800781,0
1.3509654998779297,-0.0624098964035511,-0.042598068714141846,-0.16586551070213318,-0.00192212018085991,-0.7919159209734742,0.6391672588339447,-0.5013900513958643,0.002577691112068244,0.30393453769771134,0.5173236866744828,-0.8,0.0,0.0006780624389648438,0.0007996559143066406,0
1.3599720001220703,-0.062054287642240524,-0.0430290661752224,-0.16783683001995087,-0.001867829059666981,-0.7897162525338768,0.6172930155961277,-0.48000727560400175,0.0025048224710648753,0.30167973489071886,0.5186418200996383,-0.8,0.0,0.0006563663482666016,0.0007801055908203125,0
1.3701050281524658,-0.06183725595474243,-0.043168049305677414,-0.16909568011760712,-0.0018798296311399731,-0.7873868651158461,0.5961571540649883,-0.4589070439610658,0.002458314963673368,0.2991360710522844,0.5201130752013475,-0.8,0.0,0.0008678436279296875,0.0010406970977783203,0
1.3804521560668945,-0.061598341912031174,-0.04325762391090393,-0.1705271154642105,-0.0018970552797314964,-0.7849926821779716,0.5752197070368886,-0.4376862656094379,0.0024322204573997575,0.29653125884272585,0.5216025426789523,-0.8,0.0,0.0010759830474853516,0.0012919902801513672,0
1.390761375427246,-0.06133817136287689,-0.04329748451709747,-0.17211301624774933,-0.0019187048223834324,-0.782577309022433,0.5540482587316883,-0.41588653885193033,0.0024220701552016563,0.2939286142416925,0.5230735796520011,-0.8,0.0,0.0007853507995605469,0.0009307861328125,0
1.4000155925750732,-0.06075279787182808,-0.0432259663939476,-0.1757652461528778,-0.0021018142745723445,-0.7800865118131093,0.5225291189168937,-0.3852569911392411,0.002483631565457568,0.291586096080859,0.5243830170517768,-0.8,0.0,0.0007188320159912109,0.0008664131164550781,0
1.4101049900054932,-0.06042737513780594,-0.04311345890164375,-0.1778210699558258,-0.0022582104352202315,-0.777502747953818,0.49271248312538934,-0.35569151820477274,0.0025853716702532886,0.2890255237189445,0.5257986750068793,-0.8,0.0,0.0004918575286865234,0.0005705356597900391,0
1.420055866241455,-0.06007755175232887,-0.042946092784404755,-0.1800258904695511,-0.0024098942074344265,-0.7748774859615222,0.4639196621931071,-0.32667149468384854,0.002713467037008841,0.2864933741722035,0.5271826500895356,-0.8,0.0,0.0007014274597167969,0.0008289813995361328,0
1.4303100109100342,-0.05929429456591606,-0.04243959113955498,-0.18486934900283813,-0.002799034881197482,-0.7722028728132572,0.4251620435918543,-0.2886355101326427,0.0029490650694570892,0.2838771211433895,0.5285960462312799,-0.8,0.0,0.0006766319274902344,0.0007998943328857422,0
1.4398775100708008,-0.05885600671172142,-0.04209586977958679,-0.1874980330467224,-0.0030404709616553838,-0.7694064734277596,0.3895735935710182,-0.25337387169120784,0.003204517739223431,0.28142977028778493,0.5299030896265511,-0.8,0.0,0.0005521774291992188,0.000652313232421875,0
1.450005292892456,-0.05838453397154808,-0.04168776795268059,-0.1902591437101364,-0.0032890263012506082,-0.7665724959260279,0.356485973712384,-0.2200652124804224,0.0034765463992636083,0.27883254413654746,0.5312743286950163,-0.8,0.0,0.0008120536804199219,0.0009634494781494141,0
1.460268259048462,-0.05787549540400505,-0.04121284931898117,-0.19314789772033691,-0.0035412370345220263,-0.7637562093779383,0.3252252604275218,-0.18807776773140822,0.0037615461001483507,0.27619383568064476,0.5326508848504928,-0.8,0.0,0.0006892681121826172,0.0008299350738525391,0
1.4700777530670166,-0.057326920330524445,-0.04066826403141022,-0.19615773856639862,-0.003832106971978888,-0.7609951347443134,0.2952688680904485,-0.1571511569963842,0.004070121642360121,0.27366536653258333,0.533954368050854,-0.8,0.0,0.0006508827209472656,0.0007576942443847656,0
1.4800176620483398,-0.056102149188518524,-0.03936058282852173,-0.2025182694196701,-0.004386952367716911,-0.7582515677086582,0.2556495461643837,-0.11839976284261801,0.004494188634930571,0.2710970074480693,0.5352629377723638,-0.8,0.0,0.0006225109100341797,0.0007319450378417969,0
1.4901912212371826,-0.05542215704917908,-0.03859192878007889,-0.20585894584655762,-0.004681891016531825,-0.7554748358761277,0.21973795080665798,-0.08305254405791271,0.0049016372696205745,0.268461797016493,0.5365894739395055,-0.8,0.0,0.0006823539733886719,0.0007910728454589844,0
1.500131368637085,-0.0546952523291111,-0.03774183616042137,-0.2092995047569275,-0.005000446625393451,-0.7527268255184566,0.18665113669241318,-0.05031055942444724,0.005306315604295888,0.2658807765364627,0.537873045121586,-0.8,0.0,0.0006706714630126953,0.0007984638214111328,0
1.5099971294403076,-0.05309344828128815,-0.035793714225292206,-0.21640905737876892,-0.005598059252521104,-0.7499675828656488,0.14533633276280894,-0.011611928755578808,0.005813695873165905,0.2633130027225953,0.5391347351054377,-0.8,0.0,0.0007414817810058594,0.0008578300476074219,0
1.5203590393066406,-0.052213218063116074,-0.034693069756031036,-0.22010034322738647,-0.005889545634315762,-0.7472049078971063,0.10880499719307041,0.02309644048245791,0.006278165451487782,0.26060965048470613,0.5404466764392574,-0.8,0.0,0.0008320808410644531,0.0009908676147460938,0
1.5300931930541992,-0.05127772316336632,-0.033503398299217224,-0.22387553751468658,-0.006155206458914098,-0.744504901059552,0.07578917260536995,0.05470175404503951,0.006702914527644225,0.2580641198727289,0.5416667887496092,-0.8,0.0,0.0007040500640869141,0.0008347034454345703,0
1.5403361320495605,-0.05028684437274933,-0.0322243794798851,-0.22773094475269318,-0.006387680121429984,-0.7419046884596062,0.045467245036759335,0.0839340874985555,0.007087425667926366,0.25537937264823196,0.5429377275763727,-0.8,0.0,0.0007157325744628906,0.0008618831634521484,0
1.5502433776855469,-0.04924079403281212,-0.030855407938361168,-0.2316616326570511,-0.0066146078350168835,-0.7394219487714745,0.0171568416637623,0.11125769048983329,0.007441681544839614,0.2527766576572453,0.5441543543367376,-0.8,0.0,0.0008451938629150391,0.00099945068359375,0
1.5599639415740967,-0.048421114683151245,-0.029746731743216515,-0.23976664245128632,-0.006998806556548054,-0.7369219537948655,-0.016921567409377967,0.14204837936356604,0.007833723801743063,0.2502173520980491,0.5453359301467683,-0.8,0.0,0.0006580352783203125,0.000797271728515625,0
1.5702004432678223,-0.0479130819439888,-0.029038431122899055,-0.24391254782676697,-0.007165743164744942,-0.7345028776698133,-0.04624993834661496,0.169059491773953,0.008170761747341888,0.2475162370468964,0.5465672075766571,-0.8,0.0,0.0007472038269042969,0.0008931159973144531,0
1.5798461437225342,-0.04669976979494095,-0.02731354534626007,-0.2523763179779053,-0.007422201946779783,-0.7320515546026801,-0.07966659182957417,0.19783108952722211,0.008502859726831295,0.24496547182581668,0.5477151792794819,-0.8,0.0,0.0005557537078857422,0.0006575584411621094,0
1.5903246402740479,-0.04599326476454735,-0.026296159252524376,-0.25668543577194214,-0.007496508756228426,-0.7297113581623961,-0.1077221954114537,0.2227828334864096,0.008763195925176876,0.24218844552898044,0.5489487743426121,-0.8,0.0,0.0006322860717773438,0.0007507801055908203,0
1.599893569946289,-0.04521994665265083,-0.02517600543797016,-0.26103946566581726,-0.00753205214587771,-0.7275093429430953,-0.13189680678230375,0.24462006852955503,0.00895875601073865,0.23964704568610673,0.5500629904782915,-0.8,0.0,0.0005474090576171875,0.0006489753723144531,0
1.610074520111084,-0.044381555169820786,-0.023953363299369812,-0.26543429493904114,-0.007523220686226128,-0.7254568290633472,-0.15317139589786624,0.2641768489121773,0.009092336104364884,0.23693747320588723,0.5512355520018728,-0.8,0.0,0.0008099079132080078,0.001020669937133789,0
1.620232105255127,-0.043477728962898254,-0.022627707570791245,-0.26986634731292725,-0.0074548541348136155,-0.7235469553960404,-0.17242265570987714,0.28195561635845245,0.009160203832269757,0.23422840184006316,0.552392121387923,-0.8,0.0,0.0007700920104980469,0.0009131431579589844,0
1.630035638809204,-0.042509179562330246,-0.0211995430290699,-0.2743005156517029,-0.007376041008568812,-0.7217694198302679,-0.19004554383576747,0.29820042759901944,0.009178158399343099,0.23160840318487835,0.5534957520832032,-0.8,0.0,0.0006306171417236328,0.0007343292236328125,0
1.6401207447052002,-0.04038071632385254,-0.018041372299194336,-0.28326302766799927,-0.0071588908586335265,-0.7199583451842972,-0.21191606807597158,0.3157031789144693,0.009109292961364722,0.2289077287574335,0.5546181134033699,-0.8,0.0,0.0005910396575927734,0.0006918907165527344,0
1.6498982906341553,-0.03922409564256668,-0.01631288416683674,-0.2877858281135559,-0.006979225783724896,-0.7182665249930966,-0.23058368458664968,0.3308949800308901,0.008993714296236415,0.2262842222805249,0.5556936662828702,-0.8,0.0,0.00064849853515625,0.0007741451263427734,0
1.6598594188690186,-0.03672833368182182,-0.012562435120344162,-0.2969006597995758,-0.006550308851910102,-0.7165419625928262,-0.2515605714686593,0.34599035588700994,0.008751964943893242,0.22360626081963283,0.5567766519191176,-0.8,0.0,0.0006339550018310547,0.0007281303405761719,0
1.6704542636871338,-0.03672833368182182,-0.012562435120344162,-0.2969006597995758,-0.006550308851910102,-0.7151008663619828,-0.264367389867935,0.3576340436945526,0.008582741788841752,0.2207522437023133,0.5579143723730322,-0.8,0.0,0.0007967948913574219,0.0009088516235351562,0
1.6800918579101562,-0.033997341990470886,-0.008429891429841518,-0.30608904361724854,-0.005995066774524105,-0.7136197636038333,-0.2804159074471738,0.3690657293168087,0.008256069310123477,0.21815105914678312,0.5589365933566496,-0.8,0.0,0.0006201267242431641,0.0007159709930419922,0
1.690260648727417,-0.032546866685152054,-0.006222867406904697,-0.3107038140296936,-0.005692743413729939,-0.7122557225240301,-0.2939170165152373,0.3790555495438751,0.007914028168275123,0.21540137402157378,0.5600020072014189,-0.8,0.0,0.0007746219635009766,0.0008609294891357422,0
1.7002723217010498,-0.031039578840136528,-0.003924904391169548,-0.31532931327819824,-0.00535771277813657,-0.7109963665823872,-0.30549509573445666,0.3878777121822976,0.007548961864007138,0.21268909081044277,0.5610377444078314,-0.8,0.0,0.0006651878356933594,0.0007777214050292969,0
1.7101688385009766,-0.029477810487151146,-0.001537347910925746,-0.3199627995491028,-0.005021630515372522,-0.709833123547529,-0.31557566161295364,0.39558002199374465,0.0071673846660690555,0.21000311013546188,0.5620486577988004,-0.8,0.0,0.0006444454193115234,0.000766754150390625,0
1.720128059387207,-0.026198143139481544,0.0035075920168310404,-0.3292466998100281,-0.004254219256149217,-0.7086257474631668,-0.32769921201262503,0.4019754685343947,0.006612500568745,0.20729526086460293,0.5630529946844046,-0.8,0.0,0.00067901611328125,0.0007915496826171875,0
1.7300739288330078,-0.02448246069252491,0.006161954253911972,-0.33389273285865784,-0.003864186701706629,-0.7075188932404758,-0.33763730928588154,0.40739745674221056,0.006077820353939618,0.20458624839538844,0.5640429655332122,-0.8,0.0,0.0007054805755615234,0.0008456707000732422,0
1.7399566173553467,-0.022718554362654686,0.008901220746338367,-0.3385390341281891,-0.003447655511435332,-0.7065050571628696,-0.34589544178585574,0.4119183241636233,0.005547345459452572,0.20188976216216228,0.5650137378277678,-0.8,0.0,0.0006325244903564453,0.0007584095001220703,0
1.750335693359375,-0.02106233313679695,0.0113533865660429,-0.3421937823295593,-0.0030236619953929456,-0.7056108667452231,-0.35251465607722754,0.41553758494544807,0.005017014974074244,0.199052879001431,0.5660193913296978,-0.8,0.0,0.0007679462432861328,0.0009050369262695312,0
1.7600457668304443,-0.018152015283703804,0.015584594570100307,-0.3495788276195526,-0.0021519334612793988,-0.7047495709609212,-0.35828177224972646,0.4160501737630208,0.0043188860098107695,0.19639431581788316,0.5669473279894929,-0.8,0.0,0.0005807876586914062,0.0006873607635498047,0
1.770219326019287,-0.01662684604525566,0.017833299934864044,-0.35329434275627136,-0.001711886211007485,-0.7039852080502951,-0.36206405294130384,0.41596962504778606,0.0036651780393815933,0.1936042136344251,0.5679061616702146,-0.8,0.0,0.0006737709045410156,0.0007956027984619141,0
1.7802631855010986,-0.015056158415973186,0.020169325172901154,-0.3570229411125183,-0.0012512967667057673,-0.7033041978154206,-0.36442640103767315,0.4153595558425698,0.003034860515664372,0.1908450895560946,0.568839302257084,-0.8,0.0,0.0010018348693847656,0.0012059211730957031,0
1.7908778190612793,-0.013442390598356724,0.02259012684226036,-0.36076387763023376,-0.000784787370287976,-0.7026878378625091,-0.3656088155461431,0.41422357950110206,0.0024186976087796595,0.1879242829159791,0.5698109018705372,-0.8,0.0,0.0012195110321044922,0.0014467239379882812,0
1.800569772720337,-0.0100955655798316,0.027675945311784744,-0.3682639002799988,0.00011292000929443781,-0.7020872402272099,-0.3660999330774937,0.40967512965225644,0.0016507429543782485,0.1852530463417486,0.5706849470777217,-0.8,0.0,0.001031637191772461,0.001239776611328125,0
1.8099792003631592,-0.008364380337297916,0.0303361639380455,-0.37201833724975586,0.0005406514828776528,-0.7015442969057109,-0.36565118770109994,0.40522568466562914,0.000952776253972896,0.1826557883236589,0.5715215332704996,-0.8,0.0,0.000762939453125,0.0009224414825439453,0
1.820418119430542,-0.006597057916224003,0.03307168185710907,-0.3757779598236084,0.0009813146791872959,-0.7010500641445595,-0.3643773995599502,0.4008745360956861,0.00029895009301166497,0.17976994462024093,0.5724358191196944,-0.8,0.0,0.0011487007141113281,0.001356363296508789,0
1.8305301666259766,-0.004796640947461128,0.035880688577890396,-0.37954190373420715,0.0014277221689254168,-0.7005973468469159,-0.3625258888912846,0.39633838992366943,-0.0003261308578717092,0.1769701006002765,0.5733075819257303,-0.8,0.0,0.0012145042419433594,0.0013768672943115234,0
1.839984655380249,-0.0011061260011047125,0.04171174764633179,-0.38707542419433594,0.0022867022848329873,-0.700161077940774,-0.35954066520247135,0.3881247850598898,-0.0010858055465203997,0.17434849758453413,0.5741102693647063,-0.8,0.0,0.000888824462890625,0.0010523796081542969,0
1.8504009246826172,0.0007817833684384823,0.044728126376867294,-0.390842467546463,0.0026999994567911364,-0.6997555543418923,-0.3560585904145876,0.3806123160838791,-0.0017725638745927114,0.1714559929661332,0.5749807322650015,-0.8,0.0,0.0009992122650146484,0.0011706352233886719,0
1.8604915142059326,0.0026938440278172493,0.047808095812797546,-0.3946079611778259,0.0031145283921765413,-0.6993810578153625,-0.3520174147603947,0.3733945485392693,-0.0024087431143369345,0.16864978206222248,0.5758100824146489,-0.8,0.0,0.0009257793426513672,0.0010976791381835938,0
1.8703298568725586,0.004626262933015823,0.05094827711582184,-0.39836764335632324,0.0035104545240918447,-0.6990320086178643,-0.3476851120523708,0.36614977388191716,-0.0030025402846191275,0.16590985872933425,0.5766055140010476,-0.8,0.0,0.0009157657623291016,0.0010690689086914062,0
1.8803346157073975,0.008545399643480778,0.05740737542510033,-0.4058789908885956,0.004267282396831963,-0.6987002069346491,-0.34204095962340597,0.35483778064764965,-0.0037020092620361727,0.16311974270976454,0.5774010300807405,-0.8,0.0,0.0007736682891845703,0.0009162425994873047,0
1.890193223953247,0.010527806356549263,0.06072133034467697,-0.4096280634403229,0.0046101513985397306,-0.6983779563437451,-0.33635051579727854,0.3446071995085501,-0.004320213224433205,0.1603666537620673,0.5781717187489865,-0.8,0.0,0.0007405281066894531,0.0008900165557861328,0
1.900158405303955,0.01252253632992506,0.06408768147230148,-0.41337212920188904,0.004949420098416613,-0.6980691634631265,-0.33048785427859606,0.335009103623452,-0.004880181827658074,0.15758010349390392,0.5789373981553191,-0.8,0.0,0.0007355213165283203,0.0008745193481445312,0
1.9103326797485352,0.0145259415730834,0.06750280410051346,-0.41711053252220154,0.005273281255807194,-0.6977746765274297,-0.3244175518040504,0.32571830395558504,-0.005393607383313131,0.1547313139398929,0.5797052876129682,-0.8,0.0,0.0008332729339599609,0.0009894371032714844,0
1.920133352279663,0.018554244190454483,0.07447565346956253,-0.42456018924713135,0.0058541585498572924,-0.697500052415589,-0.3168555642076168,0.31240214265551286,-0.0059708350853871495,0.1519835938227767,0.5804317248468706,-0.8,0.0,0.0007181167602539062,0.0008578300476074219,0
1.9302570819854736,0.020578699186444283,0.07803216576576233,-0.42826932668685913,0.006127745152037423,-0.6972257436934168,-0.30963588334503084,0.30059418560666945,-0.0064774884599946335,0.14914172131662137,0.5811684325242685,-0.8,0.0,0.0006604194641113281,0.0007534027099609375,0
1.9401991367340088,0.022606482729315758,0.08163188397884369,-0.4319709837436676,0.006377055772605967,-0.6969488363994171,-0.30256420890851177,0.289701383710451,-0.006925638024542445,0.14634737196469708,0.5818783779442458,-0.8,0.0,0.0006735324859619141,0.0007967948913574219,0
1.9500787258148193,0.026660049334168434,0.08895135670900345,-0.43935057520866394,0.00683090502130337,-0.6966940381055567,-0.29409652505926276,0.27490730262082536,-0.007409536424404969,0.14356723191696139,0.5825705535981899,-0.8,0.0,0.0006883144378662109,0.0008218288421630859,0
1.9599621295928955,0.028682366013526917,0.09266772866249084,-0.44302719831466675,0.007042501569623627,-0.6964243285935647,-0.2862012702121011,0.2618083022991026,-0.007827612672848273,0.14078274306941563,0.5832497057469047,-0.8,0.0,0.0006289482116699219,0.0007305145263671875,0
1.9700860977172852,0.03070039302110672,0.0964181050658226,-0.44669410586357117,0.00723430504645275,-0.6961609597131089,-0.27857587353621743,0.25002855919710887,-0.008192193536540663,0.1379271489742848,0.5839315898081088,-0.8,0.0,0.00067901611328125,0.0008156299591064453,0
1.9800646305084229,0.0327121764421463,0.10019942373037338,-0.45034876465797424,0.007409197456247153,-0.6959093480158142,-0.27104176313175876,0.23911544688348388,-0.008512984852624021,0.13510934491190602,0.5845899972779859,-0.8,0.0,0.0005705356597900391,0.0006780624389648438,0
1.9907405376434326,0.03670439124107361,0.10784567892551422,-0.4575694799423218,0.007722331280447992,-0.695677565295629,-0.2618621809468023,0.22448123205445963,-0.008854962191848717,0.13209113363174665,0.585279362711415,-0.8,0.0,0.0006499290466308594,0.0007607936859130859,0
2.0000648498535156,0.03868526965379715,0.1117081344127655,-0.4611636698246002,0.007874696930127345,-0.695443286418979,-0.2533270751745018,0.21156477674743734,-0.009151483915494762,0.12945215503203597,0.5858687050505101,-0.8,0.0,0.0007579326629638672,0.0009152889251708984,0
2.010468006134033,0.042608682066202164,0.1195022314786911,-0.46831098198890686,0.008126514066614266,-0.6952342866164642,-0.24332181907006334,0.19586163377748195,-0.009453481600396543,0.12650474001972262,0.5865121914781843,-0.8,0.0,0.0006732940673828125,0.0007932186126708984,0
2.020233631134033,0.042608682066202164,0.1195022314786911,-0.46831098198890686,0.008126514066614266,-0.6949935601521079,-0.23598537454144117,0.18645477025922177,-0.009664879707016929,0.12373503830208069,0.5871027510550284,-0.8,0.0,0.0007696151733398438,0.0009493827819824219,0
2.030860662460327,0.04646401107311249,0.1273723989725113,-0.4753988981246948,0.008321353808020926,-0.6947973375369269,-0.2269435185994033,0.1731912603677341,-0.009885923329289217,0.12071789678429325,0.5877305414864679,-0.8,0.0,0.0008122920989990234,0.0009655952453613281,0
2.0401012897491455,0.0483623743057251,0.13133171200752258,-0.4789400100708008,0.008392640954927333,-0.6945959179322557,-0.2184860652329529,0.16127632397969136,-0.01006738728452624,0.1180917805861235,0.5882638280210665,-0.8,0.0,0.0007777214050292969,0.0009272098541259766,0
2.0503854751586914,0.05024087801575661,0.13530489802360535,-0.4824652373790741,0.008458488029481149,-0.6943980238817902,-0.21043019826207918,0.15067373041762844,-0.01021910384678549,0.11516632579320542,0.5888435423805658,-0.8,0.0,0.0009768009185791016,0.0011525154113769531,0
2.0607070922851562,0.052098147571086884,0.13929103314876556,-0.48597344756126404,0.008516965436030222,-0.6942116121112492,-0.2027491498367779,0.14095896796620727,-0.010347234250220357,0.11222736229137982,0.5894107389190659,-0.8,0.0,0.001046895980834961,0.0011878013610839844,0
2.070417642593384,0.05393163114786148,0.1432889848947525,-0.48946413397789,0.008550542812646245,-0.6940341109565921,-0.19540078522417073,0.13175258341812623,-0.01044951730447488,0.10945984198365649,0.5899309645991749,-0.8,0.0,0.0007872581481933594,0.0009398460388183594,0
2.0799858570098877,0.05752512440085411,0.15131227672100067,-0.4963935315608978,0.008583089700042979,-0.6938869153764132,-0.18659980151360656,0.11916741461531428,-0.010533319962944142,0.10673052896696383,0.590430854703946,-0.8,0.0,0.0007069110870361328,0.0008585453033447266,0
2.090125799179077,0.05928298830986023,0.15533378720283508,-0.4998319745063782,0.008588951682299029,-0.6937296664157234,-0.1785030765251543,0.10816231812674514,-0.010594180784518688,0.10383564186038916,0.5909468330395222,-0.8,0.0,0.0006203651428222656,0.0007240772247314453,0
2.1003639698028564,0.06101115047931671,0.1593593955039978,-0.5032520294189453,0.008588760397789908,-0.6935752324669958,-0.17079828675493597,0.09832786234770698,-0.010636711067345537,0.10091018108397803,0.5914534092839425,-0.8,0.0,0.0007684230804443359,0.0009038448333740234,0
2.1102380752563477,0.06270767003297806,0.16338743269443512,-0.50666344165802,0.008571647836644903,-0.6934280406069118,-0.16356524090663058,0.08921696715791325,-0.010660065972120224,0.09808640704631703,0.5919282530448637,-0.8,0.0,0.0007512569427490234,0.0009016990661621094,0
2.1200332641601562,0.06600232422351837,0.1714511662721634,-0.5134232044219971,0.008538842264808966,-0.6933114504354873,-0.15530478025390954,0.07720789568537162,-0.010664111554342574,0.0952829939575673,0.5923859814871401,-0.8,0.0,0.0007367134094238281,0.0008687973022460938,0
2.130136728286743,0.06760209053754807,0.1754840761423111,-0.5167737603187561,0.00850831605647986,-0.6931802767683403,-0.1478129478739457,0.06685621033824848,-0.010655496454478929,0.09238911480506919,0.5928442050535163,-0.8,0.0,0.0007302761077880859,0.0008742809295654297,0
2.140214443206787,0.06916619092226028,0.17951469123363495,-0.5201050639152527,0.008470968631632903,-0.6930470380545779,-0.1407970209961044,0.05768179127844429,-0.010635461802792024,0.08950041611454367,0.5932871779461641,-0.8,0.0,0.0007364749908447266,0.0008776187896728516,0
2.1504008769989014,0.07126761972904205,0.18413889408111572,-0.5228090882301331,0.00842506023334646,-0.6929417677607201,-0.1347319219247148,0.04997435509513604,-0.010604220801019706,0.08657839642187189,0.5937206256085578,-0.8,0.0,0.0008366107940673828,0.0009818077087402344,0
2.1600258350372314,0.07532748579978943,0.19333460927009583,-0.5282042026519775,0.008306606063444267,-0.6929027264280149,-0.12850360324490892,0.0405500815894138,-0.010537931591124438,0.08381550886180848,0.5941169585815878,-0.8,0.0,0.0008997917175292969,0.0010890960693359375,0
2.170433759689331,0.07728658616542816,0.19790492951869965,-0.5308942794799805,0.008254275846893111,-0.6928690620915137,-0.1230420674891163,0.032910140200440675,-0.010471904977618188,0.08082582788708777,0.5945310635672175,-0.8,0.0,0.0009093284606933594,0.0010898113250732422,0
2.18030047416687,0.07919716835021973,0.202455073595047,-0.5335747599601746,0.008191480245469474,-0.6928466882097504,-0.11798854951014362,0.026478405012403557,-0.010402138323661953,0.077989720059457,0.5949097440495049,-0.8,0.0,0.0010273456573486328,0.001214742660522461,0
2.1902756690979004,0.082871213555336,0.2114895135164261,-0.5389038324356079,0.008044954533163807,-0.6928725116984202,-0.11246286893004749,0.01845665861576959,-0.010298353985885913,0.0751206276840833,0.5952788349138153,-0.8,0.0,0.001514434814453125,0.0016415119171142578,0
2.199984550476074,0.08463701605796814,0.2159741073846817,-0.5415511131286621,0.007945894300463574,-0.6928953711186654,-0.10765391818028537,0.012007064305387592,-0.010188557954399264,0.072326455741452,0.5956247844069954,-0.8,0.0,0.0007193088531494141,0.0008549690246582031,0
2.2102036476135254,0.08635377883911133,0.22043658792972565,-0.544185996055603,0.007854614997248955,-0.6929230890384688,-0.10328290711586774,0.006707457914858902,-0.010077471532640162,0.06938372684289192,0.5959747464862843,-0.8,0.0,0.0007395744323730469,0.0008845329284667969,0
2.2202606201171875,0.0880209282040596,0.22487495839595795,-0.546808123588562,0.00776801835273513,-0.692952839694675,-0.09921300946485961,0.002337323346079434,-0.00996723649551412,0.06648603104540686,0.5963049619748516,-0.8,0.0,0.0007841587066650391,0.0009181499481201172,0
2.230379581451416,0.0896395742893219,0.22928878664970398,-0.5494154691696167,0.007678823068822528,-0.6929888173393723,-0.09550892072928696,-0.0013683963119918005,-0.009856623525290983,0.06356888925745247,0.596622993454471,-0.8,0.0,0.0007987022399902344,0.0009510517120361328,0
2.240027904510498,0.09273084998130798,0.23804068565368652,-0.5545887351036072,0.007538119616531415,-0.6930608429432271,-0.09122325846161558,-0.006746079658439433,-0.009726431182727058,0.060786008205184566,0.5969129427366098,-0.8,0.0,0.0006403923034667969,0.0007526874542236328,0
2.250342607498169,0.09420394152402878,0.24237722158432007,-0.5571548938751221,0.007461367037441736,-0.6931294840201813,-0.0873265540306019,-0.010943721463365981,-0.00960651450280665,0.057809461741444454,0.5972085616710167,-0.8,0.0,0.001272439956665039,0.0015382766723632812,0
2.2600772380828857,0.09700526297092438,0.25096607208251953,-0.562240719795227,0.00728596657105587,-0.6932295892548445,-0.0829597182928137,-0.0164020047428988,-0.009456797345184302,0.05499898949989767,0.5974739418200513,-0.8,0.0,0.0010797977447509766,0.0013093948364257812,0
2.2703003883361816,0.09833268821239471,0.2552168369293213,-0.5647603273391724,0.007234029774128704,-0.693317871735036,-0.07903518850280106,-0.020568196481480533,-0.009332519516022519,0.05204616784393364,0.5977384013201436,-0.8,0.0,0.0010426044464111328,0.0012502670288085938,0
2.2802090644836426,0.09961168467998505,0.2594383955001831,-0.5673016309738159,0.007146590951280696,-0.6933970687386056,-0.07548868355374626,-0.023745332509488737,-0.009212735225366864,0.049182964532032816,0.5979807990227117,-0.8,0.0,0.0009195804595947266,0.001088857650756836,0
2.2905187606811523,0.10084271430969238,0.26363083720207214,-0.5698268413543701,0.007079212806215619,-0.6934695494584558,-0.07221342380944473,-0.02617101673369318,-0.009103619421332343,0.04620268629394076,0.5982184482103704,-0.8,0.0,0.0007753372192382812,0.0009157657623291016,0
2.3003578186035156,0.10202360898256302,0.26779472827911377,-0.5723348259925842,0.0070196475877628796,-0.6935435728226738,-0.06921992697055082,-0.02824437130121106,-0.009004901603687911,0.043357387072222975,0.5984313970592364,-0.8,0.0,0.0011377334594726562,0.001313924789428711,0
2.310194253921509,0.10423676669597626,0.27603673934936523,-0.5772990584373474,0.0068769766093333086,-0.6936413039604161,-0.06587742185921293,-0.031744732298951375,-0.008882297410368513,0.040511866164141125,0.5986307615716876,-0.8,0.0,0.0007712841033935547,0.0009002685546875,0
2.3199243545532227,0.10527089238166809,0.2801128625869751,-0.5797555446624756,0.006829775040698284,-0.6937281832453911,-0.06281889630266134,-0.03435606589969432,-0.008778773766678793,0.03769620506816796,0.5988146592422889,-0.8,0.0,0.0006198883056640625,0.0007457733154296875,0
2.3301777839660645,0.10625765472650528,0.28415802121162415,-0.5821942090988159,0.006742927931512345,-0.6938114659059734,-0.05991775829209063,-0.03617944769310945,-0.008673739116556197,0.03472820404806226,0.5989941167019891,-0.8,0.0,0.0006759166717529297,0.0008099079132080078,0
2.340331554412842,0.10719852894544601,0.2881720960140228,-0.5846150517463684,0.006663159112855222,-0.6938895793657889,-0.05727727575188412,-0.03742797966983387,-0.00857030232222839,0.03178821000557932,0.5991573330141601,-0.8,0.0,0.0008330345153808594,0.0009748935699462891,0
2.3502631187438965,0.1080930233001709,0.2921570837497711,-0.5870200395584106,0.006596236807308276,-0.6939660855063098,-0.05490322572002488,-0.038291575885663925,-0.008472800785064342,0.02891181394717011,0.5993030176916216,-0.8,0.0,0.0007476806640625,0.0008797645568847656,0
2.3600590229034424,0.10974487662315369,0.30003461241722107,-0.5917752981185913,0.006442407117822202,-0.6940683205471452,-0.052095544675600895,-0.04034540312279983,-0.008346863208235416,0.02607405513644013,0.5994331853082059,-0.8,0.0,0.0007505416870117188,0.0008823871612548828,0
2.370260000228882,0.110501728951931,0.3039245307445526,-0.5941240787506104,0.0063876852660442966,-0.6941650277473329,-0.04945190345808246,-0.041732921602619405,-0.0082381862503991,0.023118331068014496,0.5995544535474903,-0.8,0.0,0.0007596015930175781,0.0008976459503173828,0
2.3802404403686523,0.11121150106191635,0.3077819049358368,-0.5964541435241699,0.006327735441655125,-0.6942552159169237,-0.047025887357553905,-0.04265370546224628,-0.008139631077202246,0.020225963074848974,0.5996589951111339,-0.8,0.0,0.001123189926147461,0.001413583755493164,0
2.3910012245178223,0.11187494546175003,0.3116075396537781,-0.5987646579742432,0.006287982176635754,-0.6943478414199037,-0.04480917818252162,-0.04302621167430803,-0.00805573522157051,0.017106923238001566,0.5997560780661828,-0.8,0.0,0.0007898807525634766,0.0009474754333496094,0
2.4000213146209717,0.11306493729352951,0.3191656768321991,-0.6033011078834534,0.006187733796389839,-0.6944540831725255,-0.04234701051527115,-0.04476531477540109,-0.007959414650566774,0.014492067851241977,0.5998249577746786,-0.8,0.0,0.0006823539733886719,0.0008189678192138672,0
2.410597085952759,0.11359233409166336,0.32289692759513855,-0.605531632900238,0.006138516656404992,-0.6945460717519292,-0.04016700287818298,-0.045731257070298785,-0.007873534256905386,0.01142588517831288,0.5998911977583035,-0.8,0.0,0.0007696151733398438,0.0009307861328125,0
2.420405149459839,0.11407539248466492,0.3265955150127411,-0.6077449321746826,0.006081326965511802,-0.6946326066482083,-0.03810309913232634,-0.04619107713004696,-0.0077919719033950514,0.008582011811939096,0.5999386210882407,-0.8,0.0,0.0009975433349609375,0.0012636184692382812,0
2.430432081222534,0.11491481214761734,0.33388814330101013,-0.61212158203125,0.005971163301587335,-0.6947244813162845,-0.03545424768517709,-0.04745813807833851,-0.007693566421488824,0.005674478163526376,0.5999731663146042,-0.8,0.0,0.0005970001220703125,0.000701904296875,0
