time,x,y,z,yaw,throttle,roll_rate,pitch_rate,yaw_rate,x_ref,y_ref,z_ref,yaw_ref,pred_time,nr_time,metadata
7.152557373046875e-07,0.0002584233589004725,8.567842451157048e-05,-0.06829603761434555,0.026161793182095997,-0.7152780944466381,0.00021187371333094104,-0.005605312148818716,0.24,0.0,0.0,-0.5,0.7180789628325727,0.18315792083740234,0.18353605270385742,Sim
0.18436384201049805,0.0002584233589004725,8.567842451157048e-05,-0.06829603761434555,0.026161793182095997,-0.7251864333548522,-0.00037795307271774853,-0.009964952138486426,0.40800000000000003,0.0,0.0,-0.5,0.8835629184341727,0.00045180320739746094,0.0006721019744873047,Jax
0.1901090145111084,0.0003788969188462943,0.00013894352014176548,-0.06818146258592606,0.026303506527344117,-0.7330422602557048,-0.0012518807386227612,-0.012791359199730385,0.5256000000000001,0.0,0.0,-0.5,0.8887197732117508,0.0003299713134765625,0.000518798828125,1stOrderHold
0.20017528533935547,0.0003840358112938702,0.00013611222675535828,-0.06816490739583969,0.026307102842591232,-0.7392762368974455,-0.0021613023621824302,-0.014727743596845068,0.60792,0.0,0.0,-0.5,0.8977552367783411,0.0004506111145019531,0.0006830692291259766,QuatYawError
0.21008062362670898,0.00039606995414942503,0.00013120750372763723,-0.06811953336000443,0.02633250205040392,-0.7442323607500841,-0.0030757287299329997,-0.016096996761889637,0.665544,0.0,0.0,-0.5,0.9066462476340187,0.0004718303680419922,0.0007374286651611328,NoPyJoules
0.22026586532592773,0.0004004323564004153,0.00012816907837986946,-0.06809758394956589,0.026353664931186592,-0.7481789444410988,-0.0037940585294667832,-0.017103025230724017,0.7058808000000001,0.0,0.0,-0.5,0.9157884992046764,0.0005860328674316406,0.0009367465972900391,0
0.23050999641418457,0.000404094549594447,0.00012484633771236986,-0.06807434558868408,0.026355616722757217,-0.7513315747818732,-0.00439418232637032,-0.017842901755067867,0.73411656,0.0,0.0,-0.5,0.9249836097673274,0.0010378360748291016,0.0019383430480957031,0
0.24024462699890137,0.00040768421604298055,0.0001211991548188962,-0.06804981827735901,0.02635647112511324,-0.7538477792502898,-0.004872968271267795,-0.018336044548990245,0.753881592,0.0,0.0,-0.5,0.9337213937474294,0.0006654262542724609,0.0010745525360107422,0
0.250354528427124,0.00026433763559907675,7.789197843521833e-05,-0.06806647777557373,0.02582099294487193,-0.755828138280999,-0.005237914613970711,-0.019000611715368067,0.7677171144,0.0,0.0,-0.5,0.9427960200489783,0.0008213520050048828,0.0012831687927246094,0
0.26013684272766113,0.0002668769157025963,7.165869465097785e-05,-0.06804977357387543,0.025832018252535095,-0.7574062626036088,-0.005514267063636218,-0.019419599857352064,0.77740198008,0.0,0.0,-0.5,0.9515766048323137,0.0005173683166503906,0.0007872581481933594,0
0.27003908157348633,0.00026917143259197474,5.718280954170041e-05,-0.06801779568195343,0.025823015305817387,-0.7586719884702113,-0.00566723261624389,-0.019867092540480268,0.7841813860560001,0.0,0.0,-0.5,0.9604648336357811,0.0004515647888183594,0.0006914138793945312,0
0.28032660484313965,0.00026917143259197474,5.718280954170041e-05,-0.06801779568195343,0.025823015305817387,-0.7596832563549565,-0.005804809735999821,-0.020177201158772123,0.7889269702392001,0.0,0.0,-0.5,0.9696988929293745,0.00046515464782714844,0.0006959438323974609,0
0.29016542434692383,0.0002693032147362828,4.0203936805482954e-05,-0.06798604875802994,0.025823295780784267,-0.760492902308445,-0.005949004509115954,-0.02033237400021706,0.7922488791674401,0.0,0.0,-0.5,0.9785301966645414,0.000507354736328125,0.0007927417755126953,0
0.30024003982543945,0.0002700873592402786,3.351731720613316e-05,-0.06797044724225998,0.025827562466534257,-0.7611413405865007,-0.006092283257315992,-0.020402697458348617,0.7945742154172081,0.0,0.0,-0.5,0.9875731503716977,0.0006804466247558594,0.0010342597961425781,0
0.3105614185333252,0.00027157424483448267,2.6960249670082703e-05,-0.06795494258403778,0.0258403597956787,-0.7616616372345821,-0.006184623476001039,-0.020384911180347368,0.7962019507920457,0.0,0.0,-0.5,0.9968375982355868,0.0007634162902832031,0.001207590103149414,0
0.3203847408294678,0.00027441635029390454,2.0209157810313627e-05,-0.0679391548037529,0.02584037643174519,-0.762079856057006,-0.006239320812038137,-0.02032217657407746,0.797341365554432,0.0,0.0,-0.5,1.0056549917097029,0.0008466243743896484,0.0014226436614990234,0
0.33072614669799805,0.00028248451417312026,4.60218325315509e-06,-0.06790439039468765,0.02583297885967735,-0.7624219263400217,-0.006164683777166473,-0.020226268464565957,0.7981389558881025,0.0,0.0,-0.5,1.01493741591095,0.0013659000396728516,0.0019161701202392578,0
0.3403642177581787,0.00028596282936632633,-2.234551175206434e-06,-0.06788919866085052,0.02582518248813665,-0.7626986691712279,-0.006065899485807146,-0.02016528806191609,0.7986972691216717,0.0,0.0,-0.5,1.0235885282645043,0.0009462833404541016,0.0015103816986083984,0
0.3505568504333496,0.00028966201352886856,-9.193977348331828e-06,-0.06787482649087906,0.025813311180470467,-0.7629146834688959,-0.005991218667513077,-0.02010991595107764,0.7990880883851702,0.0,0.0,-0.5,1.0327374139596632,0.0010151863098144531,0.0015981197357177734,0
0.36064696311950684,0.0002938266843557358,-1.6879021131899208e-05,-0.06786265969276428,0.025798221899745337,-0.7630853798744801,-0.0058447358708784095,-0.019999445848742668,0.7993616618696191,0.0,0.0,-0.5,1.0417942779278704,0.0010006427764892578,0.0015485286712646484,0
0.37062883377075195,0.0003069223603233695,-3.280379678471945e-05,-0.06784015893936157,0.025799973068226983,-0.763218150141943,-0.005672159086487119,-0.019785423457134035,0.7995531633087334,0.0,0.0,-0.5,1.0507539840727376,0.0009596347808837891,0.001504659652709961,0
0.3802969455718994,0.00031297121313400567,-4.142375473747961e-05,-0.06783199310302734,0.025809129872911167,-0.763321421749956,-0.005511549883426434,-0.019695684542005668,0.7996872143161133,0.0,0.0,-0.5,1.059432060932329,0.0007665157318115234,0.0012540817260742188,0
0.39062976837158203,0.0003194602904841304,-5.0357622967567295e-05,-0.06782557815313339,0.025827679790072576,-0.7633996850591688,-0.005395732183899203,-0.019522050766025954,0.7997810500212793,0.0,0.0,-0.5,1.068706780988994,0.0009403228759765625,0.001489400863647461,0
0.4004702568054199,0.0002188905782531947,1.7979764379560947e-05,-0.06806854158639908,0.025576105299993775,-0.7634369676040312,-0.005533871359063133,-0.019444513549252296,0.7998467350148956,0.0,0.0,-0.5,1.077539582752274,0.0009260177612304688,0.0014674663543701172,0
0.4101736545562744,0.00023382001381833106,4.1975113163061906e-06,-0.06805703043937683,0.02555663449233339,-0.7634652072407697,-0.005582228036697502,-0.019382653653126067,0.7998927145104269,0.0,0.0,-0.5,1.086249332206258,0.0007028579711914062,0.001071929931640625,0
0.4203636646270752,0.00024191197007894516,-3.132726533294772e-06,-0.06805181503295898,0.025552967297201207,-0.763492874728695,-0.0055937712536547205,-0.019323547865461522,0.7999249001572988,0.0,0.0,-0.5,1.0953958638572392,0.0006279945373535156,0.0009579658508300781,0
0.4302084445953369,0.0002557220868766308,-1.7169904822367243e-05,-0.06804001331329346,0.025513073836019612,-0.7635142560652919,-0.0056049701994029906,-0.019306265886481735,0.7999474301101092,0.0,0.0,-0.5,1.1042325176928103,0.0008051395416259766,0.001316070556640625,0
0.440338134765625,0.0002557220868766308,-1.7169904822367243e-05,-0.06804001331329346,0.025513073836019612,-0.763531361537519,-0.0056201792164821225,-0.019290267923058223,0.7999632010770764,0.0,0.0,-0.5,1.113324906327701,0.0007345676422119141,0.0011725425720214844,0
0.4502110481262207,0.00026883839746005833,-3.218627898604609e-05,-0.068032406270504,0.02550644786800532,-0.7635456670005843,-0.005629714665662202,-0.019359609718228057,0.7999742407539535,0.0,0.0,-0.5,1.12218681263718,0.0008265972137451172,0.0013015270233154297,0
0.46025514602661133,0.0002735293819569051,-4.054975579492748e-05,-0.06802874803543091,0.025507101375559404,-0.7635567484247803,-0.005605678291868924,-0.019472562083138495,0.7999819685277675,0.0,0.0,-0.5,1.1312023738302668,0.0007679462432861328,0.0012059211730957031,0
0.4706125259399414,0.0002769228012766689,-4.87302677356638e-05,-0.06802582740783691,0.025502231541106823,-0.7635634770390929,-0.0056359752211280305,-0.019543749840330273,0.7999873779694373,0.0,0.0,-0.5,1.1404991363005972,0.0007913112640380859,0.001239776611328125,0
0.48024916648864746,0.00028587982524186373,-6.346228474285454e-05,-0.06802293658256531,0.0254753649991922,-0.763566962948834,-0.00561052485585529,-0.019354159677571616,0.7999911645786061,0.0,0.0,-0.5,1.1491489646300543,0.0006306171417236328,0.0009961128234863281,0
0.4903290271759033,0.00029442034428939223,-7.274496601894498e-05,-0.06802014261484146,0.025448219755269095,-0.7635752896865083,-0.005439232731458947,-0.019118571493709102,0.7999938152050243,0.0,0.0,-0.5,1.1581966264255663,0.0007073879241943359,0.0011005401611328125,0
0.5005085468292236,0.0003036979178432375,-8.35561950225383e-05,-0.06801921129226685,0.02543706268616265,-0.7635797949324109,-0.0052833757859682366,-0.01893173717556571,0.7999956706435171,0.0,0.0,-0.5,1.167333741899836,0.0007715225219726562,0.001171112060546875,0
0.510270357131958,0.0003241423692088574,-0.00010636611841619015,-0.06801716983318329,0.02543504966264463,-0.7635854814674976,-0.005131337242768502,-0.018762118754133514,0.799996969450462,0.0,0.0,-0.5,1.176095922337781,0.0005908012390136719,0.0009179115295410156,0
0.5204734802246094,0.0003241423692088574,-0.00010636611841619015,-0.06801716983318329,0.02543504966264463,-0.7635900154104444,-0.005021212076647303,-0.018650184144877197,0.7999978786153233,0.0,0.0,-0.5,1.1852542242096513,0.001119375228881836,0.0016014575958251953,0
0.5303514003753662,0.0003384875599294901,-7.074260793160647e-05,-0.06820444017648697,0.026114020036200346,-0.7635929380038354,-0.005085633347765791,-0.018589413534580535,0.7999985150307264,0.0,0.0,-0.5,1.1941206246034697,0.0011665821075439453,0.0019524097442626953,0
0.5405158996582031,0.0003473926626611501,-8.168256317730993e-05,-0.06819673627614975,0.026096057044246536,-0.7635876886657854,-0.005107725541192328,-0.01862693447564275,0.7999989605215085,0.0,0.0,-0.5,1.2032442578247209,0.0006809234619140625,0.0010960102081298828,0
0.5507938861846924,0.00035347635275684297,-9.190828131977469e-05,-0.06819209456443787,0.02608137157425869,-0.7635810892527148,-0.005048282508237493,-0.0186475564822707,0.799999272365056,0.0,0.0,-0.5,1.2124697569576675,0.0012311935424804688,0.0019884109497070312,0
0.5603766441345215,0.0003601771604735404,-0.00010333782120142132,-0.06818822026252747,0.026081996382254606,-0.7635748074879894,-0.004962389344187105,-0.018652925848644936,0.7999994906555392,0.0,0.0,-0.5,1.2210712203794711,0.0009562969207763672,0.0015168190002441406,0
0.5704619884490967,0.0003768034221138805,-0.00012665646499954164,-0.06817056238651276,0.026085727593554122,-0.7635679210936429,-0.004843847070606147,-0.018463321972821793,0.7999996434588774,0.0,0.0,-0.5,1.2301238042673548,0.0008027553558349609,0.0012369155883789062,0
0.5805623531341553,0.00038768985541537404,-0.00013873445277567953,-0.06816180795431137,0.02607696886144861,-0.7635648090150328,-0.0047031077044436,-0.018273352704128762,0.7999997504212142,0.0,0.0,-0.5,1.2391898704082571,0.0008435249328613281,0.0012867450714111328,0
0.5902688503265381,0.0004114968760404736,-0.00016166777641046792,-0.06814633309841156,0.026056185656257076,-0.7635618718471143,-0.004591721881967223,-0.018061667742866418,0.7999998252948499,0.0,0.0,-0.5,1.2479024019144513,0.0006079673767089844,0.0009381771087646484,0
0.6003236770629883,0.0004242157156113535,-0.00017407354607712477,-0.06814000010490417,0.02606118410344623,-0.7635548740013527,-0.004450963491914629,-0.017974022144288303,0.7999998777063949,0.0,0.0,-0.5,1.2569275932882655,0.0006921291351318359,0.0010607242584228516,0
0.6102814674377441,0.00043547869427129626,-0.00018727153656072915,-0.06813468039035797,0.026057629060413482,-0.7635523639688413,-0.004367095133442076,-0.018016894923402478,0.7999999143944765,0.0,0.0,-0.5,1.2658656850274999,0.0006928443908691406,0.0010769367218017578,0
0.6202213764190674,0.00044652484939433634,-0.00020040984963998199,-0.06812804937362671,0.02606548417935686,-0.763551380090357,-0.004266492169646214,-0.017979899928786316,0.7999999400761335,0.0,0.0,-0.5,1.2747877264655216,0.0006351470947265625,0.0010066032409667969,0
0.630624532699585,0.0004581487155519426,-0.00021415333321783692,-0.06812162697315216,0.026064795264259626,-0.7635528327363242,-0.004154159329276876,-0.018005980174556062,0.7999999580532935,0.0,0.0,-0.5,1.2841255777069562,0.0008950233459472656,0.0013909339904785156,0
0.6401236057281494,0.0004690373607445508,-0.00022846320644021034,-0.0681145116686821,0.026066224940510623,-0.7635556554548768,-0.004027863045299907,-0.0180658084178371,0.7999999706373054,0.0,0.0,-0.5,1.292651925719085,0.00039196014404296875,0.0007529258728027344,0
0.6501829624176025,0.0004902983200736344,-0.0002590430958662182,-0.06810244172811508,0.02605514791186242,-0.7635554954772567,-0.003898568675085929,-0.01812230520599759,0.7999999794461138,0.0,0.0,-0.5,1.3016811831692066,0.0007383823394775391,0.001171112060546875,0
0.6611406803131104,0.0005011709872633219,-0.00027341966051608324,-0.0680980235338211,0.026053267013304755,-0.7635509665733584,-0.003814692694824184,-0.0181764603720777,0.7999999856122797,0.0,0.0,-0.5,1.3115168077522457,0.0006747245788574219,0.0010387897491455078,0
0.6702737808227539,0.00042974689858965576,-0.0001327425125055015,-0.0680864080786705,0.026849614546289705,-0.7635401639510127,-0.004194586844048986,-0.01819109785918179,0.7999999899285958,0.0,0.0,-0.5,1.319714659599558,0.0006091594696044922,0.0009558200836181641,0
0.680680513381958,0.0004386719665490091,-0.00014451467723120004,-0.06808513402938843,0.026840657322208965,-0.7635373541581126,-0.0044917700612365635,-0.01826174471971378,0.7999999929500171,0.0,0.0,-0.5,1.329055720901235,0.0012001991271972656,0.0018014907836914062,0
0.6903400421142578,0.00045404621050693095,-0.0001657679385971278,-0.0680842399597168,0.02686242585889135,-0.7635372277034621,-0.0048218450846005565,-0.01824889368794754,0.799999995065012,0.0,0.0,-0.5,1.3377260936162443,0.0007040500640869141,0.0011904239654541016,0
0.7007009983062744,0.00046187127009034157,-0.0001743465254548937,-0.0680840015411377,0.026880376096812274,-0.7635356851246553,-0.00513540205023451,-0.01816379410282184,0.7999999965455084,0.0,0.0,-0.5,1.3470260661468172,0.0016009807586669922,0.0026865005493164062,0
0.7106075286865234,0.00047854153672233224,-0.00019059173064306378,-0.06808216124773026,0.02691193444922903,-0.7635414547229145,-0.00525407343764063,-0.018031905077881872,0.7999999975818559,0.0,0.0,-0.5,1.3559181470225756,0.001249074935913086,0.001710653305053711,0
0.7203950881958008,0.0004886817187070847,-0.00019905423687305301,-0.06807929277420044,0.026915975558138055,-0.7635491864921226,-0.0053169434798089055,-0.017932542354605823,0.7999999983072992,0.0,0.0,-0.5,1.3647034398942666,0.0009918212890625,0.0016825199127197266,0
0.7302651405334473,0.0004982069367542863,-0.00020781229250133038,-0.06807681173086166,0.026910438863458393,-0.7635517099418131,-0.005291310717867604,-0.01785856582913343,0.7999999988151094,0.0,0.0,-0.5,1.3735627781555515,0.0009045600891113281,0.0014193058013916016,0
0.7406067848205566,0.0005093966610729694,-0.00021745658887084574,-0.06807637214660645,0.02691873803527737,-0.763551849590163,-0.005213859985589223,-0.017640187020608173,0.7999999991705766,0.0,0.0,-0.5,1.3828454163608148,0.0009529590606689453,0.0014727115631103516,0
0.7503871917724609,0.0005234709242358804,-0.00022709282347932458,-0.06807487457990646,0.026930213468616567,-0.7635601563725385,-0.00515700766035076,-0.017400783022993978,0.7999999994194037,0.0,0.0,-0.5,1.3916242891120207,0.0010116100311279297,0.0016448497772216797,0
0.7606358528137207,0.0005348753184080124,-0.00023090990725904703,-0.06807021796703339,0.02694568574060301,-0.7635732118382922,-0.005168507679212711,-0.01719041004986162,0.7999999995935826,0.0,0.0,-0.5,1.400823465750979,0.0009653568267822266,0.001474618911743164,0
0.7703311443328857,0.000560462474822998,-0.00023939959646668285,-0.06805825978517532,0.02697285567525377,-0.7635886002476578,-0.005047598171720113,-0.016937497893243406,0.7999999997155078,0.0,0.0,-0.5,1.4095259390684134,0.0005006790161132812,0.0007603168487548828,0
0.7800660133361816,0.0005737702012993395,-0.0002444691490381956,-0.0680505707859993,0.02698750040366076,-0.7636019019710443,-0.004947393032999905,-0.01672496050817407,0.7999999998008555,0.0,0.0,-0.5,1.4182639370525314,0.00043582916259765625,0.0006539821624755859,0
0.7903079986572266,0.0005868913140147924,-0.0002491865016054362,-0.06804302334785461,0.02700268327771655,-0.7636121533248575,-0.0048260631162345335,-0.016619103822227123,0.7999999998605989,0.0,0.0,-0.5,1.4274571215790368,0.0004570484161376953,0.0006868839263916016,0
0.8000349998474121,0.0005987926269881427,-0.0002549549681134522,-0.06803540140390396,0.02703332601394597,-0.7636202822233417,-0.004660677138234724,-0.01661888632081513,0.7999999999024192,0.0,0.0,-0.5,1.4361880574306216,0.0004353523254394531,0.0006682872772216797,0
0.8102672100067139,0.000451322877779603,-2.65911003225483e-05,-0.06806718558073044,0.025647229293843454,-0.7636272916929038,-0.004975544252095876,-0.016805494977332712,0.7999999999316935,0.0,0.0,-0.5,1.4453724677924642,0.0006630420684814453,0.0010249614715576172,0
0.8205275535583496,0.00046017265412956476,-3.5008219128940254e-05,-0.06805504858493805,0.025601750029838253,-0.7636367693595846,-0.0051162904338816085,-0.01692778982209393,0.7999999999521854,0.0,0.0,-0.5,1.4545821306282145,0.0007779598236083984,0.0011878013610839844,0
0.830345630645752,0.00046875127009116113,-4.494185486692004e-05,-0.06804245710372925,0.02559411372220743,-0.7636421827439903,-0.0051676443744201215,-0.017025965829945627,0.7999999999665298,0.0,0.0,-0.5,1.463394816013975,0.0007605552673339844,0.0012323856353759766,0
0.8403482437133789,0.00047667231410741806,-5.6394233979517594e-05,-0.06803194433450699,0.02559236014107135,-0.7636403078017762,-0.005134479988408532,-0.017148914322285606,0.7999999999765709,0.0,0.0,-0.5,1.4723731405082487,0.0006072521209716797,0.0009336471557617188,0
0.8501663208007812,0.0004873984435107559,-7.88569959695451e-05,-0.06801381707191467,0.02557557747506783,-0.7636409860407513,-0.005209832168354548,-0.01731650576771082,0.7999999999835997,0.0,0.0,-0.5,1.4811858258940092,0.0006587505340576172,0.0010182857513427734,0
0.8602557182312012,0.0004914873279631138,-8.736042946111411e-05,-0.06800469756126404,0.025565846381757792,-0.7636403102929212,-0.00534592871180109,-0.01735284884211281,0.7999999999885199,0.0,0.0,-0.5,1.4902420478501677,0.0006678104400634766,0.00104522705078125,0
0.8703210353851318,0.000501565751619637,-0.00010553805623203516,-0.0679907351732254,0.025535264189389978,-0.7636325892773479,-0.0052278782190685255,-0.017299717735956358,0.7999999999919639,0.0,0.0,-0.5,1.4992766554006933,0.0006468296051025391,0.0009899139404296875,0
0.8802845478057861,0.000501565751619637,-0.00010553805623203516,-0.0679907351732254,0.025535264189389978,-0.7636263979676284,-0.005145596112257883,-0.017272079840933412,0.7999999999943748,0.0,0.0,-0.5,1.5082198832363156,0.0006875991821289062,0.0010898113250732422,0
0.8901801109313965,0.0005185088375583291,-0.00012637197505682707,-0.06797902286052704,0.02550693664216052,-0.7636221972450744,-0.004952200823391877,-0.017037366656652817,0.7999999999960623,0.0,0.0,-0.5,1.5171021199273305,0.0006902217864990234,0.001069784164428711,0
0.900489091873169,0.0005295794107951224,-0.0001372350670862943,-0.0679725855588913,0.02550544515114613,-0.7636203960630455,-0.004776859960407271,-0.01687163545994924,0.7999999999972436,0.0,0.0,-0.5,1.5263554395823788,0.0009379386901855469,0.0015377998352050781,0
0.9103569984436035,0.0005416390486061573,-0.00014833416207693517,-0.06796696782112122,0.025509268576324018,-0.7636146731445907,-0.004600814531241088,-0.01673084256454114,0.7999999999980705,0.0,0.0,-0.5,1.535212851807518,0.0008435249328613281,0.0013298988342285156,0
0.920529842376709,0.0005540468846447766,-0.000160415715072304,-0.06796130537986755,0.02551417211154817,-0.7636150661713728,-0.004431523167509567,-0.01668875563812302,0.7999999999986493,0.0,0.0,-0.5,1.5443439751693353,0.0007605552673339844,0.001188516616821289,0
0.93019700050354,0.0005752941942773759,-0.00018714032194111496,-0.0679515078663826,0.025486843379218235,-0.7636178812926941,-0.0042808659004505995,-0.016793462599364505,0.7999999999990546,0.0,0.0,-0.5,1.553021196012862,0.0008063316345214844,0.0012700557708740234,0
0.9403281211853027,0.0005853398470208049,-0.00020169922208879143,-0.06794723123311996,0.02547810071994565,-0.7636205172403834,-0.004144671942162184,-0.01683952476905797,0.7999999999993382,0.0,0.0,-0.5,1.5621148686718498,0.0007274150848388672,0.0011265277862548828,0
0.9501791000366211,0.0005642949836328626,-0.00013510276039596647,-0.06805616617202759,0.02566426277430403,-0.7636259405730268,-0.004010712534112074,-0.016834788980169272,0.7999999999995369,0.0,0.0,-0.5,1.5709570866118412,0.0006422996520996094,0.0009975433349609375,0
0.9602799415588379,0.0005642949836328626,-0.00013510276039596647,-0.06805616617202759,0.02566426277430403,-0.7636302851538526,-0.003921824326296494,-0.016845706079005145,0.7999999999996759,0.0,0.0,-0.5,1.5800235807607756,0.0007841587066650391,0.0011930465698242188,0
0.970395565032959,0.0005793000455014408,-0.00016346809570677578,-0.0680343434214592,0.025666208387941192,-0.7636439732027981,-0.0038825833325116547,-0.016916218469562653,0.7999999999997731,0.0,0.0,-0.5,1.5891033431587127,0.0006763935089111328,0.0010349750518798828,0
0.9805045127868652,0.0005856373463757336,-0.00017675473645795137,-0.06802152842283249,0.025672231765710207,-0.7636601323946329,-0.003817274769296404,-0.016944526879044727,0.7999999999998412,0.0,0.0,-0.5,1.5981771134441969,0.0007841587066650391,0.0011739730834960938,0
0.990166425704956,0.0005975600215606391,-0.0002047088637482375,-0.0679953396320343,0.02569153643230354,-0.7636815348022428,-0.0037108421056701976,-0.016994823359708432,0.7999999999998889,0.0,0.0,-0.5,1.6068496261993679,0.0008740425109863281,0.0014770030975341797,0
1.0007762908935547,0.0005975600215606391,-0.0002047088637482375,-0.0679953396320343,0.02569153643230354,-0.7636986624977502,-0.0036489749901850027,-0.017042097697438568,0.7999999999999222,0.0,0.0,-0.5,1.6163730189228191,0.0013337135314941406,0.002015352249145508,0
1.010263442993164,0.0006065632915124297,-0.00023282747133634984,-0.06796911358833313,0.02571730590554215,-0.7637095374742597,-0.0035756602369134936,-0.01710295578283115,0.7999999999999455,0.0,0.0,-0.5,1.6248886667341398,0.0008680820465087891,0.0013506412506103516,0
1.0203170776367188,0.0006123232888057828,-0.0002467454469297081,-0.0679556354880333,0.02571731367905115,-0.7637231286197279,-0.003458217568716011,-0.017101779837512536,0.799999999999962,0.0,0.0,-0.5,1.6339127880878732,0.0007874965667724609,0.0012142658233642578,0
1.0305335521697998,0.0006189490086399019,-0.00026223852182738483,-0.06794088333845139,0.025723993449327978,-0.7637372475299024,-0.003319002059170832,-0.017112629782480484,0.7999999999999734,0.0,0.0,-0.5,1.643083074184649,0.0008206367492675781,0.0012707710266113281,0
1.040184736251831,0.0006262430688366294,-0.000276720937108621,-0.06792838871479034,0.025768825831000073,-0.7637503818087671,-0.0033315552698723566,-0.017011452169523784,0.7999999999999814,0.0,0.0,-0.5,1.6517459567590922,0.0005171298980712891,0.0008101463317871094,0
1.0503194332122803,0.0006399110425263643,-0.0002996673865709454,-0.06790336221456528,0.02582631262118746,-0.7637615223113269,-0.00338073256517976,-0.016985876115654698,0.7999999999999869,0.0,0.0,-0.5,1.6608428394783226,0.0007753372192382812,0.0012843608856201172,0
1.0604746341705322,0.0006452579982578754,-0.000311146053718403,-0.06789076328277588,0.025844223850121507,-0.7637696788294889,-0.003415988356528512,-0.017024266002365854,0.7999999999999908,0.0,0.0,-0.5,1.6699581265429433,0.000812530517578125,0.0013265609741210938,0
1.0709435939788818,0.0006495972629636526,-0.00032307670335285366,-0.06787815690040588,0.025848153760769068,-0.7637776477446653,-0.0033699036477467833,-0.01712480756533792,0.7999999999999936,0.0,0.0,-0.5,1.6793550428928399,0.0012221336364746094,0.0018112659454345703,0
1.0805385112762451,0.0006539595196954906,-0.0003372875798959285,-0.06786543875932693,0.025849801347801467,-0.7637832059317674,-0.0032096445251858603,-0.01722766496354392,0.7999999999999955,0.0,0.0,-0.5,1.687967420519468,0.0012426376342773438,0.0020742416381835938,0
1.0904090404510498,0.0004339645092841238,-0.00011983745935140178,-0.06806983053684235,0.026644342155940037,-0.7637783403785423,-0.0036187993036777954,-0.017600315397854917,0.7999999999999969,0.0,0.0,-0.5,1.696827186788785,0.0009653568267822266,0.001626729965209961,0
1.100454330444336,0.00043545092921704054,-0.00013597047654911876,-0.06804976612329483,0.026642971301153267,-0.7637772772794809,-0.003843457991174281,-0.017843872464182196,0.7999999999999978,0.0,0.0,-0.5,1.7058438180019526,0.0009009838104248047,0.0014426708221435547,0
1.1107127666473389,0.0004367578076198697,-0.0001522133097751066,-0.06802968680858612,0.026648861473355063,-0.7637746704709786,-0.004097637704739376,-0.017986702502012168,0.7999999999999985,0.0,0.0,-0.5,1.7150517688055738,0.0009844303131103516,0.0015337467193603516,0
1.1202921867370605,0.00043773523066192865,-0.00016815084381960332,-0.06801027804613113,0.02664601864267885,-0.7637739289922404,-0.004270905359968428,-0.0180522068863064,0.7999999999999989,0.0,0.0,-0.5,1.723650236171151,0.0007145404815673828,0.0012099742889404297,0
1.1301279067993164,0.0004416370065882802,-0.00020399999630171806,-0.06797084957361221,0.026647143741289268,-0.7637788922212885,-0.004269084114972485,-0.018018083334446326,0.7999999999999993,0.0,0.0,-0.5,1.7324787578541077,0.0006222724914550781,0.0009512901306152344,0
1.140221118927002,0.00044418551260605454,-0.0002223582996521145,-0.0679490938782692,0.0266564395666584,-0.7637881074812126,-0.0042726721473046875,-0.018034997967049774,0.7999999999999995,0.0,0.0,-0.5,1.741538403874525,0.00045943260192871094,0.0007016658782958984,0
1.150031328201294,0.00044847189565189183,-0.0002614051627460867,-0.06790352612733841,0.026690436705948024,-0.7638002345650102,-0.004088531219205102,-0.018135794765899205,0.7999999999999996,0.0,0.0,-0.5,1.7503440271277517,0.00043082237243652344,0.0006873607635498047,0
1.1603643894195557,0.00044847189565189183,-0.0002614051627460867,-0.06790352612733841,0.026690436705948024,-0.7638099299781658,-0.003980811656008687,-0.018231395587062472,0.7999999999999997,0.0,0.0,-0.5,1.7596189611884332,0.0006964206695556641,0.0011258125305175781,0
1.1705269813537598,0.0004507219127845019,-0.00030292230076156557,-0.06785886734724045,0.026720259418527355,-0.7638311734003236,-0.003819047934599858,-0.01838070339865476,0.7999999999999998,0.0,0.0,-0.5,1.768740882377555,0.0008189678192138672,0.0012958049774169922,0
1.1804180145263672,0.00045041751582175493,-0.0003228449495509267,-0.06783763319253922,0.026716560221450702,-0.763850382893805,-0.0036158218089288683,-0.01851682980559885,0.7999999999999999,0.0,0.0,-0.5,1.7776190529922626,0.0010707378387451172,0.0017936229705810547,0
1.1904046535491943,0.0004512303275987506,-0.0003432723169680685,-0.06781698018312454,0.02669775726922516,-0.7638649637588518,-0.0034606027125602063,-0.018585957220645287,0.7999999999999999,0.0,0.0,-0.5,1.786583039217453,0.0007829666137695312,0.0012171268463134766,0
1.200251817703247,0.00045323840458877385,-0.00036338859354145825,-0.06779588758945465,0.026691571527383082,-0.7638774660145597,-0.0033577220822931927,-0.018544225978172433,0.7999999999999999,0.0,0.0,-0.5,1.7954218330931857,0.0006973743438720703,0.0010998249053955078,0
1.210169792175293,0.00046094367280602455,-0.00040121350320987403,-0.06775879114866257,0.026681866561145684,-0.7638828187742653,-0.00329451751450386,-0.018368236120859076,0.8,0.0,0.0,-0.5,1.80432418616172,0.0006804466247558594,0.001047372817993164,0
1.2205121517181396,0.0004674705269280821,-0.0004192642809357494,-0.06774014234542847,0.026690099781084314,-0.7638920099563242,-0.003125320570610208,-0.018156464921729423,0.8,0.0,0.0,-0.5,1.813607466379032,0.0007455348968505859,0.0011699199676513672,0
1.2304878234863281,0.0003193034790456295,-0.00011983601871179417,-0.0680001825094223,0.027235781576517577,-0.7638637563214351,-0.0036111372151441667,-0.018069988356547453,0.8,0.0,0.0,-0.5,1.822561608419479,0.0013031959533691406,0.0021736621856689453,0
1.2404687404632568,0.0003279488591942936,-0.0001370916434098035,-0.06798390299081802,0.027233816667150884,-0.7638415145776106,-0.003877715098045344,-0.01795981093978996,0.8,0.0,0.0,-0.5,1.8315204585482814,0.0008962154388427734,0.0014634132385253906,0
1.2502388954162598,0.0003419194254092872,-0.00017020691302604973,-0.0679510161280632,0.027196514368446868,-0.7638317554611125,-0.004127242124118496,-0.01800791689394622,0.8,0.0,0.0,-0.5,1.8402901291267921,0.0007998943328857422,0.0012273788452148438,0
1.2602643966674805,0.0003464097680989653,-0.00018555959104560316,-0.06793373078107834,0.027204871972589938,-0.7638256923841417,-0.004339717498749676,-0.018019238465044905,0.8,0.0,0.0,-0.5,1.849288998006618,0.0006880760192871094,0.0010838508605957031,0
1.2707562446594238,0.0003507010987959802,-0.0002001153479795903,-0.06791552901268005,0.027205651752734285,-0.7638264827796626,-0.004533866077955255,-0.018016616829617044,0.8,0.0,0.0,-0.5,1.8587064587420665,0.0007038116455078125,0.0011281967163085938,0
1.280165195465088,0.0003542258928064257,-0.00021365938300732523,-0.06789734959602356,0.02719884610071475,-0.7638258458168662,-0.004731092524303906,-0.018076751661456867,0.8,0.0,0.0,-0.5,1.8671519132360843,0.0006279945373535156,0.00099945068359375,0
1.2901439666748047,0.0003583078214433044,-0.00024028624466154724,-0.0678628534078598,0.02716895073667251,-0.7638266062696233,-0.004769435768285136,-0.018143915728118114,0.8,0.0,0.0,-0.5,1.8761088373287413,0.0006699562072753906,0.0010433197021484375,0
1.3003993034362793,0.0003597480827011168,-0.000255242339335382,-0.06784557551145554,0.027162916866388564,-0.7638308650757453,-0.004729778856967518,-0.018292287876127546,0.8,0.0,0.0,-0.5,1.885314006080152,0.0007569789886474609,0.0011382102966308594,0
1.310333490371704,0.00036010227631777525,-0.0002722797798924148,-0.0678257867693901,0.02715252918260693,-0.7638422862276069,-0.004698574443379268,-0.018487643477918172,0.8,0.0,0.0,-0.5,1.894230911421786,0.0006840229034423828,0.00110626220703125,0
1.320589542388916,0.0003590742708183825,-0.0002909380418714136,-0.06780250370502472,0.027156434359725232,-0.7638500654397029,-0.004674198595313004,-0.018716651071628117,0.8,0.0,0.0,-0.5,1.9034367221852453,0.0008528232574462891,0.0012853145599365234,0
1.3303439617156982,0.00035877799382433295,-0.0003327997401356697,-0.06775687634944916,0.027127123348794652,-0.763855723207842,-0.004541050677863007,-0.018827161322225002,0.8,0.0,0.0,-0.5,1.9121922684986892,0.0007805824279785156,0.001241922378540039,0
1.3402199745178223,0.00036099052522331476,-0.000355272350134328,-0.06773439049720764,0.02711415790703874,-0.7638633058196943,-0.004363953303441312,-0.018841520417603952,0.8,0.0,0.0,-0.5,1.9210569568603781,0.0006778240203857422,0.0010306835174560547,0
1.350461483001709,0.00036427908344194293,-0.0003786110901273787,-0.06771210581064224,0.02710125670896369,-0.7638662422217865,-0.004210038543279346,-0.018857557848633827,0.8,0.0,0.0,-0.5,1.9302497133788512,0.0006723403930664062,0.0010347366333007812,0
1.360227108001709,0.00036730957799591124,-0.00040233336039818823,-0.06769101321697235,0.027095867116414797,-0.7638676001551,-0.004111324296391796,-0.01897704408895727,0.8,0.0,0.0,-0.5,1.939015317881055,0.000621795654296875,0.0010352134704589844,0
1.3707597255706787,0.00039159637526609004,-0.00035893137101083994,-0.06771812587976456,0.026073591615046382,-0.7638738622420024,-0.003937693299215211,-0.01891575128823928,0.8,0.0,0.0,-0.5,1.948469373303268,0.0006198883056640625,0.0010874271392822266,0
1.3803107738494873,0.0003955735301133245,-0.0003802096180152148,-0.0677001103758812,0.02607684554435666,-0.7638778413593915,-0.003793204615290325,-0.018838740861144922,0.8,0.0,0.0,-0.5,1.9570423741909213,0.0008561611175537109,0.0013518333435058594,0
1.390409231185913,0.0003997604362666607,-0.0004009447293356061,-0.06768236309289932,0.026069114084314646,-0.7638839768372518,-0.003600697185930132,-0.01884333249360842,0.8,0.0,0.0,-0.5,1.9661067282996942,0.0010592937469482422,0.0017654895782470703,0
1.40069580078125,0.000403250363888219,-0.0004215582739561796,-0.0676620826125145,0.026077721904481977,-0.7638911252223168,-0.003481197471083019,-0.018898179824276135,0.8,0.0,0.0,-0.5,1.975339931577223,0.00106048583984375,0.001627206802368164,0
1.4102420806884766,0.0004092346644029021,-0.00045761605724692345,-0.06762251257896423,0.026100222260450907,-0.7638945602368961,-0.003542166122677871,-0.019011077662881123,0.8,0.0,0.0,-0.5,1.983908652384553,0.0007877349853515625,0.0012364387512207031,0
1.4203054904937744,0.00041076538036577404,-0.00047310686204582453,-0.06760508567094803,0.026110920770732977,-0.7638959934637112,-0.003657344852195694,-0.019028072990398222,0.8,0.0,0.0,-0.5,1.9929415479029493,0.0007390975952148438,0.0011529922485351562,0
1.4305720329284668,0.0004125083505641669,-0.00048749279812909663,-0.06758906692266464,0.02612513858495502,-0.7638949872887512,-0.003763018734708332,-0.019018790109484054,0.8,0.0,0.0,-0.5,2.00215677484312,0.0008389949798583984,0.001325368881225586,0
1.4405107498168945,0.0004138762305956334,-0.0005007832078263164,-0.06757053732872009,0.026139677566973347,-0.7638982626756406,-0.0038563441817480774,-0.019031888434777693,0.8,0.0,0.0,-0.5,2.011077746261061,0.0008585453033447266,0.0014209747314453125,0
1.4502670764923096,0.00041703961323946714,-0.0005275941221043468,-0.06753456592559814,0.026145621089137764,-0.7638964385662538,-0.00389375569673492,-0.019001241018748418,0.8,0.0,0.0,-0.5,2.0198350046066342,0.0007691383361816406,0.0011837482452392578,0
1.460540771484375,0.0004188046732451767,-0.000540072622243315,-0.06751856952905655,0.026152639705084114,-0.7638962931984327,-0.003933575063791926,-0.01896081604599958,0.8,0.0,0.0,-0.5,2.0290566516672897,0.0008344650268554688,0.0012683868408203125,0
1.470367193222046,0.00042412764742039144,-0.0005614798865281045,-0.06748739629983902,0.026174940565981693,-0.7638960172702238,-0.004040374063669622,-0.01883306981287888,0.8,0.0,0.0,-0.5,2.037876827193616,0.0006282329559326172,0.0009829998016357422,0
1.4805214405059814,0.00042412764742039144,-0.0005614798865281045,-0.06748739629983902,0.026174940565981693,-0.7638957946618171,-0.0041018845830512836,-0.018720878919371346,0.8,0.0,0.0,-0.5,2.0469912582421723,0.0008223056793212891,0.0012505054473876953,0
1.4902892112731934,0.0004328245122451335,-0.0005776042817160487,-0.06746005266904831,0.026193728621334993,-0.7638961629299007,-0.004180025955961873,-0.018466236004424742,0.8,0.0,0.0,-0.5,2.0557587887805213,0.0006699562072753906,0.001056671142578125,0
1.5002098083496094,0.0004381360486149788,-0.0005840141093358397,-0.06744815409183502,0.026206731270440924,-0.7638958788440048,-0.004195252125353678,-0.018283759975598557,0.8,0.0,0.0,-0.5,2.0646634958932335,0.0006542205810546875,0.001012563705444336,0
1.5105364322662354,0.00037344289012253284,-0.00020461865642573684,-0.06775981187820435,0.0256856033296014,-0.7638543983153091,-0.004931926703697352,-0.017926719726742688,0.8,0.0,0.0,-0.5,2.0739326518454786,0.0007419586181640625,0.001153707504272461,0
1.5203211307525635,0.00037701529799960554,-0.00020837222109548748,-0.06775156408548355,0.025698822765244225,-0.7638185405419664,-0.00540466484457312,-0.01751973760745223,0.8,0.0,0.0,-0.5,2.0827153766689754,0.0006821155548095703,0.0011010169982910156,0
1.5313842296600342,0.00038551786565221846,-0.000213008897844702,-0.06773500144481659,0.025714941964491606,-0.7638004337231016,-0.005663126796405731,-0.01713244824228097,0.8,0.0,0.0,-0.5,2.09264559102716,0.0012540817260742188,0.0018925666809082031,0
1.5405964851379395,0.0003897915594279766,-0.00021451029169838876,-0.06772498041391373,0.02569227718487465,-0.7637884374395758,-0.005760865063999091,-0.01676703527345021,0.8,0.0,0.0,-0.5,2.10091449220784,0.0009214878082275391,0.0014202594757080078,0
1.5500609874725342,0.0003953467239625752,-0.0002165275946026668,-0.067714624106884,0.02568215495540723,-0.7637804327556106,-0.005708052610536782,-0.016407902333788624,0.8,0.0,0.0,-0.5,2.109409809637625,0.00041484832763671875,0.0006334781646728516,0
1.5602529048919678,0.00040306380833499134,-0.000219609442865476,-0.06770315766334534,0.025676053907298928,-0.7637751181869623,-0.005475246006702815,-0.01611372045734883,0.8,0.0,0.0,-0.5,2.118558053320735,0.0004601478576660156,0.0006990432739257812,0
1.5702171325683594,0.00041882056393660605,-0.0002257772721350193,-0.06767945736646652,0.02567915720370782,-0.7637777098483376,-0.0052912946366877505,-0.015982451970426564,0.8,0.0,0.0,-0.5,2.1275019231684063,0.0005030632019042969,0.0007736682891845703,0
1.5801656246185303,0.00042608706280589104,-0.00022712179634254426,-0.06766634434461594,0.025677547461039278,-0.7637826805032595,-0.00519952787620114,-0.015881544249689912,0.8,0.0,0.0,-0.5,2.13643166875101,0.0005195140838623047,0.0008170604705810547,0
1.590285301208496,0.00043194848694838583,-0.0002273571299156174,-0.06765572726726532,0.025672363630615584,-0.7637880480453683,-0.005130533200040028,-0.01583639984403451,0.8,0.0,0.0,-0.5,2.145515069217222,0.0007083415985107422,0.0011098384857177734,0
1.6003999710083008,0.0004370765818748623,-0.00022730865748599172,-0.06764551997184753,0.025660870655964077,-0.7637903871060897,-0.005096407415752619,-0.015805085751591313,0.8,0.0,0.0,-0.5,2.154593975599094,0.0008568763732910156,0.0013554096221923828,0
1.6104557514190674,0.00045077662798576057,-0.00022972260194364935,-0.06762484461069107,0.02562629192222665,-0.7637998425645691,-0.004893192113742416,-0.015621151747013616,0.8,0.0,0.0,-0.5,2.163620022988973,0.0008170604705810547,0.0012662410736083984,0
1.6204988956451416,0.0004594923520926386,-0.0002297270839335397,-0.06761380285024643,0.025622397711434035,-0.7638098963458426,-0.004783822842101575,-0.015453353310565226,0.8,0.0,0.0,-0.5,2.172634728165995,0.0007760524749755859,0.0011830329895019531,0
1.6304326057434082,0.0004692109359893948,-0.0002296294114785269,-0.06760251522064209,0.025624964164456338,-0.7638188245852482,-0.004593358248216706,-0.015304944634403274,0.8,0.0,0.0,-0.5,2.1815512054995967,0.0009109973907470703,0.001512765884399414,0
1.6404883861541748,0.00048079714179039,-0.00022930491832084954,-0.06759094446897507,0.025631881549908402,-0.7638262127376848,-0.004523585120487147,-0.015188462435496602,0.8,0.0,0.0,-0.5,2.1905772528894754,0.0012917518615722656,0.0018587112426757812,0
1.6505074501037598,0.0003985284420195967,-5.182451059226878e-05,-0.06784721463918686,0.025381783964954583,-0.7638141655563464,-0.004841501625510535,-0.01540211713535748,0.8,0.0,0.0,-0.5,2.1995703436608647,0.001132965087890625,0.001926422119140625,0
1.6603913307189941,0.00040644549881108105,-5.3070274589117616e-05,-0.06783069670200348,0.02540722529873697,-0.7638095816873423,-0.005042149162997545,-0.01548840804812098,0.8,0.0,0.0,-0.5,2.2084420941550875,0.0009331703186035156,0.0015058517456054688,0
1.671194314956665,0.0004149929736740887,-5.5562370107509196e-05,-0.06781376898288727,0.025408300614971194,-0.7638052653685791,-0.005167433933771695,-0.015512577830103949,0.8,0.0,0.0,-0.5,2.218138830131634,0.0013804435729980469,0.001924753189086914,0
1.6801960468292236,0.00042355633922852576,-5.849471563124098e-05,-0.06779535114765167,0.02538930066091379,-0.7638034755959118,-0.005271029226362446,-0.015509555296953423,0.8,0.0,0.0,-0.5,2.2262187657660384,0.0005812644958496094,0.00091552734375,0
1.6900317668914795,0.0004415083967614919,-6.566323281731457e-05,-0.06775762140750885,0.025402991525678986,-0.763805260607737,-0.0053264072537756125,-0.015388556039874041,0.8,0.0,0.0,-0.5,2.235047287448995,0.00047278404235839844,0.0007061958312988281,0
1.7002933025360107,0.00045246031368151307,-6.890122313052416e-05,-0.067738838493824,0.025402643449428063,-0.7638066591321253,-0.005286648813825884,-0.015211164176914727,0.8,0.0,0.0,-0.5,2.244258020304826,0.0006024837493896484,0.0009396076202392578,0
1.710035800933838,0.000465239369077608,-7.25271092960611e-05,-0.06772129237651825,0.025410961000077552,-0.7638046853884908,-0.005181965402901084,-0.015077827987159039,0.8,0.0,0.0,-0.5,2.2530028664174617,0.00047659873962402344,0.0007359981536865234,0
1.7203607559204102,0.00047838035970926285,-7.695918611716479e-05,-0.06770438700914383,0.025459913387164725,-0.7638057345276621,-0.005036833421242721,-0.014957897667650296,0.8,0.0,0.0,-0.5,2.2622705243415933,0.0005817413330078125,0.0008726119995117188,0
1.7302680015563965,0.0005071585765108466,-8.801573130767792e-05,-0.0676657184958458,0.025483654416049467,-0.7638177812077446,-0.004799063874530482,-0.014829378691459597,0.8,0.0,0.0,-0.5,2.2711632472294,0.0007236003875732422,0.0011425018310546875,0
1.7402288913726807,0.000523046706803143,-9.455466351937503e-05,-0.06764782965183258,0.025474298552193634,-0.7638279372282536,-0.004592982198918391,-0.01481147335031981,0.8,0.0,0.0,-0.5,2.280104121020845,0.0007381439208984375,0.0011487007141113281,0
1.7501323223114014,0.0005541926366277039,-0.00011058263044105843,-0.06761293858289719,0.02545456884496303,-0.7638343359438428,-0.004254701842735279,-0.014806463624265248,0.8,0.0,0.0,-0.5,2.288993419844393,0.0005979537963867188,0.0009109973907470703,0
1.7602746486663818,0.0005541926366277039,-0.00011058263044105843,-0.06761293858289719,0.02545456884496303,-0.7638394354999153,-0.004017208641509475,-0.01487191118483679,0.8,0.0,0.0,-0.5,2.298097150692141,0.0006430149078369141,0.0010707378387451172,0
1.770611047744751,0.0005829448928125203,-0.00013269194460008293,-0.06757864356040955,0.02546143768108613,-0.7638481008490211,-0.0038342587200271916,-0.015121923733292415,0.8,0.0,0.0,-0.5,2.3073750808090483,0.0008308887481689453,0.0012979507446289062,0
1.7805497646331787,0.0005965711316093802,-0.0001437180326320231,-0.06755955517292023,0.025482994384343944,-0.7638593038622621,-0.003677515458669663,-0.015335656719589526,0.8,0.0,0.0,-0.5,2.3162960522269893,0.0007848739624023438,0.001190185546875,0
1.790381908416748,0.0006104732747189701,-0.00015615776646882296,-0.06754189729690552,0.025496055325183172,-0.7638701048401642,-0.0035072849595972565,-0.015572672906060021,0.8,0.0,0.0,-0.5,2.3251213638497035,0.0008628368377685547,0.0013995170593261719,0
1.8008739948272705,0.0006297918152995408,-0.00013864121865481138,-0.06771944463253021,0.02555171296313308,-0.7638775378428548,-0.0033524288665897233,-0.01562853671387156,0.8,0.0,0.0,-0.5,2.3345390385891682,0.0013387203216552734,0.0020678043365478516,0
1.810222864151001,0.0006465570768341422,-0.00016366121417377144,-0.06768245995044708,0.025550533456196328,-0.7638909804937637,-0.0031886762001496695,-0.01581957061841933,0.8,0.0,0.0,-0.5,2.342930564071112,0.0008707046508789062,0.0014748573303222656,0
1.8204689025878906,0.0006536245928145945,-0.00017684130580164492,-0.06766320019960403,0.025543548618479794,-0.7639039078566431,-0.0031188743175751044,-0.015992625745850777,0.8,0.0,0.0,-0.5,2.3521273866658925,0.0009133815765380859,0.0013980865478515625,0
1.830517292022705,0.0006600726628676057,-0.00019030182738788426,-0.06764299422502518,0.02553656665263693,-0.7639202194562107,-0.0030804695185301417,-0.01620327843021239,0.8,0.0,0.0,-0.5,2.3611467999312703,0.0011937618255615234,0.001981496810913086,0
1.8403701782226562,0.0006707686115987599,-0.00022099939815234393,-0.06760136038064957,0.025533230716498927,-0.7639319655226918,-0.003023631248657994,-0.016353833629274412,0.8,0.0,0.0,-0.5,2.369990729903391,0.001031637191772461,0.001539468765258789,0
1.8503339290618896,0.0006760865799151361,-0.000237229309277609,-0.06758134067058563,0.025521958020672426,-0.7639453867194614,-0.002996263022408083,-0.01648108446592939,0.8,0.0,0.0,-0.5,2.3789341717430292,0.0008308887481689453,0.0012788772583007812,0
1.8605525493621826,0.0006810439517721534,-0.00025353115051984787,-0.06756442040205002,0.025502165755326385,-0.7639542585372386,-0.0030387710721150375,-0.016558177769965158,0.8,0.0,0.0,-0.5,2.3881063838759506,0.0007894039154052734,0.0012309551239013672,0
1.8705382347106934,0.0006852388032712042,-0.0002693751303013414,-0.06754828244447708,0.025497274596061357,-0.7639618737216662,-0.0031331682834041656,-0.01664560478332252,0.8,0.0,0.0,-0.5,2.3970695140850764,0.0006916522979736328,0.0010797977447509766,0
1.8803150653839111,0.0006879377760924399,-0.00030233190045692027,-0.0675138384103775,0.025503444869058832,-0.7639707115467039,-0.0031277006837015656,-0.01677191109523066,0.8,0.0,0.0,-0.5,2.40584517677604,0.000675201416015625,0.001028299331665039,0
1.8903040885925293,0.000690855027642101,-0.00032036445918492973,-0.06749621778726578,0.025503393823710786,-0.7639810397819001,-0.003030579191443202,-0.016772332266579166,0.8,0.0,0.0,-0.5,2.4148113030413922,0.0006086826324462891,0.0009534358978271484,0
1.9001801013946533,0.0006946358480490744,-0.0003392011276446283,-0.0674784928560257,0.025501299947949956,-0.763988479155551,-0.002947691348899426,-0.01678521465847828,0.8,0.0,0.0,-0.5,2.423675991403081,0.0005574226379394531,0.0008835792541503906,0
1.9104676246643066,0.000698018993716687,-0.00035768799716606736,-0.06746113300323486,0.02549289746982602,-0.7639949988091325,-0.002904578982655314,-0.0168126731793685,0.8,0.0,0.0,-0.5,2.4329100506966745,0.0008647441864013672,0.001422882080078125,0
1.9205718040466309,0.0007016121526248753,-0.00037680275272578,-0.067441925406456,0.025492049203242734,-0.7639999346509668,-0.002788966049143261,-0.01678640179028233,0.8,0.0,0.0,-0.5,2.4419795409018357,0.001306772232055664,0.0019295215606689453,0
1.9302341938018799,0.0007124891853891313,-0.00041792169213294983,-0.0674060732126236,0.025477805073985938,-0.7639965005417514,-0.0025538321677827554,-0.016658775667198086,0.8,0.0,0.0,-0.5,2.450652481665039,0.0008490085601806641,0.0013282299041748047,0
1.9403448104858398,0.00038454410969279706,-0.00029934613849036396,-0.06773342192173004,0.02470079126983683,-0.7639656596493292,-0.0028193971997647112,-0.01697172322287535,0.8,0.0,0.0,-0.5,2.459727749978636,0.000576019287109375,0.0008950233459472656,0
1.9500699043273926,0.000392896676203236,-0.00032054755138233304,-0.06771448999643326,0.024690090412306208,-0.7639423831197961,-0.0030377482829290463,-0.017088684996184458,0.8,0.0,0.0,-0.5,2.4684569737980917,0.0004267692565917969,0.0006794929504394531,0
1.9602172374725342,0.0004117862554267049,-0.0003653107560239732,-0.06767672300338745,0.0246711040922764,-0.7639280403227523,-0.003120264248253928,-0.017133570183975984,0.8,0.0,0.0,-0.5,2.4775651987301788,0.0004451274871826172,0.0006802082061767578,0
1.970212697982788,0.0004194995271973312,-0.00038928372669033706,-0.06765667349100113,0.02466280547262288,-0.7639222356483899,-0.003131638330400583,-0.017200423197506556,0.8,0.0,0.0,-0.5,2.4865371031039674,0.0005369186401367188,0.0008394718170166016,0
1.9803099632263184,0.00042732059955596924,-0.00041404124931432307,-0.06763557344675064,0.024654882973872062,-0.7639225961848115,-0.003160433767700261,-0.01719362729855056,0.8,0.0,0.0,-0.5,2.4956003871926593,0.0007658004760742188,0.001210927963256836,0
1.9904725551605225,0.0004352399264462292,-0.0004383138148114085,-0.06761441379785538,0.02465904957340993,-0.7639225448878741,-0.003138457241423754,-0.017240206812701345,0.8,0.0,0.0,-0.5,2.5047223083817816,0.0007388591766357422,0.00115966796875,0
2.0002572536468506,0.0004423933569341898,-0.0004638961690943688,-0.06759406626224518,0.024662521757734434,-0.7639212459962595,-0.0030664916877603025,-0.017299736865830532,0.8,0.0,0.0,-0.5,2.5135050332052784,0.0006377696990966797,0.0010137557983398438,0
2.0102529525756836,0.00044805006473325193,-0.0005026591243222356,-0.06756718456745148,0.024675050216053367,-0.7639287531108706,-0.002918968706766154,-0.01739328853565115,0.8,0.0,0.0,-0.5,2.5224771515830833,0.0009014606475830078,0.0014126300811767578,0
2.02067232131958,0.0004517626657616347,-0.000522514630574733,-0.06755275279283524,0.02469795108008365,-0.76393409343082,-0.002747910319470239,-0.017475349075655216,0.8,0.0,0.0,-0.5,2.531829555097617,0.0013110637664794922,0.002249002456665039,0
2.0302798748016357,0.0004584982816595584,-0.0005652501713484526,-0.06752718240022659,0.02468980348860541,-0.7639387307641273,-0.0024939008549246617,-0.017654919435196124,0.8,0.0,0.0,-0.5,2.540453274937102,0.0010514259338378906,0.001708984375,0
2.0406928062438965,0.0004584982816595584,-0.0005652501713484526,-0.06752718240022659,0.02468980348860541,-0.7639424365963353,-0.0023644629385415196,-0.017844289079316705,0.8,0.0,0.0,-0.5,2.5497999003431993,0.0011997222900390625,0.0017843246459960938,0
2.0502572059631348,0.00046701778774149716,-0.0006059170118533075,-0.06750492006540298,0.02469529018152121,-0.7639489000870969,-0.002301542768128303,-0.01794756986790946,0.8,0.0,0.0,-0.5,2.558384885455758,0.0007891654968261719,0.0012154579162597656,0
2.0602848529815674,0.00047192725469358265,-0.0006249237922020257,-0.06749273836612701,0.02469368537652995,-0.7639564774743255,-0.002274410047660922,-0.01801950630941279,0.8,0.0,0.0,-0.5,2.567385680371729,0.0006706714630126953,0.001073598861694336,0
2.070383071899414,0.00048512290231883526,-0.0006640536594204605,-0.06747154891490936,0.024690218798375546,-0.7639525419436559,-0.002105957899462859,-0.018013627628799767,0.8,0.0,0.0,-0.5,2.576449820476486,0.0006759166717529297,0.001020193099975586,0
2.0802834033966064,0.00030733842868357897,-0.0003223323146812618,-0.06795239448547363,0.023818777245894623,-0.763905941824334,-0.0026680267026509144,-0.018108347472911228,0.8,0.0,0.0,-0.5,2.585336337247824,0.0006356239318847656,0.0010099411010742188,0
2.0904407501220703,0.00031481010955758393,-0.0003400713321752846,-0.06794104725122452,0.023822344072773012,-0.7638683499144117,-0.003013550323084095,-0.017986527648035912,0.8,0.0,0.0,-0.5,2.5944535503485904,0.0007734298706054688,0.001238107681274414,0
2.10040283203125,0.00032389973057433963,-0.0003582084027584642,-0.067931167781353,0.023833154010789552,-0.763839888500569,-0.0031783780645043918,-0.017748433596107446,0.8,0.0,0.0,-0.5,2.6033954941601154,0.0007889270782470703,0.0012333393096923828,0
2.110297679901123,0.0003334363573230803,-0.00037495940341614187,-0.06792157143354416,0.023835206570525142,-0.7638167096568231,-0.0032539151505584056,-0.017544624386916723,0.8,0.0,0.0,-0.5,2.6122770888390816,0.0008034706115722656,0.0013501644134521484,0
2.1204614639282227,0.00034311620402149856,-0.00039221884799189866,-0.06791270524263382,0.02384351213062997,-0.7637986230990076,-0.003149997072008717,-0.017362581294410626,0.8,0.0,0.0,-0.5,2.6214000800482844,0.0007257461547851562,0.0011129379272460938,0
2.1300978660583496,0.00036353166797198355,-0.00043199450010433793,-0.06789522618055344,0.02383414774873036,-0.7637846763035967,-0.002707335513475754,-0.017243857481194353,0.8,0.0,0.0,-0.5,2.6300496943737257,0.0006046295166015625,0.0009529590606689453,0
2.140185832977295,0.0003748718008864671,-0.0004551603633444756,-0.06788763403892517,0.02384311439117727,-0.7637742731814239,-0.0022675901876678824,-0.01721140031416678,0.8,0.0,0.0,-0.5,2.639104632305787,0.0005271434783935547,0.0008184909820556641,0
2.1502745151519775,0.000386901170713827,-0.0004786793142557144,-0.06787930428981781,0.02387859256874968,-0.7637701610031982,-0.001933252807135417,-0.01732320212754433,0.8,0.0,0.0,-0.5,2.648160212249897,0.0006165504455566406,0.0009655952453613281,0
2.160064935684204,0.0004128131549805403,-0.0005300620105117559,-0.06785725057125092,0.023902306825198387,-0.7637647985392014,-0.0015261794062231572,-0.01749654420692029,0.8,0.0,0.0,-0.5,2.656948073169782,0.000423431396484375,0.0006651878356933594,0
2.1702449321746826,0.0004267390468157828,-0.0005576430703513324,-0.0678468719124794,0.023911338386083458,-0.7637598913966294,-0.0013072445763805526,-0.01776828457702868,0.8,0.0,0.0,-0.5,2.6660856166520843,0.0005278587341308594,0.0008099079132080078,0
2.1805496215820312,0.00044029857963323593,-0.0005853294278495014,-0.06783567368984222,0.023907310952382868,-0.763762080607806,-0.0012124048964513854,-0.018012980519140694,0.8,0.0,0.0,-0.5,2.675335084234842,0.0006844997406005859,0.001068115234375,0
2.1902172565460205,0.0004544485709629953,-0.0006132368580438197,-0.06782309710979462,0.023912597132063222,-0.7637645029725117,-0.0012080276921497153,-0.018172488291645847,0.8,0.0,0.0,-0.5,2.6840127330864005,0.0006208419799804688,0.0009446144104003906,0
2.200326681137085,0.0004691152134910226,-0.0006410055793821812,-0.06781221181154251,0.023929347218763494,-0.7637712310092238,-0.001214550877811589,-0.018284348296292656,0.8,0.0,0.0,-0.5,2.6930869313799173,0.0006961822509765625,0.001088857650756836,0
2.210479497909546,0.0004961033700965345,-0.0006903911707922816,-0.06779135018587112,0.02395144445629112,-0.7637759419464667,-0.0011684788522647311,-0.018205430707332333,0.8,0.0,0.0,-0.5,2.7022000784043763,0.0008754730224609375,0.0014405250549316406,0
2.2203001976013184,0.0005072320345789194,-0.000710548076312989,-0.06778561323881149,0.0239489424392797,-0.7637797770621302,-0.0010830340574560834,-0.018155397860977515,0.8,0.0,0.0,-0.5,2.7110151178343145,0.0007216930389404297,0.0010917186737060547,0
2.230433940887451,0.00030618577147834003,-0.00029478949727490544,-0.06810512393712997,0.02521027804611237,-0.763754555520936,-0.0024980229445249855,-0.018186121598090663,0.8,0.0,0.0,-0.5,2.72011114453748,0.0006704330444335938,0.0010592937469482422,0
2.2401890754699707,0.0003075946879107505,-0.00030356962815858424,-0.06809499114751816,0.025195799104726503,-0.7637445255034234,-0.003530583789369845,-0.01788629704653988,0.8,0.0,0.0,-0.5,2.7288673328629725,0.0005068778991699219,0.0008103847503662109,0
2.2501769065856934,0.00031022343318909407,-0.00031502291676588356,-0.06806862354278564,0.025172582844172252,-0.7637459708886444,-0.004243458794852488,-0.017293463257091527,0.8,0.0,0.0,-0.5,2.737832389108244,0.0006008148193359375,0.0009484291076660156,0
2.260289430618286,0.0003126818919554353,-0.0003196673933416605,-0.06805462390184402,0.025172351746897068,-0.7637459620538,-0.004515159155867624,-0.0166450815207474,0.8,0.0,0.0,-0.5,2.7469093694539706,0.0006482601165771484,0.0010180473327636719,0
2.270538330078125,0.00031630517332814634,-0.0003247895510867238,-0.06804110109806061,0.025171903055073674,-0.763749160456389,-0.004511951733325178,-0.016042011600928743,0.8,0.0,0.0,-0.5,2.7561087600969447,0.0006773471832275391,0.0011036396026611328,0
2.280369758605957,0.00031920475885272026,-0.0003296486393082887,-0.06802600622177124,0.025189357344296337,-0.7637594437967398,-0.004391189893006243,-0.015785268386520078,0.8,0.0,0.0,-0.5,2.764933429707611,0.0007567405700683594,0.0012006759643554688,0
2.2903292179107666,0.00032013835152611136,-0.0003346333105582744,-0.06799359619617462,0.0251622291174282,-0.7637673302397298,-0.004344106608346679,-0.015632449832213208,0.8,0.0,0.0,-0.5,2.773873019474958,0.0006973743438720703,0.001070261001586914,0
2.300262928009033,0.00031991241849027574,-0.00033567313221283257,-0.06797846406698227,0.025125125098247273,-0.7637733220645012,-0.004261154583959844,-0.01567118567817885,0.8,0.0,0.0,-0.5,2.78278949680856,0.0007174015045166016,0.0011167526245117188,0
2.3105132579803467,0.00031910717370919883,-0.000337523000780493,-0.06796333938837051,0.02511547620323924,-0.7637782246852397,-0.004242663828288646,-0.01568229345622704,0.8,0.0,0.0,-0.5,2.791990171475631,0.0008387565612792969,0.0013103485107421875,0
2.3202760219573975,0.0003184103698004037,-0.00033864399301819503,-0.06794819235801697,0.02510513803188709,-0.763782536851644,-0.004321444492686237,-0.01577035386043837,0.8,0.0,0.0,-0.5,2.800753207929641,0.0007376670837402344,0.0011680126190185547,0
2.3302104473114014,0.00031527888495475054,-0.0003434201644267887,-0.06791951507329941,0.025092194948720965,-0.7637866236592354,-0.004278126742105591,-0.015800063969823037,0.8,0.0,0.0,-0.5,2.8096703272752905,0.0007154941558837891,0.0011124610900878906,0
2.340531587600708,0.00031386068440042436,-0.00034908074303530157,-0.0679050087928772,0.025099196719254195,-0.7637886455607334,-0.0042319387904415735,-0.015851078379263184,0.8,0.0,0.0,-0.5,2.8189345611351637,0.0007982254028320312,0.0012013912200927734,0
2.350346326828003,0.00031072189449332654,-0.0003550435067154467,-0.06789170205593109,0.025118038120612314,-0.7637866772568541,-0.004265669793062445,-0.01598746994548931,0.8,0.0,0.0,-0.5,2.8277442504646975,0.0007145404815673828,0.0010991096496582031,0
2.3603944778442383,0.0003064461925532669,-0.00036098493728786707,-0.06787887215614319,0.02510399494755417,-0.7637865491912488,-0.004326830083431837,-0.016106020171277158,0.8,0.0,0.0,-0.5,2.8367634497260594,0.0006947517395019531,0.0010576248168945312,0
2.370368242263794,0.0002558901032898575,-0.00021390325855463743,-0.06794362515211105,0.025423826363606558,-0.7637884384567558,-0.0044131280954594525,-0.016127957724926853,0.8,0.0,0.0,-0.5,2.8457158797343767,0.0006737709045410156,0.0010151863098144531,0
2.3802599906921387,0.00025487711536698043,-0.00022634718334302306,-0.06792639195919037,0.025426361004232824,-0.7637902658564617,-0.004453609825441097,-0.016159919395248884,0.8,0.0,0.0,-0.5,2.854594692361133,0.0006928443908691406,0.0010578632354736328,0
2.390509605407715,0.00025364229804836214,-0.0002399208169663325,-0.06790868937969208,0.025419673565238006,-0.7637946660018309,-0.004406619130701183,-0.01622628921208242,0.8,0.0,0.0,-0.5,2.863794725016156,0.0007970333099365234,0.0012423992156982422,0
2.4003565311431885,0.00025294546503573656,-0.0002556337567511946,-0.06789348274469376,0.025427217511829345,-0.7638000525757027,-0.004229656146904876,-0.016289317562195284,0.8,0.0,0.0,-0.5,2.8726333048878723,0.0010433197021484375,0.001577615737915039,0
2.410327196121216,0.00025513264699839056,-0.0002949764020740986,-0.06786362081766129,0.025416912458296234,-0.7638021473206213,-0.003955582283753043,-0.016372191046138615,0.8,0.0,0.0,-0.5,2.8815829528439796,0.0009753704071044922,0.0015802383422851562,0
2.4205429553985596,0.00025446622748859227,-0.00031215144554153085,-0.06785544753074646,0.02543207635338287,-0.7638071503920281,-0.00374276003226376,-0.01647057920045511,0.8,0.0,0.0,-0.5,2.890752596928707,0.001344442367553711,0.0018665790557861328,0
2.430474042892456,0.00025500281481072307,-0.0003297807998023927,-0.06784611940383911,0.025445057887597478,-0.7638146158644398,-0.0035840919750444672,-0.01653190874343846,0.8,0.0,0.0,-0.5,2.8996667202181303,0.0007894039154052734,0.0012412071228027344,0
2.4401795864105225,0.00025572555023245513,-0.0003705433045979589,-0.06782921403646469,0.025446621203771173,-0.7638156996950669,-0.0033429152664556706,-0.016725699740634835,0.8,0.0,0.0,-0.5,2.90837839570826,0.0005519390106201172,0.0008454322814941406,0
2.450387954711914,0.0002556854160502553,-0.0003917138383258134,-0.06782170385122299,0.02546715162358903,-0.7638167225011592,-0.0031732336288558803,-0.01688530861363707,0.8,0.0,0.0,-0.5,2.917541405668486,0.0007054805755615234,0.00116729736328125,0
2.4604101181030273,0.00025651921168901026,-0.0004130957822781056,-0.06781373918056488,0.025476288670048107,-0.763816100358313,-0.003049637560996335,-0.016972000828249987,0.8,0.0,0.0,-0.5,2.9265372784920856,0.0008103847503662109,0.0012557506561279297,0
2.4705474376678467,0.00025790638756006956,-0.00043464609188959,-0.06780651956796646,0.025477895079531382,-0.7638155129330527,-0.0029034293857163195,-0.01710646331794036,0.8,0.0,0.0,-0.5,2.9356365152554935,0.0007202625274658203,0.0011806488037109375,0
