time,x,y,z,yaw,throttle,roll_rate,pitch_rate,yaw_rate,x_ref,y_ref,z_ref,yaw_ref,pred_time,nr_time,metadata
7.152557373046875e-07,0.009185791015625,-0.014245891943573952,-0.02102069742977619,-0.01457847145024834,-0.7251405684607204,0.15711807969213293,-0.26932177389413,0.005466926793843588,0.5557047111578932,0.22625709711945496,-0.8,0.0,0.0008053779602050781,0.000989675521850586,Sim
0.010084867477416992,0.009256009012460709,-0.014238419011235237,-0.02095803990960121,-0.014586990058471493,-0.7418137297206154,0.27220067193460534,-0.428525241725891,0.009296970027616813,0.5545953625287922,0.22896284384492943,-0.8,0.0,0.0007028579711914062,0.0008873939514160156,Nonlinear
0.020260334014892578,0.009409868158400059,-0.014225032180547714,-0.020837310701608658,-0.014594879486448636,-0.7552733050171526,0.353578108149495,-0.5399676692081237,0.011980958826750815,0.5534626148006443,0.23168757847159954,-0.8,0.0,0.0007069110870361328,0.0008978843688964844,0OrderHold
0.030133485794067383,0.00948738120496273,-0.014220242388546467,-0.020781278610229492,-0.014589987910097078,-0.7666105459833499,0.4096777810655313,-0.6179773684456866,0.01385791664501254,0.552350725032931,0.23432600486415373,-0.8,0.0,0.001352548599243164,0.00170135498046875,QuatYawError
0.04015946388244629,0.009564284235239029,-0.01421765610575676,-0.020727241411805153,-0.014591232422415217,-0.7763555224643149,0.44733522972592443,-0.6725841579119807,0.015172253809914025,0.5512087533130908,0.23699981069829593,-0.8,0.0,0.0013804435729980469,0.0017428398132324219,NoPyJoules
0.050133466720581055,0.009641082026064396,-0.014217409305274487,-0.020683828741312027,-0.01459026334374279,-0.7847757062038622,0.4718289647010561,-0.7105618126835719,0.016091926420843044,0.550059858864057,0.23965423356672366,-0.8,0.0,0.0007631778717041016,0.00096893310546875,0
0.06004524230957031,0.009719787165522575,-0.014220730401575565,-0.020642898976802826,-0.01460617049311035,-0.7920379447922706,0.4870409558129028,-0.7291101019961925,0.016741662429506705,0.5489054689682793,0.24228657853193875,-0.8,0.0,0.0007388591766357422,0.0009379386901855469,0
0.07030057907104492,0.009799424558877945,-0.014226892963051796,-0.0206037238240242,-0.01461320582495271,-0.7981985651015754,0.49583243150760997,-0.734222230467545,0.017199115885012096,0.5476978063360285,0.2450043120736901,-0.8,0.0,0.001096487045288086,0.0012972354888916016,0
0.08017230033874512,0.009983600117266178,-0.014243793673813343,-0.020610831677913666,-0.01461275934408969,-0.8030918323305725,0.4994176511263221,-0.7279393121359986,0.017519165873542266,0.5465226073785765,0.24761469993544885,-0.8,0.0,0.0007340908050537109,0.0009305477142333984,0
0.09011149406433105,0.01010163314640522,-0.014241809025406837,-0.020740602165460587,-0.014620167423836154,-0.8068193405446336,0.4994288772593618,-0.714540935594316,0.01774597889541821,0.5453268069348141,0.2502372347159392,-0.8,0.0,0.0007824897766113281,0.0009877681732177734,0
0.10025858879089355,0.010422495193779469,-0.014197872951626778,-0.021400948986411095,-0.014649619475790973,-0.8091824505728683,0.4948639386441803,-0.691516752952893,0.017915792530214414,0.5440930118203099,0.25290866827434777,-0.8,0.0,0.0007393360137939453,0.0009462833404541016,0
0.11009836196899414,0.010630768723785877,-0.01414970587939024,-0.021961845457553864,-0.014665209640242573,-0.8105761853382912,0.48860671114182586,-0.6661996452339038,0.01804050838624109,0.5428840858102953,0.25549338420773215,-0.8,0.0,0.0007333755493164062,0.0009264945983886719,0
0.12012767791748047,0.010873274877667427,-0.014079960063099861,-0.02269526571035385,-0.014696248699458573,-0.8111532465505498,0.4811152034775244,-0.6395523751536829,0.018139449132665672,0.5416392368570434,0.2581219423003777,-0.8,0.0,0.0007526874542236328,0.0009553432464599609,0
0.1301560401916504,0.011152297258377075,-0.013987628743052483,-0.023597847670316696,-0.014731345669418949,-0.8110559726676733,0.4726967796988681,-0.6121204134985992,0.0182218690188981,0.5403817811219125,0.26074418618927925,-0.8,0.0,0.0007245540618896484,0.0009217262268066406,0
0.14007973670959473,0.011817842721939087,-0.013737994246184826,-0.025919774547219276,-0.014727489284790283,-0.8101505244684801,0.45889622281932474,-0.5765120317368256,0.018278116795025008,0.5391249523664221,0.26333303198782915,-0.8,0.0,0.0007817745208740234,0.000995635986328125,0
0.1501753330230713,0.012198199518024921,-0.01358514279127121,-0.027340928092598915,-0.01471967701358798,-0.8087595209844707,0.44538682748819985,-0.5426551661031844,0.01831456063661301,0.5378336262041818,0.26596050557189943,-0.8,0.0,0.0007848739624023438,0.0009875297546386719,0
0.16007447242736816,0.012607554905116558,-0.013417930342257023,-0.02893388271331787,-0.014703982416844457,-0.807016666224984,0.43193117831967054,-0.5101329072987776,0.01833418585194577,0.5365549948381185,0.26853070125083756,-0.8,0.0,0.0007879734039306641,0.0009953975677490234,0
0.1701338291168213,0.01304589118808508,-0.01323804073035717,-0.0306969303637743,-0.0146842219788519,-0.8050184898112924,0.41813102047313816,-0.47823695997856697,0.0183405133384315,0.5352430868844988,0.27113619814099477,-0.8,0.0,0.0008652210235595703,0.001066446304321289,0
0.1802074909210205,0.013981541618704796,-0.012569164857268333,-0.03469514846801758,-0.014581311771529003,-0.8026577939378629,0.3965707329254867,-0.43586283832122985,0.018306351251225417,0.533916634188556,0.27373897737948033,-0.8,0.0,0.0007483959197998047,0.000972747802734375,0
0.19037508964538574,0.01448213029652834,-0.012082716450095177,-0.03694166988134384,-0.014519993253265072,-0.8000589914875139,0.37605336084823693,-0.3962776812850666,0.01825944334583221,0.5325649781357511,0.2763594472118999,-0.8,0.0,0.0019428730010986328,0.0025746822357177734,0
0.2001504898071289,0.015022298321127892,-0.011582143604755402,-0.03935732692480087,-0.01447489297368757,-0.7973010154103691,0.3562275492886029,-0.3587651745235204,0.01820969520721537,0.5312533329952714,0.2788725446891739,-0.8,0.0,0.0014867782592773438,0.0018839836120605469,0
0.210296630859375,0.015603810548782349,-0.011063845828175545,-0.04193990305066109,-0.01442666694277928,-0.7944519022367945,0.3367590342338278,-0.32282147862499605,0.018156786748592973,0.5298794008940974,0.28147436918503327,-0.8,0.0,0.0014338493347167969,0.0018305778503417969,0
0.22003698348999023,0.016904940828680992,-0.00996602326631546,-0.04758932441473007,-0.014401419819470657,-0.7913753010209362,0.3096810532195091,-0.2766740684188829,0.01811028315631656,0.5285484297631678,0.2839657679983444,-0.8,0.0,0.0007219314575195312,0.0009202957153320312,0
0.23016786575317383,0.01763148419559002,-0.009382534772157669,-0.05064816772937775,-0.014399877679041828,-0.7881716907510739,0.2852394645490166,-0.2347522259247482,0.01807715233906229,0.5271516671657983,0.2865503791732257,-0.8,0.0,0.0007677078247070312,0.0009729862213134766,0
0.2400193214416504,0.01841397024691105,-0.008771033026278019,-0.0538584440946579,-0.01437918531935666,-0.7849313440972534,0.26257203367085274,-0.19609134868939893,0.01804620113210237,0.5257813086960892,0.28905711447018173,-0.8,0.0,0.0007605552673339844,0.0009615421295166016,0
0.2502272129058838,0.019253993406891823,-0.008127352222800255,-0.057214412838220596,-0.01437107388197988,-0.7817095361136088,0.2411364520560017,-0.15988638095638275,0.018021493498214122,0.5243487948743927,0.29164763210726063,-0.8,0.0,0.0007410049438476562,0.0009388923645019531,0
0.2602047920227051,0.020153453573584557,-0.007448973599821329,-0.06071091070771217,-0.014361130007461196,-0.7785376468740045,0.2205984006216989,-0.12563006506573457,0.01800046920154783,0.522936266800811,0.2941728418199597,-0.8,0.0,0.0007612705230712891,0.0009720325469970703,0
0.2701141834259033,0.02111542969942093,-0.006734469905495644,-0.0643552839756012,-0.014356897639756979,-0.7754290934874689,0.2008371725112223,-0.09285504188943376,0.017984165055992343,0.5215213553263517,0.2966740230262251,-0.8,0.0,0.0007688999176025391,0.0009708404541015625,0
0.2800936698913574,0.02323814667761326,-0.0051852380856871605,-0.0720326229929924,-0.014386901882398507,-0.7721847692790548,0.17328875500663754,-0.05087415372485245,0.01798400374509408,0.5200843452328772,0.29918601879715134,-0.8,0.0,0.000789642333984375,0.0009992122650146484,0
0.2902791500091553,0.02440720982849598,-0.004343446809798479,-0.07605399936437607,-0.014409696773068125,-0.7689623042870841,0.14858789346187273,-0.013247361014304196,0.017992438911466405,0.5186051964707018,0.30174268871603954,-0.8,0.0,0.001062154769897461,0.0012733936309814453,0
0.30002546310424805,0.02696136385202408,-0.002517983317375183,-0.08443522453308105,-0.014426821371549865,-0.7655848414342891,0.1181877694901227,0.030346139079018702,0.01800476525235769,0.51717805663329,0.3041822771579789,-0.8,0.0,0.0007727146148681641,0.000982046127319336,0
0.31020569801330566,0.028348039835691452,-0.001531911315396428,-0.08878655731678009,-0.01443142140149783,-0.762257874346018,0.0919229186194406,0.06818502780993088,0.018015118702212066,0.5156751248593084,0.30672327202437155,-0.8,0.0,0.0007457733154296875,0.0009443759918212891,0
0.32014966011047363,0.02981029637157917,-0.0004941416555084288,-0.09323900938034058,-0.014441674194187137,-0.7590374445805262,0.06868689529259744,0.10179046399598526,0.01802621091436862,0.5141950212835351,0.309198124326822,-0.8,0.0,0.000759124755859375,0.0009641647338867188,0
0.33019208908081055,0.03134927153587341,0.0005943026626482606,-0.09778694808483124,-0.01441974333954928,-0.7559539575475781,0.04777483209097369,0.13214724893858149,0.018025751392389013,0.5126882072414329,0.3116902342961124,-0.8,0.0,0.0007612705230712891,0.0009653568267822266,0
0.34008240699768066,0.03296421468257904,0.0017348162364214659,-0.10243012011051178,-0.014394960684146009,-0.7530127680573722,0.02854177561787693,0.1599874819833214,0.018016136231227057,0.5111924113043884,0.31413741996903993,-0.8,0.0,0.0008022785186767578,0.0010197162628173828,0
0.35002636909484863,0.0346573069691658,0.0029292937833815813,-0.10715852677822113,-0.014371878873199068,-0.7502204907343238,0.010570305318163949,0.18598608452389614,0.018000749939308582,0.5096767262418388,0.31659064219809413,-0.8,0.0,0.000789642333984375,0.0009870529174804688,0
0.3603057861328125,0.03827723115682602,0.005485796369612217,-0.11684998869895935,-0.014231480800356786,-0.74731907983506,-0.013525424702073161,0.21754754650908786,0.01793733025764978,0.5080975352651828,0.3191189349716597,-0.8,0.0,0.0007436275482177734,0.0009505748748779297,0
0.3702385425567627,0.040205202996730804,0.0068501923233270645,-0.1218043714761734,-0.014160907500662743,-0.7445508697091687,-0.03460635568580957,0.24521568898617216,0.017866471493103338,0.506559685734423,0.3215544818357266,-0.8,0.0,0.0007750988006591797,0.0009868144989013672,0
0.3801589012145996,0.04429469257593155,0.009756261482834816,-0.13190774619579315,-0.01393892087450375,-0.7416799114371931,-0.059695341018812936,0.2758311116622381,0.01773362537311132,0.5050121029245676,0.3239795917950789,-0.8,0.0,0.0007255077362060547,0.0009462833404541016,0
0.390153169631958,0.04645531624555588,0.011300013400614262,-0.13704748451709747,-0.013808608959419334,-0.738970542053936,-0.08092662546580909,0.301844338294089,0.017591766120960133,0.5034412502558103,0.3264152379115695,-0.8,0.0,0.0008013248443603516,0.0010058879852294922,0
0.3999958038330078,0.04869280755519867,0.012904364615678787,-0.14224094152450562,-0.013649186120053891,-0.7364306568022834,-0.09923473441622827,0.32449770978595166,0.017432681079692255,0.5018827496594719,0.32880648654527467,-0.8,0.0,0.000766754150390625,0.0009715557098388672,0
0.41031527519226074,0.051007725298404694,0.014567055739462376,-0.14747940003871918,-0.01348589036012608,-0.7340590091035493,-0.11525304356257189,0.34462737832301976,0.017260085640831768,0.5002365498424597,0.33130559035686724,-0.8,0.0,0.0014612674713134766,0.0018467903137207031,0
0.4202003479003906,0.05585876479744911,0.018067549914121628,-0.15808860957622528,-0.013136251816518181,-0.7315919900460345,-0.13473599923573984,0.36684635288760986,0.01700815437977648,0.49864797700034336,0.3336917665053559,-0.8,0.0,0.001416921615600586,0.001786947250366211,0
0.43006348609924316,0.05839070305228233,0.019905252382159233,-0.1634521335363388,-0.012916371374683712,-0.7293067518511963,-0.15112569298244194,0.38579503077858773,0.016749347331349848,0.49705158476171124,0.3360650563296805,-0.8,0.0,0.0007688999176025391,0.0009765625,0
0.44054245948791504,0.06099439039826393,0.02180073969066143,-0.16884927451610565,-0.01268407153745999,-0.7271917011960791,-0.1651115892087304,0.4022083209323548,0.016481069958492484,0.49534314234718557,0.3385781613300182,-0.8,0.0,0.0012898445129394531,0.0016255378723144531,0
0.4501519203186035,0.0636674165725708,0.02375430054962635,-0.17427688837051392,-0.01242851380975935,-0.7252295562188336,-0.1774658408938528,0.4166264885569097,0.01619744164960441,0.49376529162727933,0.3408751043772892,-0.8,0.0,0.0007874965667724609,0.0010018348693847656,0
0.4602205753326416,0.06922079622745514,0.027834607288241386,-0.18521346151828766,-0.011844731947556673,-0.7231757939370707,-0.19260658389138532,0.43203201968039984,0.015779983635056984,0.4921006162740463,0.34327391899575455,-0.8,0.0,0.0007605552673339844,0.0009615421295166016,0
0.4701507091522217,0.07209768891334534,0.029959872364997864,-0.19071395695209503,-0.011525500277949598,-0.7212928890334432,-0.20513019953217582,0.44502218010188266,0.015368051148771222,0.49044742834338734,0.34563176941849244,-0.8,0.0,0.0007991790771484375,0.001004934310913086,0
0.4799995422363281,0.07504041492938995,0.032140959054231644,-0.1962367445230484,-0.011170565138221619,-0.7195654613131379,-0.21573347415760652,0.4561588770928781,0.014946597730973017,0.488796616470972,0.34796245160437855,-0.8,0.0,0.0007436275482177734,0.0009393692016601562,0
0.4901447296142578,0.07804495841264725,0.03437715768814087,-0.20177334547042847,-0.010833442370041434,-0.7179719108349515,-0.22473877135456416,0.46560290467672477,0.014525159300446523,0.4870845509884234,0.3503550202129348,-0.8,0.0,0.000732421875,0.0009300708770751953,0
0.5001492500305176,0.08423781394958496,0.03900912031531334,-0.21288080513477325,-0.010139752044649014,-0.7162938163090431,-0.23568208527320006,0.4745473178166318,0.0139700185270559,0.48538475514102036,0.35270616591816434,-0.8,0.0,0.0007755756378173828,0.0009801387786865234,0
0.5100860595703125,0.08741958439350128,0.04140482097864151,-0.21844691038131714,-0.009790313576004666,-0.7147643488103896,-0.24447803342311258,0.4817640338166602,0.013450380559940722,0.483685229600325,0.3550332360026042,-0.8,0.0,0.0007646083831787109,0.0009627342224121094,0
0.5200700759887695,0.09065490961074829,0.043852534145116806,-0.2240169793367386,-0.009412581279303384,-0.7133642108810403,-0.25162813269450124,0.48757842112466065,0.012944984371697232,0.4819663940199293,0.3573631137028922,-0.8,0.0,0.0007202625274658203,0.0009164810180664062,0
0.530097246170044,0.09394170343875885,0.046351660043001175,-0.22959120571613312,-0.009004797479635047,-0.7120652855981288,-0.2575062780367477,0.49219758921619466,0.012438288115051162,0.4802288335781563,0.3596946863663173,-0.8,0.0,0.0007619857788085938,0.0009641647338867188,0
0.5400412082672119,0.1006634384393692,0.05149734392762184,-0.24074238538742065,-0.008266677297652488,-0.7107002304359142,-0.2643432300166655,0.4950277612965595,0.011806805667155442,0.4784945525927368,0.36199856786881984,-0.8,0.0,0.000789642333984375,0.0010192394256591797,0
0.5502133369445801,0.10409308224916458,0.05414116382598877,-0.24633096158504486,-0.007869052969479753,-0.7094595484371419,-0.26938794678426625,0.4969749456263593,0.011215658830563795,0.4767090424225969,0.3643466603010527,-0.8,0.0,0.0008654594421386719,0.0011487007141113281,0
0.5602190494537354,0.10756634920835495,0.05683088302612305,-0.25191402435302734,-0.007490523846681394,-0.7083184445893203,-0.27312893708229674,0.49805904500571857,0.010659907623900133,0.47494150164837146,0.36664774649790216,-0.8,0.0,0.0007483959197998047,0.0009553432464599609,0
0.5701103210449219,0.1110779270529747,0.05956433713436127,-0.2574913799762726,-0.007114519474404343,-0.7072639393086322,-0.2758533700212131,0.4980676609731663,0.010129880139631677,0.4731832596067361,0.3689140859711705,-0.8,0.0,0.0008442401885986328,0.0010542869567871094,0
0.5801308155059814,0.11633425951004028,0.0640011802315712,-0.26803508400917053,-0.006369916213244343,-0.7061937854224631,-0.27799415763781987,0.4938961091426482,0.009479634677708747,0.4713910201504959,0.37120143604446737,-0.8,0.0,0.0009028911590576172,0.0011191368103027344,0
0.5900664329528809,0.11811181157827377,0.06572451442480087,-0.273011714220047,-0.005970396169093307,-0.7052370037814052,-0.27821450286095895,0.48832521709353377,0.008874642837806129,0.46960304468437464,0.37346081511072243,-0.8,0.0,0.0007638931274414062,0.0009613037109375,0
0.6000607013702393,0.1199529841542244,0.06750918179750443,-0.2779872417449951,-0.005563303744072625,-0.7043763583916001,-0.2769494362247889,0.4815416097225342,0.008298488890491538,0.4677935895094332,0.37572484295542646,-0.8,0.0,0.0007836818695068359,0.0010395050048828125,0
0.6104273796081543,0.12185360491275787,0.06935380399227142,-0.28296005725860596,-0.005150621841668857,-0.7035895165026522,-0.27463757074705436,0.4737070878529427,0.007740425413969911,0.46590517757753924,0.3780639701246888,-0.8,0.0,0.001260519027709961,0.0015668869018554688,0
0.6200962066650391,0.12582442164421082,0.07321841269731522,-0.29289713501930237,-0.004391655375748333,-0.7027978729888924,-0.27127876585012933,0.4607708008554032,0.0070651685556845055,0.4641333446781695,0.3802370817764299,-0.8,0.0,0.0007541179656982422,0.0009620189666748047,0
0.6301567554473877,0.12788890302181244,0.0752335712313652,-0.29786065220832825,-0.004064943179624374,-0.7020514002852808,-0.2671282579545903,0.44833259592467056,0.006469971681338179,0.462278968313327,0.38248941874928505,-0.8,0.0,0.0007760524749755859,0.0009851455688476562,0
0.6400272846221924,0.12999936938285828,0.07729792594909668,-0.3028184473514557,-0.003728851679250386,-0.7013537581758005,-0.26230211860482555,0.43606677267679544,0.0059272995566556335,0.46044899412055873,0.3846904259445062,-0.8,0.0,0.0007531642913818359,0.0009763240814208984,0
0.6500513553619385,0.13215386867523193,0.07941122353076935,-0.307766318321228,-0.0033965051531755523,-0.7007064389867057,-0.25694468497868655,0.4238717992498209,0.005422799122099788,0.4585798287419759,0.38691671025038454,-0.8,0.0,0.0007836818695068359,0.00098419189453125,0
0.6603481769561768,0.1365853101015091,0.08377882838249207,-0.3176266551017761,-0.002790754187548756,-0.7000590227138505,-0.2503196673086754,0.4068968375644731,0.004842492205800586,0.45664859720181605,0.38919411438717,-0.8,0.0,0.0007901191711425781,0.0010051727294921875,0
0.6700494289398193,0.138856440782547,0.08603055030107498,-0.322539359331131,-0.0025058264247215215,-0.6994406475644737,-0.24354945567198577,0.3912089970259469,0.0043294294533309935,0.4548187199045659,0.3913309750382303,-0.8,0.0,0.0007681846618652344,0.0009725093841552734,0
0.680182695388794,0.1411578506231308,0.08832395821809769,-0.3274379074573517,-0.002235665430719681,-0.6988532239883372,-0.23660861051292179,0.3763590314613495,0.003868975153851512,0.4528966784099234,0.39355380659480144,-0.8,0.0,0.0007860660552978516,0.0010101795196533203,0
0.6904580593109131,0.14348763227462769,0.09065711498260498,-0.33232250809669495,-0.001976174749926699,-0.6982930055801909,-0.22952146442122287,0.3619858241655029,0.003449348138918558,0.4509365915132941,0.39579816881129265,-0.8,0.0,0.001018524169921875,0.001237630844116211,0
0.7001912593841553,0.14822044968605042,0.0954376757144928,-0.3421122133731842,-0.0015050768242037946,-0.697744324695134,-0.22135811522905696,0.342677410867991,0.0029789475063194248,0.449069667605308,0.3979151085807853,-0.8,0.0,0.0009758472442626953,0.001329183578491211,0
0.7101638317108154,0.15061631798744202,0.09788244962692261,-0.3469790816307068,-0.0012893103831692853,-0.6972080245238106,-0.2133402213304547,0.3252069229581536,0.0025687546481121116,0.4471465225099335,0.4000749772321103,-0.8,0.0,0.0008132457733154297,0.001058816909790039,0
0.720001220703125,0.15302838385105133,0.10036033391952515,-0.35182857513427734,-0.0010671967988632926,-0.6966860006622463,-0.20538643539745047,0.3089475412171557,0.002198327053252202,0.4452392685966104,0.4021964615701578,-0.8,0.0,0.0008134841918945312,0.0010526180267333984,0
0.7300586700439453,0.15545392036437988,0.10287065804004669,-0.35665950179100037,-0.0008601775604502618,-0.6961869037153807,-0.1976282672872036,0.29349311343036555,0.001861395522445416,0.44327894461927836,0.40435600311757297,-0.8,0.0,0.0007920265197753906,0.001016855239868164,0
0.7400705814361572,0.1578894406557083,0.1054115816950798,-0.3614700734615326,-0.0006789361529935085,-0.6957138900199425,-0.18987426571746577,0.2786958850204043,0.0015575779230843478,0.44131709322507684,0.40649627701538527,-0.8,0.0,0.0008001327514648438,0.0010247230529785156,0
0.7500238418579102,0.162785604596138,0.11057883501052856,-0.37102463841438293,-0.0003883697121861714,-0.6952602897470593,-0.18101675128992809,0.2593520492374492,0.0012359431882288567,0.43935649140225375,0.40861457813286756,-0.8,0.0,0.0007581710815429688,0.0009562969207763672,0
0.7601723670959473,0.1652391105890274,0.11320216953754425,-0.37576860189437866,-0.00023561890393843183,-0.6948098675428466,-0.17251673033018475,0.2418955310951736,0.0009535173207371032,0.43734695765618453,0.4107646998329817,-0.8,0.0,0.0007519721984863281,0.0009527206420898438,0
0.7701578140258789,0.16769231855869293,0.11584947258234024,-0.3804785907268524,-0.00012206144383341073,-0.694374905006037,-0.16437189032313285,0.2257361344040623,0.0007132351659534973,0.4353594453049332,0.4128706254794362,-0.8,0.0,0.0008134841918945312,0.0010309219360351562,0
0.7800416946411133,0.1701432168483734,0.11851885914802551,-0.3851649761199951,9.682812503434095e-07,-0.6939620766439523,-0.1564206492792183,0.21064987015512376,0.0004989015106985717,0.43338216243629185,0.4149456606376834,-0.8,0.0,0.0007658004760742188,0.0009658336639404297,0
0.7904438972473145,0.17503222823143005,0.12392371147871017,-0.39446407556533813,0.00021526140696567206,-0.693569359734666,-0.14763008467535096,0.19182977683187485,0.0002685080298768725,0.4312905078393848,0.417119284914574,-0.8,0.0,0.000888824462890625,0.0010981559753417969,0
0.8000035285949707,0.17746667563915253,0.12665556371212006,-0.39907482266426086,0.00033765397220608,-0.6931871463102359,-0.13945121428435706,0.17503625397637246,6.133538133653015e-05,0.4293586616812172,0.41910755139858075,-0.8,0.0,0.0007905960083007812,0.000997781753540039,0
0.8102099895477295,0.1798916608095169,0.12940573692321777,-0.4036586284637451,0.0004339318442641053,-0.6928242560618805,-0.1316454147163914,0.1598614402566282,-0.0001197896746634677,0.42728598564379705,0.4212204725228925,-0.8,0.0,0.0007951259613037109,0.001004934310913086,0
0.8201043605804443,0.1847088634967804,0.13495220243930817,-0.4127444326877594,0.000571591068043651,-0.6924848828219513,-0.12301815339974642,0.14151108333754758,-0.000298199422780797,0.42526676100001304,0.42325900107210684,-0.8,0.0,0.0008015632629394531,0.0010275840759277344,0
0.8300957679748535,0.18709804117679596,0.13774527609348297,-0.4172443747520447,0.0006363226464238463,-0.6921543019189677,-0.11487635065771364,0.12553219315471315,-0.0004473605883555007,0.4232178645170485,0.4253076993820229,-0.8,0.0,0.0007956027984619141,0.0010018348693847656,0
0.8400418758392334,0.18946965038776398,0.14055056869983673,-0.42173245549201965,0.0006992001898582858,-0.6918381077005006,-0.1072770763983537,0.11114761707168416,-0.0005753524830457072,0.4211684549949071,0.4273372585174418,-0.8,0.0,0.0007941722869873047,0.001018524169921875,0
0.8502469062805176,0.19182196259498596,0.14336927235126495,-0.42619162797927856,0.0007425301403019684,-0.691538886666786,-0.10018846606842867,0.0980781834198265,-0.0006811955407452313,0.4190555784678248,0.4294093875953304,-0.8,0.0,0.0008132457733154297,0.0010423660278320312,0
0.8600704669952393,0.19646605849266052,0.14903652667999268,-0.43501928448677063,0.0008419437146422606,-0.6912628754550129,-0.09262102029931131,0.08220369781144224,-0.0007925657715125099,0.4170120516844959,0.4313941918360599,-0.8,0.0,0.0007936954498291016,0.0010037422180175781,0
0.8701364994049072,0.19875749945640564,0.15188266336917877,-0.4393870234489441,0.000887324770753673,-0.6910007080037921,-0.08555666836117674,0.06858231092896955,-0.0008875428290913859,0.4149083340196561,0.4334178980626359,-0.8,0.0,0.0007853507995605469,0.0010008811950683594,0
0.8800771236419678,0.20102618634700775,0.15473619103431702,-0.44372206926345825,0.0009031867324219711,-0.6907582658953241,-0.07895155569157876,0.05655480962948221,-0.0009599750050222085,0.41282118752164193,0.43540632417687886,-0.8,0.0,0.0007758140563964844,0.0009849071502685547,0
0.8901400566101074,0.2032703161239624,0.1575961410999298,-0.4480249583721161,0.0009175150213024584,-0.6905344116781099,-0.07263245124841942,0.04572865155556535,-0.0010160506365039673,0.41069865522002513,0.4374089786463726,-0.8,0.0,0.0007750988006591797,0.0009751319885253906,0
0.9000611305236816,0.2076830416917801,0.16333012282848358,-0.45653125643730164,0.0009716034882196668,-0.6903351741909263,-0.06612313761247841,0.032691381290305854,-0.0010755867536351514,0.40859653384911,0.43937327243073526,-0.8,0.0,0.0007569789886474609,0.000978231430053711,0
0.9100596904754639,0.20985224843025208,0.16620418429374695,-0.46077367663383484,0.0009671337329954335,-0.6901389520901623,-0.06008511531493334,0.021629711696206214,-0.0011155858774178954,0.40646848944062314,0.44134268668672644,-0.8,0.0,0.0007355213165283203,0.00093841552734375,0
0.9201400279998779,0.21199315786361694,0.1690821349620819,-0.4649834632873535,0.0009668584877626122,-0.6899570294941891,-0.05450581120301496,0.01199010300814959,-0.001143482047103506,0.40431343090399186,0.44331777495453867,-0.8,0.0,0.0014314651489257812,0.0018074512481689453,0
0.9301302433013916,0.21410635113716125,0.17196187376976013,-0.4691581130027771,0.0009965894642606995,-0.6897927972255377,-0.0492690178733761,0.0035127979450588053,-0.0011741584820702162,0.4021681705051285,0.44526482303518866,-0.8,0.0,0.0008141994476318359,0.0010287761688232422,0
0.9405124187469482,0.21824140846729279,0.17772360146045685,-0.4774032533168793,0.0010226191182740934,-0.6896496687099892,-0.04394991990232611,-0.006905746405286642,-0.0012053931068019379,0.3999288075051542,0.44727726180469457,-0.8,0.0,0.0015769004821777344,0.0019731521606445312,0
0.9501030445098877,0.22026114165782928,0.1806037425994873,-0.4814722239971161,0.00105644143347794,-0.6895183482506695,-0.0389788884434178,-0.015601517221908577,-0.0012399407123155836,0.39785122730026684,0.44912626391213356,-0.8,0.0,0.0008101463317871094,0.0010256767272949219,0
0.9600753784179688,0.22224819660186768,0.1834820806980133,-0.48550495505332947,0.0010563843282218308,-0.689404790847767,-0.034264165486065146,-0.0230480474138584,-0.0012641026217040945,0.3956818942110251,0.45103862206420314,-0.8,0.0,0.0007638931274414062,0.0009691715240478516,0
0.9701399803161621,0.22420154511928558,0.18635864555835724,-0.4895000755786896,0.0010572699223888918,-0.6893092933337449,-0.029855563102326087,-0.02946902303566852,-0.0012813480560887002,0.39348316974146547,0.4529580500777186,-0.8,0.0,0.0007691383361816406,0.0009737014770507812,0
0.9801392555236816,0.22612062096595764,0.18923376500606537,-0.4934574067592621,0.001078379832021996,-0.6892323509077742,-0.025724577122620586,-0.035082798890328844,-0.0013013360762703392,0.39128949606221175,0.45485440557543283,-0.8,0.0,0.0007469654083251953,0.0009613037109375,0
0.990093469619751,0.23096178472042084,0.19544820487499237,-0.5016021132469177,0.0010199538770490268,-0.6891580679390347,-0.022138080914089385,-0.04124057754893864,-0.0012934179572826224,0.38909663046117293,0.4567316631937854,-0.8,0.0,0.0007588863372802734,0.0009665489196777344,0
1.0000624656677246,0.23331183195114136,0.19854120910167694,-0.5056151747703552,0.0009456081339188306,-0.6890870815186049,-0.018787188059126606,-0.04593662652219738,-0.0012599956203173963,0.3868914821789226,0.4586011131881348,-0.8,0.0,0.0007472038269042969,0.00096893310546875,0
1.0101659297943115,0.23561587929725647,0.20162394642829895,-0.5095877647399902,0.0008896109464085892,-0.6890249635717124,-0.015648055112323506,-0.04949758879624404,-0.0012156010391253982,0.3846474253447277,0.4604849163389308,-0.8,0.0,0.0007927417755126953,0.0010044574737548828,0
1.0200080871582031,0.24008433520793915,0.20776227116584778,-0.5174131989479065,0.000772487345455319,-0.6889744219641221,-0.013338618955822844,-0.0537636600284199,-0.0011406034819335241,0.38245258682274147,0.4623094405618312,-0.8,0.0,0.0007567405700683594,0.0009646415710449219,0
1.0300817489624023,0.2422480583190918,0.21082007884979248,-0.5212637186050415,0.0007197795521262313,-0.6889384504436403,-0.011287348114725069,-0.05676791706958202,-0.0010683397694008043,0.3801971603259119,0.46416604709964826,-0.8,0.0,0.0008187294006347656,0.0010268688201904297,0
1.0400187969207764,0.2443668246269226,0.2138693481683731,-0.5250720977783203,0.0006635390410876171,-0.6889141931445886,-0.009339185835921825,-0.058800833510984606,-0.0009966649789884202,0.37796349032358567,0.4659866950701626,-0.8,0.0,0.0007474422454833984,0.0009505748748779297,0
1.050072431564331,0.24644023180007935,0.21690799295902252,-0.5288388729095459,0.000611718189384546,-0.6889009811640566,-0.00747722480879642,-0.060025980540494704,-0.0009270598063110996,0.3756947414989801,0.46781776495769645,-0.8,0.0,0.00078582763671875,0.0009951591491699219,0
1.0601050853729248,0.2504516839981079,0.22295700013637543,-0.5362685322761536,0.0005328534450802454,-0.6888983575880295,-0.006431045905218009,-0.061728587146551155,-0.0008487619063228625,0.3734218844061235,0.46963400243868597,-0.8,0.0,0.0007586479187011719,0.0009722709655761719,0
1.0703034400939941,0.2523899972438812,0.22596746683120728,-0.5399254560470581,0.0004892598216480095,-0.6888954512774075,-0.005380263767182897,-0.06262967002483112,-0.0007776057675440072,0.3711024898413995,0.47146891947774666,-0.8,0.0,0.0007498264312744141,0.0009534358978271484,0
1.0800495147705078,0.2542841136455536,0.22896915674209595,-0.5435424447059631,0.00041671428013745945,-0.6889026336125986,-0.0044338244991749,-0.06287477051821141,-0.0007005918923323521,0.36887753044270466,0.47321175760381473,-0.8,0.0,0.0012264251708984375,0.0016498565673828125,0
1.0902609825134277,0.25613611936569214,0.23196157813072205,-0.5471196174621582,0.0003550808902830346,-0.6889112325785511,-0.003473357350265083,-0.062399212831189585,-0.0006235696584887852,0.36653754546021505,0.47502655480299283,-0.8,0.0,0.0007379055023193359,0.0009484291076660156,0
1.1000401973724365,0.2597174346446991,0.23791652917861938,-0.5541582107543945,0.0002810992865215857,-0.6889338317893307,-0.0034206744846251645,-0.062155816648663785,-0.0005419109933877441,0.36428824225955964,0.476753685409395,-0.8,0.0,0.0007350444793701172,0.0009303092956542969,0
1.1103579998016357,0.2614468038082123,0.24087968468666077,-0.5576177835464478,0.0002388166295432992,-0.6889644347710498,-0.003180884248948923,-0.061250128384198986,-0.00046889393145015736,0.36190623751113954,0.47856438986883526,-0.8,0.0,0.0009744167327880859,0.0011785030364990234,0
1.1200201511383057,0.26313596963882446,0.2438325583934784,-0.561037540435791,0.0001997447486018389,-0.6890012181250729,-0.0028498139248634732,-0.059852275931616086,-0.00040313003274079914,0.3596674372692433,0.480249242131807,-0.8,0.0,0.0007083415985107422,0.0009064674377441406,0
1.130302906036377,0.2647859454154968,0.24677515029907227,-0.5644111633300781,0.00015121302055273308,-0.689045216709523,-0.0025332139806121985,-0.05799492776237473,-0.00033889590562583455,0.35727622362276984,0.48203080817915833,-0.8,0.0,0.0007383823394775391,0.0009415149688720703,0
1.1401104927062988,0.2679654657840729,0.2526320517063141,-0.5710389018058777,6.374132096498294e-05,-0.6891114622785032,-0.0032211758810813578,-0.05649206762948363,-0.0002611301292999531,0.35498728525720263,0.4837189548753712,-0.8,0.0,0.0007739067077636719,0.000980377197265625,0
1.1501805782318115,0.2694944143295288,0.25554513931274414,-0.5742949843406677,5.0436014269636826e-05,-0.6891756111638282,-0.0036362316593668903,-0.054562353848618066,-0.000201704595861081,0.352628784681496,0.4854409750052534,-0.8,0.0,0.0007240772247314453,0.0009403228759765625,0
1.1600689888000488,0.27098485827445984,0.2584480345249176,-0.577514111995697,1.143292815081227e-05,-0.6892387414080487,-0.003898333139286857,-0.05234980501679152,-0.00014548056515931114,0.35030470504261096,0.4871207382415671,-0.8,0.0,0.0007624626159667969,0.00096893310546875,0
1.170067310333252,0.2724354863166809,0.26134029030799866,-0.5806956887245178,-4.2388619587256014e-05,-0.6893055095324695,-0.003987228060731535,-0.049959742879531505,-8.594066326629663e-05,0.3479466577617492,0.48880785933987203,-0.8,0.0,0.0007936954498291016,0.0010013580322265625,0
1.1801815032958984,0.2752218246459961,0.2670953571796417,-0.5869448184967041,-0.00010578756251457383,-0.6893933754580139,-0.005067170935679876,-0.04776528576072079,-2.0488128343442466e-05,0.34555301599392546,0.49050291858204254,-0.8,0.0,0.0007784366607666016,0.000982522964477539,0
1.1906559467315674,0.27655819058418274,0.26995763182640076,-0.59001225233078,-0.00015447295502553108,-0.6894814437070881,-0.005632922458964148,-0.04522294804108986,4.35856682941644e-05,0.3430654135361044,0.49224599748022496,-0.8,0.0,0.0015599727630615234,0.001926422119140625,0
1.200122594833374,0.27785879373550415,0.2728075087070465,-0.5930236577987671,-0.00019125109251157775,-0.6895687515899547,-0.005945937758467657,-0.04249409773795185,0.0001022291274977567,0.3408095889944156,0.4938105143164304,-0.8,0.0,0.0011138916015625,0.0014390945434570312,0
1.2101290225982666,0.27912387251853943,0.2756449580192566,-0.5959990620613098,-0.00024516634986980457,-0.6896561780036862,-0.006178362716326048,-0.039543209975510675,0.00016349777044960637,0.338417383833536,0.4954529991020996,-0.8,0.0,0.0008091926574707031,0.0010249614715576172,0
1.2201778888702393,0.28154829144477844,0.2812882661819458,-0.6018431186676025,-0.000323313410143903,-0.6897598867186022,-0.007266860619753833,-0.0368047997168143,0.00023569096811868782,0.33600706710031275,0.49709078734034684,-0.8,0.0,0.001486063003540039,0.001890420913696289,0
1.2300469875335693,0.2827102839946747,0.2840944528579712,-0.604711651802063,-0.0003741463906858975,-0.6898638659372174,-0.00806863092748356,-0.03376601924220097,0.0003052885741902923,0.3336321544238842,0.49868786383315705,-0.8,0.0,0.000759124755859375,0.0009737014770507812,0
1.2400767803192139,0.28384101390838623,0.2868901193141937,-0.6075452566146851,-0.0004153336795877367,-0.6899626390342749,-0.008616513618004525,-0.03052263440555128,0.0003694521317786061,0.3312107950693775,0.5002993196372656,-0.8,0.0,0.0007419586181640625,0.0009565353393554688,0
1.2502553462982178,0.2849386930465698,0.28967520594596863,-0.6103454232215881,-0.00045392536059429194,-0.6900588881318331,-0.008959298294715867,-0.027283681013147192,0.0004288385024678831,0.3287455623976828,0.5019226585877861,-0.8,0.0,0.0007631778717041016,0.0009772777557373047,0
1.2601001262664795,0.28703343868255615,0.29521238803863525,-0.6158397197723389,-0.0005225397888430446,-0.6901809479987177,-0.0100328569989218,-0.024480175403969153,0.0004961393725436592,0.3263536024424996,0.5034812073680635,-0.8,0.0,0.0007395744323730469,0.0009438991546630859,0
1.2701809406280518,0.2880321443080902,0.2979637682437897,-0.6185438632965088,-0.0005410352882186573,-0.6903062713860582,-0.010693586125416515,-0.021548530880621232,0.0005501857938625573,0.3238966376615924,0.5050653107386361,-0.8,0.0,0.0007758140563964844,0.0009851455688476562,0
1.2800750732421875,0.2889978289604187,0.30070334672927856,-0.6212113499641418,-0.000566692528185084,-0.6904337743631452,-0.01103122927712642,-0.018662119828951187,0.0005976397537731974,0.3214776951427182,0.5066084203067746,-0.8,0.0,0.0007419586181640625,0.0009484291076660156,0
1.29026460647583,0.28993043303489685,0.30343109369277954,-0.6238431334495544,-0.0006053917091479975,-0.6905619619859258,-0.011171245040119446,-0.015797416794218314,0.0006453697185717367,0.3189788488587467,0.5081854917062752,-0.8,0.0,0.0008015632629394531,0.0010235309600830078,0
1.3001575469970703,0.29170235991477966,0.30885425209999084,-0.6290022134780884,-0.0006657981450334862,-0.6907135516264946,-0.012175164696354183,-0.013324586716570021,0.0007014331073877732,0.31654533543477603,0.5097048661867817,-0.8,0.0,0.0007295608520507812,0.0009310245513916016,0
1.3102173805236816,0.2925425171852112,0.311551034450531,-0.6315287351608276,-0.0006885264666225503,-0.6908643565885122,-0.012821799782488433,-0.010832491492352948,0.0007492006001548971,0.314063348015555,0.5112379225304597,-0.8,0.0,0.0014796257019042969,0.0018534660339355469,0
1.3200340270996094,0.2933511734008789,0.3142373859882355,-0.6340203285217285,-0.0007009990547034465,-0.6910131719348398,-0.013239995493944506,-0.008344189548385852,0.000787315065622221,0.311634202323622,0.5127222678430495,-0.8,0.0,0.0007345676422119141,0.0009398460388183594,0
1.330061435699463,0.2941294014453888,0.316912978887558,-0.636477530002594,-0.0007165691716777199,-0.6911589391319471,-0.013436211023323607,-0.005783507635649403,0.0008198339853146994,0.3091456608198933,0.514226565237767,-0.8,0.0,0.0007593631744384766,0.00096893310546875,0
1.3400657176971436,0.2956007122993469,0.32223236560821533,-0.6413106322288513,-0.0007444655215635352,-0.6913236116071432,-0.014414279434212609,-0.0038798016989763863,0.0008530583603066158,0.3066556225194599,0.515715356739745,-0.8,0.0,0.0007722377777099609,0.0009744167327880859,0
1.350403070449829,0.2962920069694519,0.3248787224292755,-0.6436867713928223,-0.0007498036347569709,-0.6914797368610728,-0.01506737062669035,-0.0018876023959634365,0.0008783172152484951,0.30407515288501324,0.5172410476730901,-0.8,0.0,0.0014591217041015625,0.0018413066864013672,0
1.3601982593536377,0.2969527244567871,0.32751530408859253,-0.6460289359092712,-0.0007510719493347177,-0.6916369781993335,-0.01553086892013927,3.965961873194745e-05,0.000896474031674466,0.30162301646499245,0.5186748075032744,-0.8,0.0,0.0015637874603271484,0.001957416534423828,0
1.3701841831207275,0.2975838780403137,0.3301413953304291,-0.6483359932899475,-0.0007538700265170823,-0.6917963533832602,-0.015809373404607457,0.0020656008987231956,0.000910233082116032,0.29911617269407936,0.5201245189691077,-0.8,0.0,0.0013833045959472656,0.0017397403717041016,0
1.3802168369293213,0.2995920479297638,0.3359473645687103,-0.6530578136444092,-0.0007808832271318217,-0.6919747950431001,-0.017335107278153922,0.0038498442956290072,0.0009299943676556556,0.296590581339634,0.5215688133512374,-0.8,0.0,0.0014197826385498047,0.001795053482055664,0
1.3901185989379883,0.3009543716907501,0.3391158878803253,-0.6554701328277588,-0.0008909021961184501,-0.6921357301133161,-0.0188996320903202,0.006343532583859564,0.0009850843809033772,0.29409110226939644,0.522982240201301,-0.8,0.0,0.0014946460723876953,0.0018849372863769531,0
1.4001123905181885,0.3022729754447937,0.34226274490356445,-0.6578452587127686,-0.0009925226008158086,-0.6922910846245413,-0.020328347145770063,0.009250009826185724,0.0010617550419382913,0.2915615627276294,0.5243966582080998,-0.8,0.0,0.0013594627380371094,0.0017189979553222656,0
1.4102027416229248,0.3035477101802826,0.345386803150177,-0.6601830124855042,-0.0011009000170644956,-0.6924394900056604,-0.021615072625122758,0.012413015362617078,0.0011560660357559874,0.28900068177401356,0.5258123295760145,-0.8,0.0,0.0014636516571044922,0.0018444061279296875,0
1.4201009273529053,0.30477994680404663,0.3484885096549988,-0.6625010967254639,-0.0012164500023147604,-0.6925821183627522,-0.022904140261726026,0.01576475742288183,0.001265414975897225,0.2864818925806137,0.5271888895106096,-0.8,0.0,0.0014824867248535156,0.0018630027770996094,0
1.4302706718444824,0.3059720993041992,0.35156989097595215,-0.6647844910621643,-0.0013461556040236214,-0.692711885721461,-0.024165674576476327,0.019312812719407844,0.0013905988346369126,0.283887171517979,0.5285906486568993,-0.8,0.0,0.0014576911926269531,0.0018274784088134766,0
1.4401774406433105,0.308236688375473,0.35767343640327454,-0.6692497730255127,-0.0015739313077636314,-0.6928522158700953,-0.02655085964397042,0.022445837912771712,0.0015636434246571965,0.2813529509745167,0.5299438809703639,-0.8,0.0,0.0018355846405029297,0.0023300647735595703,0
1.4501917362213135,0.3093097507953644,0.36069628596305847,-0.6714316010475159,-0.0016726436276825486,-0.6929857273036371,-0.02858018090744647,0.02571901314681289,0.0017217917576409895,0.27878466873111585,0.5312994527387375,-0.8,0.0,0.0008418560028076172,0.0010514259338378906,0
1.4602279663085938,0.31034401059150696,0.363699346780777,-0.6735807061195374,-0.0017637421717627115,-0.6931132848470977,-0.030241713174776547,0.0288982242591858,0.0018666575447597138,0.2762042086662708,0.5326455060497921,-0.8,0.0,0.0015001296997070312,0.0019040107727050781,0
1.4699838161468506,0.3122950792312622,0.36964544653892517,-0.6777798533439636,-0.0019355995147412107,-0.6932602400664046,-0.0326457343195533,0.031454672642801836,0.0020325100993597587,0.2736896087266627,0.5339419426071025,-0.8,0.0,0.0008299350738525391,0.0010554790496826172,0
1.4801008701324463,0.31321394443511963,0.37258854508399963,-0.6798295378684998,-0.002027763481622728,-0.693403902656692,-0.034490284102292254,0.03405295272349946,0.002183168375160342,0.2710754809376054,0.5352738398562421,-0.8,0.0,0.0014681816101074219,0.0018527507781982422,0
1.4901518821716309,0.3140954375267029,0.37551453709602356,-0.6818503141403198,-0.002123908956298495,-0.6935404680161817,-0.036116782848507355,0.036710062716669066,0.0023246837212241795,0.268471999376377,0.536584369461924,-0.8,0.0,0.0014066696166992188,0.0017809867858886719,0
1.5000951290130615,0.31575289368629456,0.3813135623931885,-0.685796856880188,-0.002288089456104996,-0.6936961202164444,-0.03834163083860803,0.03863832476697855,0.0024853121508962863,0.2658901975602406,0.5378683880294288,-0.8,0.0,0.0014171600341796875,0.0017919540405273438,0
1.5102896690368652,0.3165290653705597,0.3841855823993683,-0.6877235770225525,-0.0023977062540209864,-0.6938442093737988,-0.03996182957301847,0.040727854901778285,0.0026388583508852666,0.2632367713954184,0.539171959754322,-0.8,0.0,0.0016298294067382812,0.0020546913146972656,0
1.5201106071472168,0.31727057695388794,0.3870388865470886,-0.6896204352378845,-0.0025008326544067876,-0.6939842773678769,-0.041090207030940115,0.04285022385389866,0.0027850130910222286,0.2606745415055941,0.5404153804351318,-0.8,0.0,0.0015430450439453125,0.001928091049194336,0
1.5301616191864014,0.31797781586647034,0.3898727297782898,-0.6914880275726318,-0.0025870082186494952,-0.6941185767127684,-0.041812388870949804,0.04486770206111005,0.002919637245709132,0.25804620580804616,0.541675323111614,-0.8,0.0,0.0012013912200927734,0.0014159679412841797,0
1.5399978160858154,0.31865066289901733,0.3926878571510315,-0.6933267116546631,-0.0026740394449093073,-0.6942473295564631,-0.04232347116224976,0.04680732024702769,0.0030465108638373798,0.25546814798414497,0.542895961824686,-0.8,0.0,0.0007545948028564453,0.00095367431640625,0
1.5500471591949463,0.3192897439002991,0.3954847753047943,-0.6951369047164917,-0.0027721680544392393,-0.6943706899901214,-0.042686134648029846,0.0486700778835054,0.0031721206251008843,0.2528282623252417,0.54413037938494,-0.8,0.0,0.0007872581481933594,0.001003265380859375,0
1.5600543022155762,0.32046088576316833,0.4010275602340698,-0.698706865310669,-0.0029589707608644452,-0.6945207910056048,-0.043662007823846015,0.049160702898075025,0.0033300984728947907,0.25019353525003385,0.5453468574394558,-0.8,0.0,0.0007450580596923828,0.0009541511535644531,0
1.5699844360351562,0.32099348306655884,0.4037720561027527,-0.7004622220993042,-0.0030530178503525487,-0.6946705326428472,-0.0442850079752585,0.04974036860701975,0.0034759506249085557,0.24757329788070276,0.5465413636464058,-0.8,0.0,0.0008530616760253906,0.0010671615600585938,0
1.5800073146820068,0.32149216532707214,0.4064987301826477,-0.7021867036819458,-0.003135176845524916,-0.6948192106036443,-0.04464508161587056,0.050456337269321916,0.003608856754507836,0.2449228054603312,0.5477342598061954,-0.8,0.0,0.0007936954498291016,0.0010132789611816406,0
1.590038776397705,0.32239076495170593,0.4118979871273041,-0.7055498957633972,-0.0032776120642353996,-0.694976052346121,-0.045308442167812345,0.05000037592165327,0.003755304252243764,0.24226428833214894,0.5489153073097136,-0.8,0.0,0.0008935928344726562,0.0011165142059326172,0
1.599949598312378,0.32279109954833984,0.4145714044570923,-0.7071912884712219,-0.003332666700375173,-0.6951237646315234,-0.0455108764073032,0.049716860398310775,0.0038784629892113153,0.23963215003604194,0.5500694798560486,-0.8,0.0,0.0007371902465820312,0.0009436607360839844,0
1.6099920272827148,0.3231564462184906,0.41722631454467773,-0.7088048458099365,-0.0033802813962486994,-0.6952693012271232,-0.045321580776006724,0.04944718115233898,0.003982529616041186,0.23695945110666677,0.551226104725844,-0.8,0.0,0.0007874965667724609,0.000995635986328125,0
1.620124101638794,0.3237874209880829,0.4224783182144165,-0.7119464874267578,-0.00348479536757643,-0.6954363668671326,-0.04515199224732632,0.04789646382232657,0.004094568994070007,0.2342572366758555,0.5523798937913944,-0.8,0.0,0.0007793903350830078,0.0009913444519042969,0
1.6300632953643799,0.3240518271923065,0.425076961517334,-0.7134777903556824,-0.0035461160354195685,-0.6955939893570722,-0.04469462952930104,0.046744312094153945,0.0041959918091313405,0.23160100457535096,0.5534988479479322,-0.8,0.0,0.0014672279357910156,0.0016732215881347656,0
1.640080451965332,0.32428252696990967,0.4276564419269562,-0.7149818539619446,-0.003626789829855421,-0.695745008680856,-0.04395915259093134,0.04580834808564579,0.004297240452587719,0.22891852954986341,0.5546136554654315,-0.8,0.0,0.0014696121215820312,0.0018570423126220703,0
1.650223731994629,0.3244790732860565,0.43021783232688904,-0.7164599895477295,-0.003686109572027623,-0.6958850822947252,-0.0431097241501153,0.044952966169693624,0.00439035940632176,0.2261968127845158,0.5557292523217818,-0.8,0.0,0.001556396484375,0.00197601318359375,0
1.6601834297180176,0.3247731924057007,0.4352872669696808,-0.7193374037742615,-0.0038052546414015782,-0.6960551987611103,-0.04239404381505732,0.04249449435816311,0.004500222074950845,0.2235190659890399,0.5568116621797601,-0.8,0.0,0.001425027847290039,0.001798391342163086,0
1.670102596282959,0.324870765209198,0.4377942383289337,-0.7207373380661011,-0.0038440478760552606,-0.6962068980244157,-0.041472082116578345,0.04056904341683232,0.004591673405986312,0.22084706842366383,0.5578768433701775,-0.8,0.0,0.0007724761962890625,0.0009829998016357422,0
1.6800041198730469,0.32493656873703003,0.44028204679489136,-0.722113847732544,-0.0038988502496275597,-0.6963490089493792,-0.04032953120946097,0.03901102588257361,0.004676240227800751,0.21817476105869005,0.5589273420016089,-0.8,0.0,0.0007290840148925781,0.0009274482727050781,0
1.690058708190918,0.3249702453613281,0.44274985790252686,-0.7234656810760498,-0.003931276340066425,-0.6964866308927318,-0.038994156458830205,0.037714318024175415,0.004747596786985449,0.2154560304756183,0.5599809808660374,-0.8,0.0,0.0012941360473632812,0.0015773773193359375,0
1.700202226638794,0.3249721825122833,0.44519704580307007,-0.7247918844223022,-0.003967495417335081,-0.6966230817031178,-0.03747045992655646,0.03658187467531107,0.004811128532390468,0.21270809779547575,0.5610305385023442,-0.8,0.0,0.0014774799346923828,0.001878499984741211,0
1.7101283073425293,0.32487720251083374,0.4500309228897095,-0.7273789644241333,-0.004033012736259563,-0.6967827434774354,-0.035957488513840306,0.03372617176779452,0.004880169748770662,0.2100141204026558,0.562044543814366,-0.8,0.0,0.0014524459838867188,0.0018279552459716797,0
1.7201285362243652,0.32478106021881104,0.4524194300174713,-0.7286361455917358,-0.004049709684849751,-0.6969323403571047,-0.0344439323145971,0.03138268845352739,0.004934759955958119,0.2072951311001027,0.563053042458871,-0.8,0.0,0.0014052391052246094,0.001779794692993164,0
1.7299518585205078,0.3246532380580902,0.4547889828681946,-0.7298699021339417,-0.0040545823671073985,-0.6970739755988976,-0.03289026944788876,0.029361635221491888,0.004974800356835956,0.20461952615747525,0.564030894114046,-0.8,0.0,0.0008561611175537109,0.0010828971862792969,0
1.7399876117706299,0.3243003785610199,0.4594676196575165,-0.732267439365387,-0.004051090456018073,-0.6972383304608644,-0.03116786337419445,0.025723385150578974,0.005001519170791946,0.2018812980748738,0.5650167621297655,-0.8,0.0,0.0007503032684326172,0.0009553432464599609,0
1.7501227855682373,0.32407480478286743,0.46177586913108826,-0.7334318161010742,-0.004058907435194182,-0.6973927204246695,-0.029332405885276854,0.0226828322720096,0.0050231537077521805,0.19911112304544012,0.5659989051929196,-0.8,0.0,0.0007464885711669922,0.0009944438934326172,0
1.760047197341919,0.323815256357193,0.4640638828277588,-0.7345731854438782,-0.0040779788905745675,-0.6975396182138909,-0.027488211750825928,0.0200241630720952,0.005045449679391991,0.19639392383181958,0.5669474637759141,-0.8,0.0,0.0007357597351074219,0.0009360313415527344,0
1.7701678276062012,0.32352185249328613,0.4663323760032654,-0.7356917262077332,-0.004081017064058265,-0.6976798871158248,-0.025671680602296718,0.017643536913019862,0.005062196174596244,0.19361834893672122,0.5679013426247714,-0.8,0.0,0.0017597675323486328,0.002218484878540039,0
1.7802820205688477,0.32335543632507324,0.4714512825012207,-0.7380062341690063,-0.004067569708022575,-0.69785267587659,-0.024363471039808033,0.013928947994785189,0.005068875962725837,0.1908399111755664,0.5688410395730092,-0.8,0.0,0.0015969276428222656,0.002044677734375,0
1.7902064323425293,0.32347461581230164,0.47428834438323975,-0.7392261028289795,-0.004144530616823465,-0.6980065318398262,-0.0232872648650554,0.011334361381190898,0.005102412155216885,0.18810917434063287,0.569749891205681,-0.8,0.0,0.0013196468353271484,0.0016376972198486328,0
1.800257682800293,0.32355237007141113,0.4770926535129547,-0.7404207587242126,-0.004243879551734337,-0.6981461258248811,-0.022498705207946574,0.009570331460915385,0.005163143340552201,0.1853391262986653,0.5706569970331103,-0.8,0.0,0.0016601085662841797,0.002165079116821289,0
1.810321569442749,0.32358846068382263,0.47986531257629395,-0.7415897846221924,-0.004310139165015392,-0.6982782211439833,-0.021877014051334985,0.00824532782830177,0.005230502525267319,0.18256121358910335,0.5715517503191411,-0.8,0.0,0.0015170574188232422,0.001928091049194336,0
1.8202083110809326,0.32358235120773315,0.4826061427593231,-0.7427341938018799,-0.004374565470340816,-0.6984006627436806,-0.02139141610221838,0.0072224230367819425,0.005301813819064928,0.17982799153862813,0.5724175866089223,-0.8,0.0,0.0012233257293701172,0.0015461444854736328,0
1.8303282260894775,0.32344576716423035,0.4879951775074005,-0.7449527382850647,-0.004544013912503654,-0.6985355132247711,-0.02141306837223005,0.004915760269208151,0.005415274890534317,0.17702605589197676,0.5732903065073843,-0.8,0.0,0.0014522075653076172,0.0018453598022460938,0
1.8400633335113525,0.3233165442943573,0.4906423091888428,-0.746026873588562,-0.004622826784753491,-0.6986664578992144,-0.021216706299206887,0.0032581430785240265,0.00552425246765659,0.1743266658433451,0.5741168988768252,-0.8,0.0,0.0013742446899414062,0.0017502307891845703,0
1.850067377090454,0.3231469690799713,0.4932571053504944,-0.747096061706543,-0.004684451565444141,-0.698789721620959,-0.020902610823213548,0.002071204441285038,0.005623646064401174,0.17154868388273212,0.574953084223489,-0.8,0.0,0.0007951259613037109,0.0010020732879638672,0
1.8601133823394775,0.3226889669895172,0.49839553236961365,-0.7491668462753296,-0.004804996967983214,-0.6989301568586944,-0.02080805243086419,-0.0002973598837354881,0.005738426108074525,0.16875501396743928,0.5757792504604949,-0.8,0.0,0.0007982254028320312,0.0010082721710205078,0
1.8700437545776367,0.32240110635757446,0.5009201169013977,-0.7501677870750427,-0.004857271219146366,-0.6990581460311761,-0.02061645766598153,-0.002083637669564715,0.005838374982832063,0.1659895898755124,0.5765825665530993,-0.8,0.0,0.0007798671722412109,0.0009839534759521484,0
1.8799834251403809,0.3220745623111725,0.5034168362617493,-0.7511462569236755,-0.004920466918857594,-0.6991839498768208,-0.020410415617931832,-0.0033000139215742428,0.0059320375825540495,0.16321774731817107,0.5773733341265266,-0.8,0.0,0.0007436275482177734,0.0009610652923583984,0
1.8900117874145508,0.32171040773391724,0.5058854222297668,-0.752101719379425,-0.004988568471403795,-0.6993038456540764,-0.0201388926682367,-0.0042405175570144685,0.006023139484564265,0.16041735433071128,0.5781576536114825,-0.8,0.0,0.0007770061492919922,0.0009906291961669922,0
1.8999865055084229,0.3208667039871216,0.5107376575469971,-0.7539513111114502,-0.005112645964611317,-0.6994343053712181,-0.0200965798337806,-0.006589830101746053,0.0061334398759242265,0.15762820277330186,0.5789243039383117,-0.8,0.0,0.0007658004760742188,0.0009768009185791016,0
1.9101777076721191,0.32039010524749756,0.5131213665008545,-0.7548462152481079,-0.005166105330464935,-0.6995546891853681,-0.019975401755097055,-0.008194700970837472,0.006230697412071307,0.15477473424672375,0.5796936963939283,-0.8,0.0,0.0008022785186767578,0.0010159015655517578,0
1.9199512004852295,0.31987714767456055,0.5154786705970764,-0.7557346820831299,-0.005205814735539757,-0.6996685510214536,-0.019820213304882858,-0.009385857467251084,0.006313668714277322,0.1520346932586286,0.5804183422719812,-0.8,0.0,0.0007281303405761719,0.0009329319000244141,0
1.930117130279541,0.31932714581489563,0.5178096294403076,-0.7566023468971252,-0.005247638996931261,-0.6997799942208681,-0.019670026462756608,-0.010266614028086606,0.006387432723843362,0.14918103221415263,0.5811583429905484,-0.8,0.0,0.0008032321929931641,0.0010118484497070312,0
1.9400098323822021,0.31811854243278503,0.5223932266235352,-0.7582773566246033,-0.005365182460293798,-0.699906803012745,-0.019742499503804082,-0.012399576004642216,0.006483146329300526,0.1464006102838985,0.5818649854635541,-0.8,0.0,0.0011699199676513672,0.0014224052429199219,0
1.950204610824585,0.31746047735214233,0.5246440172195435,-0.7590854167938232,-0.005409847272483717,-0.7000289030849035,-0.01950817622445392,-0.01388867108786548,0.0065668951576917595,0.14353178631805907,0.5825792875792505,-0.8,0.0,0.0014848709106445312,0.00186920166015625,0
1.9603686332702637,0.3167661726474762,0.5268670320510864,-0.7598734498023987,-0.00544105144931955,-0.7001478438009465,-0.01911149454955637,-0.014913160693793162,0.006637220903879061,0.1406681480300438,0.5832773543776559,-0.8,0.0,0.001424551010131836,0.001809835433959961,0
1.9701991081237793,0.31603750586509705,0.5290637612342834,-0.7606407999992371,-0.0054630528075620965,-0.700268783727751,-0.01863307548934348,-0.015587552498906997,0.0066946994355511396,0.13789525418590398,0.5839391225744384,-0.8,0.0,0.0015344619750976562,0.001916646957397461,0
1.9800755977630615,0.31447649002075195,0.5333794355392456,-0.7621163129806519,-0.0055291535014320055,-0.7004054637609071,-0.018299280239813982,-0.017662635025604688,0.006759722167922798,0.1351062461651212,0.5845907134458858,-0.8,0.0,0.0013921260833740234,0.001766204833984375,0
1.9901950359344482,0.31364408135414124,0.5354997515678406,-0.7628445625305176,-0.005567103690882261,-0.700528519369883,-0.017807643248557218,-0.01916553855144593,0.006819469401626805,0.13224543966827593,0.5852445161528166,-0.8,0.0,0.0011522769927978516,0.0013692378997802734,0
2.0000498294830322,0.3127777874469757,0.5375939607620239,-0.7635552883148193,-0.005587381554422929,-0.7006454970317677,-0.01726681264934468,-0.020126786101390338,0.006868896664047361,0.1294564082448416,0.5858677652545367,-0.8,0.0,0.0014667510986328125,0.0019118785858154297,0
2.010033369064331,0.31187888979911804,0.5396631956100464,-0.7642475962638855,-0.005608175395819221,-0.7007566410477801,-0.016694252116037516,-0.0207653248279455,0.006911293438265364,0.12662794562931196,0.5864856037326918,-0.8,0.0,0.0007731914520263672,0.0009810924530029297,0
2.019975423812866,0.31094732880592346,0.5417065620422363,-0.764922559261322,-0.0056142656259222145,-0.7008633129495635,-0.015983202759120272,-0.021133596085365604,0.006943255016506585,0.12380830615601984,0.5870873046888148,-0.8,0.0,0.0007860660552978516,0.0009996891021728516,0
2.03014874458313,0.30998334288597107,0.5437238216400146,-0.7655794620513916,-0.005628623556435982,-0.7009699929492337,-0.015213691328640044,-0.02136254172033599,0.006971012345218102,0.12092011921150685,0.5876889694131369,-0.8,0.0,0.0014185905456542969,0.0017843246459960938,0
2.040192127227783,0.30795544385910034,0.547680675983429,-0.7668426036834717,-0.00565098086501147,-0.7010904514842049,-0.014420823302342636,-0.023150036707381385,0.006998826466031971,0.11806595348603856,0.5882690121257728,-0.8,0.0,0.0013728141784667969,0.0017571449279785156,0
2.0501205921173096,0.3068922162055969,0.5496219992637634,-0.7674498558044434,-0.005642423180956752,-0.7012016944145101,-0.01359959563794676,-0.02440354971766068,0.007015087219081162,0.11524171082957603,0.5888287935258196,-0.8,0.0,0.0014758110046386719,0.0018677711486816406,0
2.0604536533355713,0.30467483401298523,0.5534284114837646,-0.7686154246330261,-0.005623959711303896,-0.7013230922341656,-0.012478552160802799,-0.026660894404413778,0.0070195459450957745,0.11229955990694511,0.5893969874750857,-0.8,0.0,0.0014128684997558594,0.0017924308776855469,0
2.070329427719116,0.30352112650871277,0.5552918314933777,-0.7691748738288879,-0.005596711409283068,-0.7014356278648096,-0.01133564239133467,-0.028109993421289236,0.007012448940048193,0.10948499428976034,0.5899262971129284,-0.8,0.0,0.00146484375,0.0018312931060791016,0
2.0800445079803467,0.30233684182167053,0.5571311116218567,-0.7697188854217529,-0.00556523677408221,-0.7015435663744357,-0.010213087818158205,-0.029122475132189036,0.006995678048314564,0.10671379180279646,0.5904338799891732,-0.8,0.0,0.0014505386352539062,0.0018520355224609375,0
2.0900609493255615,0.30112114548683167,0.5589447021484375,-0.7702465653419495,-0.0055399477005811425,-0.7016529597444998,-0.008960068429590165,-0.029836573836901577,0.006974455021538124,0.10385416406720045,0.5909435781916096,-0.8,0.0,0.0008223056793212891,0.0010318756103515625,0
2.1000113487243652,0.29859820008277893,0.5624926686286926,-0.7712534666061401,-0.005482441785556755,-0.7017793582668749,-0.007574265708936204,-0.03166367865486394,0.006938034184660471,0.10101098073038943,0.5914362026219606,-0.8,0.0,0.0007562637329101562,0.0009813308715820312,0
2.110055446624756,0.2972932755947113,0.5642308592796326,-0.7717355489730835,-0.005448759180905983,-0.7018923278199727,-0.006348301406468576,-0.03287004352915838,0.006899908622102074,0.09813865523918856,0.5919195928061882,-0.8,0.0,0.0007810592651367188,0.0009958744049072266,0
2.1200313568115234,0.2959587872028351,0.5659451484680176,-0.7722045183181763,-0.005402933825591342,-0.701998015880754,-0.005108350047347997,-0.03370695708665573,0.006856036220068205,0.09528354005651396,0.5923858936489783,-0.8,0.0,0.0007238388061523438,0.000919342041015625,0
2.129992723464966,0.2945983409881592,0.5676345229148865,-0.7726592421531677,-0.00538038422200912,-0.7020998900384594,-0.0038395104283677813,-0.034228424519191135,0.00681686943730116,0.09243037694746392,0.5928377732713644,-0.8,0.0,0.0007710456848144531,0.0010061264038085938,0
2.139939069747925,0.291792631149292,0.5709396600723267,-0.7735668420791626,-0.005300162622580497,-0.7022060355810328,-0.002512596427394523,-0.0360074054043767,0.006759369589578487,0.08957937830674798,0.5932752607198252,-0.8,0.0,0.0007495880126953125,0.0009534358978271484,0
