time,x,y,z,yaw,throttle,roll_rate,pitch_rate,yaw_rate,x_ref,y_ref,z_ref,yaw_ref,pred_time,nr_time,ctrl_callback_time,metadata
1.430511474609375e-06,0.005367289297282696,-0.006118070799857378,0.0770966187119484,-0.022973395506733815,-0.7279468204540677,0.07196197658777237,-0.012057548388838768,0.001887384569272399,0.0,0.0,-0.6,0.0,0.001012563705444336,0.11365151405334473,0.13010430335998535,Sim
0.1302356719970703,0.005367289297282696,-0.006118070799857378,0.0770966187119484,-0.022973395506733815,-0.755089797915985,0.10466741025447845,0.0016878647729754448,0.0042920042760670185,0.0,0.0,-0.6,0.0,0.00042057037353515625,0.0027618408203125,0.005801677703857422,NN
0.13961029052734375,0.005861383397132158,-0.005055352114140987,0.07959624379873276,-0.023003460904550303,-0.7762027448028224,0.10068633407354355,-0.0010973322205245495,0.022389668971300125,0.0,0.0,-0.6,0.0,0.00046062469482421875,0.002946138381958008,0.005527496337890625,1x Speed
0.1494617462158203,0.005963993724435568,-0.004951030947268009,0.07958769798278809,-0.023013844281123137,-0.7929841823907072,0.08726243674755096,-0.013969648629426956,0.031314171850681305,0.0,0.0,-0.6,0.0,0.0003943443298339844,0.002738475799560547,0.005064487457275391,1stOrderHold
0.15980219841003418,0.006063251756131649,-0.004848862532526255,0.07959318906068802,-0.02301993974930459,-0.8066031036236309,0.05578247830271721,-0.027002789080142975,0.03635231778025627,0.0,0.0,-0.6,0.0,0.00048089027404785156,0.0030333995819091797,0.005712985992431641,QuatYawError
0.16946697235107422,0.006158789619803429,-0.00474955141544342,0.07961297035217285,-0.023030249388359725,-0.8173922620667781,0.02916083112359047,-0.04047754779458046,0.038251977413892746,0.0,0.0,-0.6,0.0,0.0003666877746582031,0.0027201175689697266,0.005158901214599609,NoPyJoules
0.1796863079071045,0.0063364324159920216,-0.004556209780275822,0.07969194650650024,-0.023053934163203338,-0.8257458141952357,0.002540934830904007,-0.05132146179676056,0.03914349898695946,0.0,0.0,-0.6,0.0,0.0004470348358154297,0.002825498580932617,0.0052967071533203125,0
0.18965601921081543,0.006419321987777948,-0.004463979043066502,0.07975053787231445,-0.023053491334891933,-0.8322220765461414,-0.0217306949198246,-0.0667075514793396,0.03948394954204559,0.0,0.0,-0.6,0.0,0.0005140304565429688,0.0030739307403564453,0.005543231964111328,0
0.19949746131896973,0.006501539144665003,-0.004373268689960241,0.07981842756271362,-0.02305085345341802,-0.837392327150164,-0.038579121232032776,-0.08169076591730118,0.04016268625855446,0.0,0.0,-0.6,0.0,0.0003654956817626953,0.002639293670654297,0.005133390426635742,0
0.20960378646850586,0.006579729728400707,-0.004282034933567047,0.07986628264188766,-0.023030531466278047,-0.8413414962169681,-0.05041028559207916,-0.0913613811135292,0.04098638519644737,0.0,0.0,-0.6,0.0,0.0004935264587402344,0.0030105113983154297,0.0054168701171875,0
0.21960115432739258,0.006654951721429825,-0.004190783016383648,0.07984396070241928,-0.023010128434725854,-0.8442925923674293,-0.05607486143708229,-0.0960269644856453,0.041742630302906036,0.0,0.0,-0.6,0.0,0.0004374980926513672,0.0028908252716064453,0.0055997371673583984,0
0.22951769828796387,0.006792978849261999,-0.004006791394203901,0.07942986488342285,-0.022968914906402887,-0.8457674463101381,-0.0621577687561512,-0.09849149733781815,0.04290713369846344,0.0,0.0,-0.6,0.0,0.00041222572326660156,0.0027599334716796875,0.00530695915222168,0
0.23972010612487793,0.006861955858767033,-0.003917983267456293,0.07899016886949539,-0.02294076442383857,-0.8464216488965158,-0.06731525808572769,-0.09953127801418304,0.04402068257331848,0.0,0.0,-0.6,0.0,0.0005388259887695312,0.0029680728912353516,0.005535125732421875,0
0.2494642734527588,0.006929909344762564,-0.003831756068393588,0.07837458699941635,-0.022873016275180357,-0.8463695763284025,-0.07134467363357544,-0.09965334087610245,0.04488987848162651,0.0,0.0,-0.6,0.0,0.00038242340087890625,0.0027856826782226562,0.0051686763763427734,0
0.2596416473388672,0.006995148956775665,-0.0037482513580471277,0.07757104933261871,-0.0227604510666156,-0.8457214507982782,-0.07428965717554092,-0.09895536303520203,0.045556169003248215,0.0,0.0,-0.6,0.0,0.00044083595275878906,0.002894163131713867,0.005420684814453125,0
0.26967477798461914,0.007119502406567335,-0.0035911903250962496,0.0753553956747055,-0.022526593657309267,-0.8439471317293146,-0.07593367993831635,-0.09515657275915146,0.0460805669426918,0.0,0.0,-0.6,0.0,0.0005383491516113281,0.0030777454376220703,0.0055201053619384766,0
0.27954602241516113,0.007178730797022581,-0.0035181655548512936,0.07393167167901993,-0.022366001632767675,-0.8418628482958652,-0.07659260928630829,-0.09120217710733414,0.046428948640823364,0.0,0.0,-0.6,0.0,0.00039076805114746094,0.002660989761352539,0.005193233489990234,0
0.28965163230895996,0.007235859055072069,-0.0034468593075871468,0.07229610532522202,-0.02219668549529766,-0.8395194915487384,-0.07645687460899353,-0.08699721097946167,0.046654682606458664,0.0,0.0,-0.6,0.0,0.0004911422729492188,0.002984762191772461,0.005373477935791016,0
0.2995724678039551,0.007347604259848595,-0.0033073213417083025,0.06838247925043106,-0.021866663689230525,-0.8362555740822054,-0.0751785933971405,-0.08085879683494568,0.04689594730734825,0.0,0.0,-0.6,0.0,0.00046944618225097656,0.0029027462005615234,0.005555868148803711,0
0.30950355529785156,0.0074035730212926865,-0.0032385874073952436,0.0661032423377037,-0.021649383948835327,-0.8329197446726058,-0.07357850670814514,-0.07537841796875,0.04708382487297058,0.0,0.0,-0.6,0.0,0.0004017353057861328,0.0028269290924072266,0.005199432373046875,0
0.3197479248046875,0.007459472399204969,-0.003172473283484578,0.06360934674739838,-0.021427371594498305,-0.8295516392325926,-0.07073745876550674,-0.0705307275056839,0.04765312373638153,0.0,0.0,-0.6,0.0,0.0004699230194091797,0.0029065608978271484,0.0055086612701416016,0
0.3294799327850342,0.00751636503264308,-0.003109665820375085,0.0609029158949852,-0.021171844112930164,-0.8261398719955857,-0.06873901188373566,-0.06576564908027649,0.04786042496562004,0.0,0.0,-0.6,0.0,0.00036978721618652344,0.0027647018432617188,0.005175352096557617,0
0.3395214080810547,0.007636069320142269,-0.0029933080077171326,0.054846350103616714,-0.020643140464407114,-0.8219648515534635,-0.06668610125780106,-0.0589229092001915,0.04778498411178589,0.0,0.0,-0.6,0.0,0.0004367828369140625,0.002830028533935547,0.005346059799194336,0
0.3496735095977783,0.007700262125581503,-0.0029386687092483044,0.05150139331817627,-0.020367364587754563,-0.8178964402371327,-0.06510420888662338,-0.05265633761882782,0.0474482923746109,0.0,0.0,-0.6,0.0,0.0004825592041015625,0.0030231475830078125,0.005472660064697266,0
0.3595726490020752,0.007766956463456154,-0.002888471120968461,0.04795439913868904,-0.020092026007591832,-0.8139177000693224,-0.06379353255033493,-0.046786725521087646,0.04693954810500145,0.0,0.0,-0.6,0.0,0.000438690185546875,0.002786397933959961,0.00540471076965332,0
0.36963796615600586,0.007837786339223385,-0.002841305686160922,0.04420902207493782,-0.01980334796298647,-0.8100118131101376,-0.06256061792373657,-0.04116512089967728,0.046241357922554016,0.0,0.0,-0.6,0.0,0.00045490264892578125,0.0029866695404052734,0.005293607711791992,0
0.37967610359191895,0.007995817810297012,-0.002754867309704423,0.036141764372587204,-0.019215578869490598,-0.8055330267306654,-0.060369402170181274,-0.03368733078241348,0.045381080359220505,0.0,0.0,-0.6,0.0,0.0004611015319824219,0.002887725830078125,0.005454063415527344,0
0.38947343826293945,0.008083660155534744,-0.002717865165323019,0.031829509884119034,-0.018877187997989636,-0.8013590780038775,-0.056162118911743164,-0.02808210998773575,0.044175077229738235,0.0,0.0,-0.6,0.0,0.00040149688720703125,0.0027315616607666016,0.005082368850708008,0
0.3996298313140869,0.008176662027835846,-0.002686211373656988,0.02733762003481388,-0.018542527171861254,-0.797350126762124,-0.052379198372364044,-0.02278301492333412,0.043031640350818634,0.0,0.0,-0.6,0.0,0.0005242824554443359,0.0029604434967041016,0.005625486373901367,0
0.4095008373260498,0.008276420645415783,-0.0026603136211633682,0.022670796141028404,-0.0182051528277693,-0.793485590258735,-0.04915662854909897,-0.01765681989490986,0.04182089492678642,0.0,0.0,-0.6,0.0,0.0003631114959716797,0.0027163028717041016,0.005141735076904297,0
0.4196052551269531,0.008385807275772095,-0.002639445476233959,0.01782841607928276,-0.017863120732396744,-0.7897501053666698,-0.04628375917673111,-0.012624038383364677,0.04064624384045601,0.0,0.0,-0.6,0.0,0.0004253387451171875,0.0027954578399658203,0.005239248275756836,0
0.42966270446777344,0.008503293618559837,-0.002624368527904153,0.012824056670069695,-0.017521070413370515,-0.7861259433624546,-0.04289412498474121,-0.006907205563038588,0.03943710774183273,0.0,0.0,-0.6,0.0,0.00054168701171875,0.0030527114868164062,0.005487918853759766,0
0.43947291374206543,0.008763711899518967,-0.002619552193209529,0.0023580091074109077,-0.016809114092251443,-0.7821099350421125,-0.037473779171705246,-0.002616485580801964,0.03799738734960556,0.0,0.0,-0.6,0.0,0.0004525184631347656,0.0027816295623779297,0.00519561767578125,0
0.4496116638183594,0.008908407762646675,-0.0026289080269634724,-0.00309385871514678,-0.0164387951539558,-0.7781867682902083,-0.03540569543838501,0.0036345524713397026,0.03622303903102875,0.0,0.0,-0.6,0.0,0.0005097389221191406,0.0030934810638427734,0.005522012710571289,0
0.459522008895874,0.009224753826856613,-0.0026723649352788925,-0.014408267103135586,-0.015725649396230574,-0.773915721050949,-0.03119487315416336,0.010970419272780418,0.03453879430890083,0.0,0.0,-0.6,0.0,0.00045299530029296875,0.0028579235076904297,0.005472421646118164,0
0.4695308208465576,0.009396485053002834,-0.002706453436985612,-0.02025792934000492,-0.015380982179772292,-0.7699332948565655,-0.02714603953063488,0.01782347820699215,0.03308283910155296,0.0,0.0,-0.6,0.0,0.00041747093200683594,0.0028371810913085938,0.005244016647338867,0
0.4798612594604492,0.009579362347722054,-0.0027501354925334454,-0.026229705661535263,-0.01503522579231559,-0.7661976896182533,-0.023147128522396088,0.0239812470972538,0.031811341643333435,0.0,0.0,-0.6,0.0,0.000476837158203125,0.0029904842376708984,0.005505561828613281,0
0.4894742965698242,0.009898473508656025,-0.002629893133416772,-0.03163272142410278,-0.014691425625815777,-0.7626938912499613,-0.018865345045924187,0.029828373342752457,0.030578337609767914,0.0,0.0,-0.6,0.0,0.0003848075866699219,0.0026824474334716797,0.005038022994995117,0
0.49963831901550293,0.010564692318439484,-0.002429755637422204,-0.042811084538698196,-0.014012480425824038,-0.7589069361694548,-0.013784082606434822,0.036528702825307846,0.029376517981290817,0.0,0.0,-0.6,0.0,0.0004525184631347656,0.0029001235961914062,0.0053980350494384766,0
0.5095770359039307,0.010912952944636345,-0.002348362933844328,-0.04857499524950981,-0.013643654399682374,-0.7553951572226721,-0.012674027122557163,0.04251930117607117,0.028178665786981583,0.0,0.0,-0.6,0.0,0.0004565715789794922,0.0029990673065185547,0.005468606948852539,0
0.5195248126983643,0.011272000148892403,-0.0022792962845414877,-0.05444753170013428,-0.013299588889604716,-0.7521465176247568,-0.01029223296791315,0.04803954064846039,0.02736285701394081,0.0,0.0,-0.6,0.0,0.00040841102600097656,0.0028221607208251953,0.0053195953369140625,0
0.5296363830566406,0.011640559881925583,-0.002222692361101508,-0.06042218953371048,-0.01296863407518475,-0.7490974252110296,-0.006810917519032955,0.053296588361263275,0.026727378368377686,0.0,0.0,-0.6,0.0,0.0005233287811279297,0.003107786178588867,0.005558967590332031,0
0.539525032043457,0.012402033433318138,-0.002149111358448863,-0.07265327125787735,-0.012316568604778736,-0.7458020601772024,-0.00199961569160223,0.058797042816877365,0.02611800841987133,0.0,0.0,-0.6,0.0,0.0004756450653076172,0.002969980239868164,0.005480766296386719,0
0.5495116710662842,0.012795723974704742,-0.0021299750078469515,-0.0789007768034935,-0.011986739607435865,-0.7427347224957566,0.003077533096075058,0.06397496163845062,0.02563142590224743,0.0,0.0,-0.6,0.0,0.0004260540008544922,0.0027675628662109375,0.005179643630981445,0
0.5596563816070557,0.013200316578149796,-0.00212678755633533,-0.08524936437606812,-0.011679623703709403,-0.7398726093878762,0.008623898960649967,0.06894134730100632,0.025228116661310196,0.0,0.0,-0.6,0.0,0.0005075931549072266,0.0029304027557373047,0.005460023880004883,0
0.5694727897644043,0.013616005890071392,-0.002138239797204733,-0.09167100489139557,-0.011337954638359914,-0.7371993490202916,0.014845528639853,0.07416840642690659,0.024868495762348175,0.0,0.0,-0.6,0.0,0.00037288665771484375,0.0027053356170654297,0.005110740661621094,0
0.5797181129455566,0.014476832002401352,-0.0021993389818817377,-0.10471580922603607,-0.010767467720460291,-0.7343134527861815,0.02160189487040043,0.07924497127532959,0.024444768205285072,0.0,0.0,-0.6,0.0,0.00045561790466308594,0.002847909927368164,0.005298614501953125,0
0.5896413326263428,0.014920804649591446,-0.002250742632895708,-0.11132881790399551,-0.010513780377194644,-0.7316347981536125,0.027951518073678017,0.08374784886837006,0.0240886639803648,0.0,0.0,-0.6,0.0,0.0005252361297607422,0.0030889511108398438,0.005584239959716797,0
0.5994834899902344,0.015372968278825283,-0.0023152008652687073,-0.11799483746290207,-0.01021852323724853,-0.7291405565403251,0.03431326895952225,0.08712633699178696,0.023750994354486465,0.0,0.0,-0.6,0.0,0.0003898143768310547,0.002766847610473633,0.005256175994873047,0
0.6096460819244385,0.015833964571356773,-0.0023929690942168236,-0.12470970302820206,-0.009922787774273214,-0.7268045037976028,0.04001738876104355,0.09054539352655411,0.023447412997484207,0.0,0.0,-0.6,0.0,0.00049591064453125,0.0029926300048828125,0.005409955978393555,0
0.6196002960205078,0.016784118488430977,-0.0025829339865595102,-0.1382676661014557,-0.00942479941013173,-0.7243117962882734,0.045807965099811554,0.09397225826978683,0.023107416927814484,0.0,0.0,-0.6,0.0,0.000457763671875,0.002928018569946289,0.0055353641510009766,0
0.6295244693756104,0.017271827906370163,-0.0026952181942760944,-0.14510993659496307,-0.009143992783485676,-0.7219962743224569,0.05204040929675102,0.09553831815719604,0.022724498063325882,0.0,0.0,-0.6,0.0,0.0004246234893798828,0.002754688262939453,0.005208253860473633,0
0.639657735824585,0.01776832900941372,-0.0028201122768223286,-0.15198341012001038,-0.008908467340134663,-0.7198512822457498,0.05628633871674538,0.09743278473615646,0.022413404658436775,0.0,0.0,-0.6,0.0,0.0004987716674804688,0.0031609535217285156,0.005921363830566406,0
0.6494810581207275,0.01827222667634487,-0.002957818564027548,-0.1588841825723648,-0.00866222691978173,-0.717849237329228,0.06016092747449875,0.0999818742275238,0.02218949794769287,0.0,0.0,-0.6,0.0,0.0003790855407714844,0.002820253372192383,0.0053403377532958984,0
0.659583568572998,0.018782906234264374,-0.0031076455488801003,-0.16581106185913086,-0.008418664405629241,-0.7159614727424328,0.0635853037238121,0.10279740393161774,0.02202478237450123,0.0,0.0,-0.6,0.0,0.0004947185516357422,0.0030450820922851562,0.005663633346557617,0
0.6695282459259033,0.019824668765068054,-0.0034408632200211287,-0.17973309755325317,-0.00795678377597652,-0.7139242516966797,0.06683653593063354,0.10522562265396118,0.021824007853865623,0.0,0.0,-0.6,0.0,0.0005204677581787109,0.003161191940307617,0.005756855010986328,0
0.6795284748077393,0.020355643704533577,-0.0036234906874597073,-0.1867191642522812,-0.007728597168434155,-0.7120141624380698,0.06941958516836166,0.10868329554796219,0.021596061065793037,0.0,0.0,-0.6,0.0,0.00039005279541015625,0.0026350021362304688,0.005239009857177734,0
0.6894795894622803,0.020892402157187462,-0.0038173655048012733,-0.1937168538570404,-0.007507161630653518,-0.710247763033012,0.07166341692209244,0.11164698004722595,0.02146766148507595,0.0,0.0,-0.6,0.0,0.0004591941833496094,0.0030050277709960938,0.005449533462524414,0
0.6993398666381836,0.02198769897222519,-0.0042390162125229836,-0.20775142312049866,-0.007079516047386312,-0.7083852732453753,0.07369644939899445,0.11361141502857208,0.02135225385427475,0.0,0.0,-0.6,0.0,0.0005316734313964844,0.003133058547973633,0.0057010650634765625,0
0.7095274925231934,0.022543910890817642,-0.004464706871658564,-0.2147817760705948,-0.006869380402881976,-0.7066758177855587,0.07554896175861359,0.11538895219564438,0.02130594663321972,0.0,0.0,-0.6,0.0,0.00037407875061035156,0.0026848316192626953,0.005029439926147461,0
0.7197062969207764,0.023103848099708557,-0.004700466059148312,-0.2218121737241745,-0.006634573845419666,-0.7050987517068946,0.07716348767280579,0.11684809625148773,0.02129286155104637,0.0,0.0,-0.6,0.0,0.0005354881286621094,0.002964019775390625,0.005634784698486328,0
0.7294766902923584,0.023666290566325188,-0.004944995511323214,-0.22883905470371246,-0.006432720025908718,-0.7036374337971073,0.0784335732460022,0.11795694380998611,0.02130940742790699,0.0,0.0,-0.6,0.0,0.0003421306610107422,0.002713441848754883,0.005171775817871094,0
0.7395584583282471,0.024231066927313805,-0.005197376478463411,-0.23586046695709229,-0.006224402181233493,-0.7022934703087144,0.07883049547672272,0.11925455182790756,0.021477367728948593,0.0,0.0,-0.6,0.0,0.0005283355712890625,0.0028390884399414062,0.0053403377532958984,0
0.7496507167816162,0.024798860773444176,-0.0054565793834626675,-0.2428734302520752,-0.006031332518662865,-0.7010438112238306,0.07915826141834259,0.1199062168598175,0.021547172218561172,0.0,0.0,-0.6,0.0,0.0005197525024414062,0.0029523372650146484,0.0052530765533447266,0
0.7594559192657471,0.02594376727938652,-0.0059974221512675285,-0.2568628787994385,-0.005634040262656691,-0.6997125264743576,0.07869182527065277,0.11880036443471909,0.021516019478440285,0.0,0.0,-0.6,0.0,0.0003733634948730469,0.0025823116302490234,0.005109071731567383,0
0.7695455551147461,0.02652059495449066,-0.006278862711042166,-0.26383528113365173,-0.005444506567603536,-0.6984917031503833,0.07845158129930496,0.11741259694099426,0.02147539332509041,0.0,0.0,-0.6,0.0,0.0004200935363769531,0.002737283706665039,0.005072593688964844,0
0.7797424793243408,0.027098387479782104,-0.006568333134055138,-0.27080604434013367,-0.005252765253697099,-0.6973671911359283,0.07836878299713135,0.11583349853754044,0.021428171545267105,0.0,0.0,-0.6,0.0,0.0005333423614501953,0.002986431121826172,0.005553722381591797,0
0.7894668579101562,0.028258739039301872,-0.007170212455093861,-0.2846818268299103,-0.004938470264645084,-0.6961992526999758,0.0775119960308075,0.11294573545455933,0.021388420835137367,0.0,0.0,-0.6,0.0,0.0003685951232910156,0.0026526451110839844,0.004990816116333008,0
0.7996768951416016,0.028839483857154846,-0.007481034845113754,-0.29158416390419006,-0.00475628703829948,-0.6951359160546076,0.07684802263975143,0.11013606190681458,0.021343769505620003,0.0,0.0,-0.6,0.0,0.0004940032958984375,0.002893209457397461,0.00549626350402832,0
0.8094375133514404,0.029419036582112312,-0.007799698039889336,-0.29846107959747314,-0.004558649912879478,-0.6941235341557384,0.07584848254919052,0.10703067481517792,0.021552816033363342,0.0,0.0,-0.6,0.0,0.0003833770751953125,0.0027680397033691406,0.005270957946777344,0
0.8195123672485352,0.030572213232517242,-0.008456015959382057,-0.3121354877948761,-0.004203410233051019,-0.6930534345174983,0.07404041290283203,0.1024869978427887,0.021574290469288826,0.0,0.0,-0.6,0.0,0.00042819976806640625,0.002698659896850586,0.00516200065612793,0
0.8297073841094971,0.03114927001297474,-0.008792211301624775,-0.31892961263656616,-0.004024469204583017,-0.6920862484603555,0.07264800369739532,0.09838889539241791,0.021453583613038063,0.0,0.0,-0.6,0.0,0.0005369186401367188,0.003137826919555664,0.0056498050689697266,0
0.8394582271575928,0.031724557280540466,-0.00913215707987547,-0.32569193840026855,-0.003828033758398148,-0.6912097936072329,0.07134036719799042,0.09463590383529663,0.021237198263406754,0.0,0.0,-0.6,0.0,0.00045037269592285156,0.002683877944946289,0.005181074142456055,0
0.8495464324951172,0.03229724243283272,-0.009475081227719784,-0.33248332142829895,-0.0036532580183596466,-0.6904058688420779,0.0699610635638237,0.09096191823482513,0.02097589522600174,0.0,0.0,-0.6,0.0,0.000446319580078125,0.0028581619262695312,0.005288362503051758,0
0.8596596717834473,0.03343109413981438,-0.010169626213610172,-0.3459598124027252,-0.0033146071746021715,-0.6895519298944179,0.0675160214304924,0.08576244115829468,0.020696105435490608,0.0,0.0,-0.6,0.0,0.0005238056182861328,0.003162860870361328,0.005822896957397461,0
0.8694753646850586,0.03399107977747917,-0.010520285926759243,-0.35264238715171814,-0.0031327702702323053,-0.6887847060510238,0.06522418558597565,0.08089621365070343,0.02035839855670929,0.0,0.0,-0.6,0.0,0.0003685951232910156,0.0026922225952148438,0.005133152008056641,0
0.8799107074737549,0.0343141183257103,-0.010871971026062965,-0.35978609323501587,-0.0029449500603627526,-0.6880693576710111,0.06306713074445724,0.07612309604883194,0.020075691863894463,0.0,0.0,-0.6,0.0,0.0004963874816894531,0.0029060840606689453,0.005408763885498047,0
0.8894851207733154,0.03463684022426605,-0.011224347166717052,-0.3668769299983978,-0.0027562704060756856,-0.6873969773881533,0.060946568846702576,0.07138568162918091,0.01983664743602276,0.0,0.0,-0.6,0.0,0.00035691261291503906,0.002905130386352539,0.005381345748901367,0
0.899486780166626,0.03495730087161064,-0.011577551253139973,-0.37391534447669983,-0.0025990112160324216,-0.6867652921932945,0.05891713872551918,0.06650704890489578,0.019643301144242287,0.0,0.0,-0.6,0.0,0.000377655029296875,0.002631664276123047,0.005173921585083008,0
0.9096574783325195,0.03559192642569542,-0.01228586956858635,-0.3878260850906372,-0.002279063289919272,-0.6861182719540362,0.05610766261816025,0.05963841825723648,0.019396331161260605,0.0,0.0,-0.6,0.0,0.0005266666412353516,0.003086566925048828,0.00554656982421875,0
0.9195797443389893,0.03590407967567444,-0.012640080414712429,-0.39472243189811707,-0.0020908117650079963,-0.6855263362866963,0.05353241786360741,0.0533297061920166,0.019182348623871803,0.0,0.0,-0.6,0.0,0.00037789344787597656,0.0027933120727539062,0.005570650100708008,0
0.9295656681060791,0.03621169924736023,-0.012995069846510887,-0.4015618562698364,-0.0018872000459126716,-0.6849811303464562,0.0510626956820488,0.04741416126489639,0.01894024759531021,0.0,0.0,-0.6,0.0,0.00042366981506347656,0.002791166305541992,0.005101203918457031,0
0.9397082328796387,0.03651484102010727,-0.013350044377148151,-0.4083438515663147,-0.0017077732845105548,-0.6844779314932957,0.048653870820999146,0.041822563856840134,0.018686339259147644,0.0,0.0,-0.6,0.0,0.0005707740783691406,0.0029761791229248047,0.005601406097412109,0
0.9494771957397461,0.03710423409938812,-0.014060650952160358,-0.4217339754104614,-0.0013437703836534766,-0.6839525256672117,0.04514191672205925,0.034621044993400574,0.018379326909780502,0.0,0.0,-0.6,0.0,0.0003676414489746094,0.0026044845581054688,0.004883289337158203,0
0.959665060043335,0.03739007189869881,-0.014413874596357346,-0.42834213376045227,-0.0011709897209825973,-0.6834774645769972,0.04175150394439697,0.0282482597976923,0.018078988417983055,0.0,0.0,-0.6,0.0,0.0005071163177490234,0.0029244422912597656,0.005429983139038086,0
0.9694445133209229,0.03766962140798569,-0.014763177372515202,-0.4348911643028259,-0.001006598318327052,-0.6830454967624806,0.0384521409869194,0.02238931879401207,0.0177860576659441,0.0,0.0,-0.6,0.0,0.0003306865692138672,0.0027620792388916016,0.005201816558837891,0
0.9795913696289062,0.03821152448654175,-0.015454552136361599,-0.4478091597557068,-0.0006552087203814142,-0.6826203182258943,0.034257177263498306,0.015338275581598282,0.017442921176552773,0.0,0.0,-0.6,0.0,0.00040602684020996094,0.002686738967895508,0.005078792572021484,0
0.9896485805511475,0.038472265005111694,-0.015795914456248283,-0.45420435070991516,-0.0004694755465727186,-0.682243288561813,0.03035801462829113,0.009168822318315506,0.017089884728193283,0.0,0.0,-0.6,0.0,0.0004906654357910156,0.002945423126220703,0.005352020263671875,0
0.9995052814483643,0.038727372884750366,-0.016133420169353485,-0.46053725481033325,-0.0003084267901370813,-0.681907883001572,0.02670636773109436,0.003712689969688654,0.016748487949371338,0.0,0.0,-0.6,0.0,0.0003521442413330078,0.0025815963745117188,0.005083799362182617,0
1.0095734596252441,0.038974687457084656,-0.016465509310364723,-0.46680840849876404,-0.00014013597332825399,-0.68160631874365,0.023022731766104698,-0.0014232993125915527,0.01642482914030552,0.0,0.0,-0.6,0.0,0.000438690185546875,0.0028357505798339844,0.005163431167602539,0
1.0197410583496094,0.03944176807999611,-0.01711658574640751,-0.4791668951511383,0.0002061070758821925,-0.6813063179701032,0.018624020740389824,-0.007627347484230995,0.0160608422011137,0.0,0.0,-0.6,0.0,0.0005202293395996094,0.0030531883239746094,0.005723237991333008,0
1.029468059539795,0.039662256836891174,-0.01743619330227375,-0.4852546453475952,0.0003786906301272437,-0.6810499743934444,0.014610311016440392,-0.013064015656709671,0.01572060026228428,0.0,0.0,-0.6,0.0,0.0003809928894042969,0.0028066635131835938,0.0052068233489990234,0
1.0396950244903564,0.03987349569797516,-0.017750587314367294,-0.49127912521362305,0.0005457206174315486,-0.6808274057049996,0.010964104905724525,-0.01804022490978241,0.01540434081107378,0.0,0.0,-0.6,0.0,0.0006263256072998047,0.005245208740234375,0.009724855422973633,0
1.0496749877929688,0.03987349569797516,-0.017750587314367294,-0.49127912521362305,0.0005457206174315486,-0.6806423636979997,0.008488242514431477,-0.021321440115571022,0.015287994407117367,0.0,0.0,-0.6,0.0,0.0005438327789306641,0.005072593688964844,0.008038520812988281,0
1.0594370365142822,0.0404379665851593,-0.018664566799998283,-0.5090044140815735,0.0010441095883757137,-0.6804844248926433,0.003962034825235605,-0.02732132375240326,0.014892843551933765,0.0,0.0,-0.6,0.0,0.00037169456481933594,0.002516031265258789,0.0049397945404052734,0
1.0696525573730469,0.040605850517749786,-0.01895848475396633,-0.5148040056228638,0.001190498208110477,-0.6803430735900716,-0.0001398446038365364,-0.03232721984386444,0.01469816267490387,0.0,0.0,-0.6,0.0,0.0005702972412109375,0.0031702518463134766,0.005600690841674805,0
1.0795762538909912,0.04076383635401726,-0.019246218726038933,-0.5205389857292175,0.0013525023963665943,-0.6802171572709741,-0.004676681011915207,-0.03772180154919624,0.01448917482048273,0.0,0.0,-0.6,0.0,0.0005395412445068359,0.004540681838989258,0.007844924926757812,0
1.0894050598144531,0.04091174900531769,-0.019528763368725777,-0.5262099504470825,0.0014914168086740248,-0.6801231072721792,-0.008600050583481789,-0.04257521405816078,0.01427769660949707,0.0,0.0,-0.6,0.0,0.00047898292541503906,0.003053426742553711,0.005396604537963867,0
1.0995209217071533,0.041175417602062225,-0.020079024136066437,-0.5373592972755432,0.0017738047971719054,-0.6800577302353974,-0.01324344240128994,-0.04777099937200546,0.014021990820765495,0.0,0.0,-0.6,0.0,0.0005216598510742188,0.002991914749145508,0.005518436431884766,0
1.1093816757202148,0.04129015654325485,-0.020344454795122147,-0.5428367853164673,0.0019143358095648736,-0.6800256806669893,-0.01738525927066803,-0.05221622437238693,0.013781344518065453,0.0,0.0,-0.6,0.0,0.00037550926208496094,0.002579927444458008,0.004827022552490234,0
1.1194992065429688,0.04139550030231476,-0.020602667704224586,-0.548249363899231,0.0020424183938298575,-0.6800179084482612,-0.021184571087360382,-0.05598887801170349,0.013560731895267963,0.0,0.0,-0.6,0.0,0.0005075931549072266,0.0028922557830810547,0.0053730010986328125,0
1.1295650005340576,0.04149140790104866,-0.020853979513049126,-0.5535975098609924,0.0021891822337547088,-0.680034895052779,-0.0246286541223526,-0.05939086899161339,0.013350828550755978,0.0,0.0,-0.6,0.0,0.0003485679626464844,0.0028226375579833984,0.0051805973052978516,0
1.1393845081329346,0.04164893552660942,-0.021335801109671593,-0.5641392469406128,0.0024526048185672905,-0.6800774400660488,-0.02869720198214054,-0.06308163702487946,0.013116911053657532,0.0,0.0,-0.6,0.0,0.00040030479431152344,0.002657651901245117,0.0050144195556640625,0
1.1496670246124268,0.041713107377290726,-0.02156439982354641,-0.5693153738975525,0.002606929200479721,-0.6801420543721508,-0.03231067210435867,-0.06598062813282013,0.012847122736275196,0.0,0.0,-0.6,0.0,0.0004990100860595703,0.0029425621032714844,0.0052831172943115234,0
1.1595406532287598,0.04176771640777588,-0.02178466133773327,-0.5744271278381348,0.002751956602564098,-0.6802178381708534,-0.03554914891719818,-0.06839418411254883,0.012591826729476452,0.0,0.0,-0.6,0.0,0.0004029273986816406,0.002655029296875,0.0051136016845703125,0
1.1694862842559814,0.0418122299015522,-0.021997593343257904,-0.5794751048088074,0.002867768560401832,-0.6803051085953493,-0.03849203512072563,-0.07047458738088608,0.012358218431472778,0.0,0.0,-0.6,0.0,0.00044155120849609375,0.0028810501098632812,0.005268096923828125,0
1.1797490119934082,0.0418727733194828,-0.0223992969840765,-0.5893834829330444,0.0031299723119305,-0.6804136723558859,-0.041692283004522324,-0.07245564460754395,0.012071693316102028,0.0,0.0,-0.6,0.0,0.0004911422729492188,0.002959728240966797,0.0054934024810791016,0
1.1894562244415283,0.04188890755176544,-0.022588370367884636,-0.5942456722259521,0.0032444522651020927,-0.680528066439638,-0.04455579072237015,-0.07395356148481369,0.011823056265711784,0.0,0.0,-0.6,0.0,0.000377655029296875,0.002654552459716797,0.00505375862121582,0
1.1997227668762207,0.04189516231417656,-0.022768115624785423,-0.5990455150604248,0.0033626595922376305,-0.6806522913564015,-0.04716750979423523,-0.07517225295305252,0.011599059216678143,0.0,0.0,-0.6,0.0,0.00048613548278808594,0.002911806106567383,0.00540471076965332,0
1.20949125289917,0.04189061000943184,-0.022938817739486694,-0.6038146018981934,0.003464897264472108,-0.6807820198365226,-0.049510516226291656,-0.07615925371646881,0.011401108466088772,0.0,0.0,-0.6,0.0,0.00038504600524902344,0.0027933120727539062,0.00524592399597168,0
1.2194523811340332,0.041854649782180786,-0.023256678134202957,-0.6131659150123596,0.0037126112664121447,-0.6809509827767681,-0.051815446466207504,-0.07666022330522537,0.011143037118017673,0.0,0.0,-0.6,0.0,0.00038313865661621094,0.0026412010192871094,0.00506901741027832,0
1.2296903133392334,0.04182571545243263,-0.023404592648148537,-0.617747962474823,0.0038202302347415517,-0.6811232697212394,-0.0537908561527729,-0.0767761692404747,0.010923297144472599,0.0,0.0,-0.6,0.0,0.0005486011505126953,0.0030100345611572266,0.005347251892089844,0
1.239471197128296,0.04178956151008606,-0.023544566705822945,-0.622267484664917,0.003926568577736132,-0.6813007183536951,-0.055434584617614746,-0.07670716196298599,0.010730734094977379,0.0,0.0,-0.6,0.0,0.0003757476806640625,0.002568960189819336,0.005014896392822266,0
1.2496180534362793,0.041744112968444824,-0.023678291589021683,-0.6267253160476685,0.004045307485678332,-0.6814836050743484,-0.056642018258571625,-0.07660342007875443,0.010553850792348385,0.0,0.0,-0.6,0.0,0.0004820823669433594,0.002880096435546875,0.005158185958862305,0
1.25970458984375,0.041636351495981216,-0.023929789662361145,-0.6354579925537109,0.004255392169718743,-0.6817074260872799,-0.05757727846503258,-0.07612009346485138,0.010328847914934158,0.0,0.0,-0.6,0.0,0.0005207061767578125,0.0029249191284179688,0.005764484405517578,0
1.2694604396820068,0.04157010838389397,-0.024046849459409714,-0.6397339701652527,0.004359203448739942,-0.6819307833817517,-0.058233994990587234,-0.07543127983808517,0.01014547049999237,0.0,0.0,-0.6,0.0,0.0004029273986816406,0.002681732177734375,0.005024909973144531,0
1.2798762321472168,0.04149698466062546,-0.024157730862498283,-0.6439854502677917,0.0044696734919705905,-0.6821552755048067,-0.05870653688907623,-0.07460635155439377,0.009988038800656796,0.0,0.0,-0.6,0.0,0.0005106925964355469,0.0030624866485595703,0.005516529083251953,0
1.289480447769165,0.041832905262708664,-0.02445782534778118,-0.648835301399231,0.004578386039847151,-0.6823485476435678,-0.05890367925167084,-0.073245108127594,0.009859083220362663,0.0,0.0,-0.6,0.0,0.00036978721618652344,0.0027000904083251953,0.005088090896606445,0
1.2995386123657227,0.04246208444237709,-0.02503112331032753,-0.6583112478256226,0.004802159527669912,-0.6825366604830728,-0.05808953568339348,-0.07058820873498917,0.00968453474342823,0.0,0.0,-0.6,0.0,0.0004055500030517578,0.002735614776611328,0.0051190853118896484,0
1.3096346855163574,0.04275628924369812,-0.025305354967713356,-0.6629399061203003,0.0049123001024757775,-0.6827006132615459,-0.057150792330503464,-0.06775113195180893,0.0095369853079319,0.0,0.0,-0.6,0.0,0.0005044937133789062,0.002995014190673828,0.00540924072265625,0
1.3195338249206543,0.04303831607103348,-0.025570353493094444,-0.6674961447715759,0.00501523681555767,-0.6828511991432343,-0.05614404007792473,-0.06485848128795624,0.009404999203979969,0.0,0.0,-0.6,0.0,0.0003905296325683594,0.0027434825897216797,0.005347013473510742,0
1.3295891284942627,0.04330692067742348,-0.025826506316661835,-0.6719799041748047,0.005126968631881918,-0.6829970466100111,-0.054962318390607834,-0.06192227825522423,0.009275796823203564,0.0,0.0,-0.6,0.0,0.0004508495330810547,0.0028388500213623047,0.005171775817871094,0
1.339787483215332,0.04381181672215462,-0.026314793154597282,-0.6807318925857544,0.005352342623852966,-0.6831647336288835,-0.052951209247112274,-0.057729728519916534,0.009084383957087994,0.0,0.0,-0.6,0.0,0.0005598068237304688,0.0030715465545654297,0.005536079406738281,0
1.3494880199432373,0.04404890909790993,-0.026548445224761963,-0.6850297451019287,0.0054535842187598054,-0.6833138738717706,-0.050906360149383545,-0.053801339119672775,0.00892622396349907,0.0,0.0,-0.6,0.0,0.00040030479431152344,0.003180265426635742,0.006310701370239258,0
1.3596796989440918,0.04427479952573776,-0.026774922385811806,-0.6892601251602173,0.005526499549889599,-0.683451019528343,-0.04889773204922676,-0.050043538212776184,0.00879728700965643,0.0,0.0,-0.6,0.0,0.0006742477416992188,0.0039823055267333984,0.006587982177734375,0
1.369446039199829,0.04449094459414482,-0.026994427666068077,-0.6934238076210022,0.005607339450246972,-0.6835801650118513,-0.0468827448785305,-0.04642206057906151,0.008683066815137863,0.0,0.0,-0.6,0.0,0.00033283233642578125,0.002808809280395508,0.005214214324951172,0
1.3796260356903076,0.044893670827150345,-0.027412990108132362,-0.7015525102615356,0.005806447421182601,-0.6837435007705007,-0.043944183737039566,-0.04180409014225006,0.00850619189441204,0.0,0.0,-0.6,0.0,0.00041103363037109375,0.0027189254760742188,0.00530552864074707,0
1.389631986618042,0.04508357122540474,-0.027615319937467575,-0.7055183053016663,0.005900183747146044,-0.6838997863247572,-0.04114778712391853,-0.03742654249072075,0.008353356271982193,0.0,0.0,-0.6,0.0,0.0005114078521728516,0.0031888484954833984,0.005773305892944336,0
1.3994646072387695,0.045265279710292816,-0.02781282737851143,-0.7094200849533081,0.005973058004229517,-0.684046275738875,-0.03848879039287567,-0.03347118943929672,0.008228731341660023,0.0,0.0,-0.6,0.0,0.0004184246063232422,0.00262451171875,0.0051021575927734375,0
1.4095268249511719,0.045437462627887726,-0.028005141764879227,-0.7132588624954224,0.006057636651128888,-0.6841900678406989,-0.03596058860421181,-0.02985977940261364,0.008115879260003567,0.0,0.0,-0.6,0.0,0.00045180320739746094,0.0030341148376464844,0.0054471492767333984,0
1.419658899307251,0.04576006531715393,-0.02837478555738926,-0.7207932472229004,0.006208711431526444,-0.6843645118820713,-0.03265320137143135,-0.025273693725466728,0.00796095933765173,0.0,0.0,-0.6,0.0,0.0005037784576416016,0.0029752254486083984,0.00565648078918457,0
1.429485559463501,0.04591328278183937,-0.02855420857667923,-0.7244887948036194,0.006272910652655007,-0.6845295963187112,-0.02949855662882328,-0.02113249897956848,0.007837380282580853,0.0,0.0,-0.6,0.0,0.0003943443298339844,0.002711772918701172,0.005107402801513672,0
1.4397518634796143,0.04606008157134056,-0.02873053401708603,-0.7281222939491272,0.006336275187644991,-0.6846930928713467,-0.026524141430854797,-0.0173637792468071,0.0077325389720499516,0.0,0.0,-0.6,0.0,0.00047707557678222656,0.0029098987579345703,0.005499124526977539,0
1.449450969696045,0.04620162397623062,-0.028902767226099968,-0.7316938638687134,0.006404151908334209,-0.6848557192248778,-0.023720758035779,-0.013766743242740631,0.007637293543666601,0.0,0.0,-0.6,0.0,0.0003554821014404297,0.0027337074279785156,0.005191802978515625,0
1.4597358703613281,0.046470802277326584,-0.02923586033284664,-0.7386550307273865,0.006563631842816044,-0.6850610645039021,-0.020216185599565506,-0.009407089091837406,0.007487195543944836,0.0,0.0,-0.6,0.0,0.00040602684020996094,0.002701997756958008,0.0052983760833740234,0
1.4696884155273438,0.04660049080848694,-0.029398558661341667,-0.7420463562011719,0.006646671593291746,-0.6852581581874843,-0.01701497472822666,-0.005449076648801565,0.007359826471656561,0.0,0.0,-0.6,0.0,0.0004954338073730469,0.0031642913818359375,0.005734920501708984,0
1.479576587677002,0.046728093177080154,-0.02955886721611023,-0.7453775405883789,0.006727734919426499,-0.685455998131022,-0.014074370265007019,-0.0017362767830491066,0.007243935018777847,0.0,0.0,-0.6,0.0,0.0003845691680908203,0.0027680397033691406,0.005306243896484375,0
1.4895339012145996,0.04685254022479057,-0.02971659228205681,-0.7486497163772583,0.006819436739803319,-0.6856488560419344,-0.011244754306972027,0.0015940750017762184,0.0071364594623446465,0.0,0.0,-0.6,0.0,0.0004341602325439453,0.0028786659240722656,0.00534510612487793,0
1.4996099472045898,0.047091707587242126,-0.03002629615366459,-0.7550913691520691,0.006982681711947732,-0.6858836586925573,-0.007807926274836063,0.00552748516201973,0.0069762300699949265,0.0,0.0,-0.6,0.0,0.0005156993865966797,0.003124237060546875,0.005713939666748047,0
1.5094959735870361,0.04720824956893921,-0.03017846867442131,-0.7582259774208069,0.007053110125913966,-0.686104000753081,-0.0046785734593868256,0.009091251529753208,0.006850790232419968,0.0,0.0,-0.6,0.0,0.00040602684020996094,0.0029027462005615234,0.005334377288818359,0
1.5196812152862549,0.04732388257980347,-0.030329598113894463,-0.7613053321838379,0.007129883560736137,-0.6863108482019054,-0.0019060142803937197,0.012462996877729893,0.006745236460119486,0.0,0.0,-0.6,0.0,0.0005474090576171875,0.0030028820037841797,0.005696535110473633,0
1.529494047164917,0.047438643872737885,-0.03047742135822773,-0.7643305063247681,0.007208658847887464,-0.686507628697904,0.00046236743219196796,0.015555244870483875,0.006650911178439856,0.0,0.0,-0.6,0.0,0.00040912628173828125,0.003299713134765625,0.0057828426361083984,0
1.5393991470336914,0.04766375944018364,-0.030767297372221947,-0.7702158093452454,0.007332776622363042,-0.6867583015132411,0.003427662653848529,0.018952850252389908,0.006507386453449726,0.0,0.0,-0.6,0.0,0.00040030479431152344,0.0027053356170654297,0.0052607059478759766,0
1.549633264541626,0.04777367413043976,-0.030911294743418694,-0.7730759382247925,0.007392836345574466,-0.6869988087665698,0.006011254154145718,0.021728185936808586,0.006397711578756571,0.0,0.0,-0.6,0.0,0.0005929470062255859,0.003230571746826172,0.005760669708251953,0
1.5593926906585693,0.04788109287619591,-0.03105492703616619,-0.7758824825286865,0.007442139325256739,-0.6872321369837489,0.008404289372265339,0.024188045412302017,0.0063120475970208645,0.0,0.0,-0.6,0.0,0.0003769397735595703,0.002633333206176758,0.005291938781738281,0
1.5695734024047852,0.047988615930080414,-0.031198926270008087,-0.7786619067192078,0.00749029533882768,-0.6874583719156206,0.010599958710372448,0.026520296931266785,0.006241717375814915,0.0,0.0,-0.6,0.0,0.0005269050598144531,0.003098011016845703,0.005476713180541992,0
1.5797755718231201,0.048204392194747925,-0.03148418292403221,-0.7840616106987,0.007585222423022089,-0.6877400427806117,0.013097460381686687,0.029081294313073158,0.006123983301222324,0.0,0.0,-0.6,0.0,0.00049591064453125,0.0028815269470214844,0.005372524261474609,0
1.5894699096679688,0.04831189289689064,-0.031626299023628235,-0.7866812348365784,0.0076406240521196,-0.6880075745194332,0.015253479592502117,0.031185830011963844,0.006036331877112389,0.0,0.0,-0.6,0.0,0.0003750324249267578,0.002592802047729492,0.004873752593994141,0
1.5996644496917725,0.04841912165284157,-0.03176863491535187,-0.7892498970031738,0.007723683628441602,-0.688263796263662,0.01711667887866497,0.033031120896339417,0.005956176668405533,0.0,0.0,-0.6,0.0,0.0005242824554443359,0.0029234886169433594,0.00552821159362793,0
1.6094601154327393,0.0485265851020813,-0.03190955892205238,-0.7917682528495789,0.007788635966087701,-0.6885103043080667,0.018642770126461983,0.034675125032663345,0.00589000666514039,0.0,0.0,-0.6,0.0,0.0003559589385986328,0.002802133560180664,0.005112648010253906,0
1.619534969329834,0.04863477870821953,-0.03204985335469246,-0.7942382097244263,0.007835410307480703,-0.6887465134629756,0.02008717507123947,0.036077938973903656,0.005839221645146608,0.0,0.0,-0.6,0.0,0.0009262561798095703,0.008131980895996094,0.011820077896118164,0
1.6317241191864014,0.04863477870821953,-0.03204985335469246,-0.7942382097244263,0.007835410307480703,-0.6889299715437359,0.021022344008088112,0.037018705159425735,0.005844144616276026,0.0,0.0,-0.6,0.0,0.0004677772521972656,0.0027611255645751953,0.005179405212402344,0
1.6394054889678955,0.0489632822573185,-0.032468169927597046,-0.8013622760772705,0.008045075151613281,-0.6892240651424664,0.022644005715847015,0.03856470435857773,0.005702798720449209,0.0,0.0,-0.6,0.0,0.0003883838653564453,0.002567291259765625,0.0050487518310546875,0
1.6495561599731445,0.04907337576150894,-0.03260774537920952,-0.8036446571350098,0.008093110201654987,-0.6895039977732855,0.024166621267795563,0.039709120988845825,0.005603434983640909,0.0,0.0,-0.6,0.0,0.0004744529724121094,0.002906322479248047,0.005234479904174805,0
1.6595377922058105,0.049182821065187454,-0.03274916484951973,-0.8058803081512451,0.00814635084095632,-0.6897723960103949,0.02551506832242012,0.0405549481511116,0.005529586225748062,0.0,0.0,-0.6,0.0,0.0004963874816894531,0.0031921863555908203,0.005776882171630859,0
1.6695325374603271,0.04939878731966019,-0.03303300961852074,-0.8102138638496399,0.008252573193008251,-0.6900848055746928,0.026788458228111267,0.041131000965833664,0.005444384645670652,0.0,0.0,-0.6,0.0,0.00040411949157714844,0.0028314590454101562,0.005310535430908203,0
1.6799049377441406,0.04950561001896858,-0.03317476809024811,-0.8123126029968262,0.00831830449151121,-0.6903851118284048,0.027632683515548706,0.04139428213238716,0.0053799874149262905,0.0,0.0,-0.6,0.0,0.0004875659942626953,0.0028908252716064453,0.005472421646118164,0
1.689443826675415,0.04967952147126198,-0.03324095159769058,-0.8150985240936279,0.00837539910355117,-0.690647045147201,0.02810743823647499,0.041363634169101715,0.005342845804989338,0.0,0.0,-0.6,0.0,0.00037288665771484375,0.0027627944946289062,0.005155801773071289,0
1.69952392578125,0.05002130568027496,-0.033378250896930695,-0.8204860687255859,0.008504350941166814,-0.6908944698883663,0.028195353224873543,0.04121241346001625,0.005281275603920221,0.0,0.0,-0.6,0.0,0.00042438507080078125,0.002811431884765625,0.005255460739135742,0
1.7096521854400635,0.050189193338155746,-0.03344842046499252,-0.8230872750282288,0.008577832737695107,-0.6911110067493689,0.027965122833848,0.0408477783203125,0.00523410877212882,0.0,0.0,-0.6,0.0,0.0005092620849609375,0.0030035972595214844,0.005431413650512695,0
1.7194855213165283,0.050353460013866425,-0.033519864082336426,-0.8256308436393738,0.008632190337678375,-0.691306988469077,0.027616405859589577,0.04033215716481209,0.005197417922317982,0.0,0.0,-0.6,0.0,0.00039649009704589844,0.0028171539306640625,0.005326509475708008,0
1.7296874523162842,0.050515081733465195,-0.03359229490160942,-0.8281187415122986,0.008673661967336918,-0.6914814037613265,0.02707195281982422,0.039799995720386505,0.005172331817448139,0.0,0.0,-0.6,0.0,0.0004699230194091797,0.0029404163360595703,0.005324602127075195,0
1.739645004272461,0.050675809383392334,-0.03366529941558838,-0.8305525779724121,0.008711882438411913,-0.69164078027853,0.02643260359764099,0.03928474336862564,0.005152182187885046,0.0,0.0,-0.6,0.0,0.0005059242248535156,0.0029404163360595703,0.005497932434082031,0
1.749474048614502,0.05083409696817398,-0.03373908996582031,-0.8329334259033203,0.008742713799901908,-0.6917877714387866,0.025705885142087936,0.03859565407037735,0.0051362100057303905,0.0,0.0,-0.6,0.0,0.00037097930908203125,0.0026099681854248047,0.004872322082519531,0
1.7597503662109375,0.051142483949661255,-0.03389091044664383,-0.8375368714332581,0.008846768464978843,-0.6919573062987675,0.024757781997323036,0.03761059790849686,0.005076198372989893,0.0,0.0,-0.6,0.0,0.0004742145538330078,0.002893686294555664,0.005567312240600586,0
1.769460678100586,0.05129381641745567,-0.033967964351177216,-0.8397615551948547,0.008898617633448885,-0.6921148906566522,0.023733031004667282,0.03654296696186066,0.005025375168770552,0.0,0.0,-0.6,0.0,0.0003635883331298828,0.0026793479919433594,0.005037069320678711,0
1.7798278331756592,0.05158897116780281,-0.0341235026717186,-0.8440956473350525,0.009008698224753092,-0.6923001719676704,0.022527702152729034,0.03526720777153969,0.004937429446727037,0.0,0.0,-0.6,0.0,0.0004382133483886719,0.0028030872344970703,0.005243062973022461,0
1.7895431518554688,0.05173375457525253,-0.03420207276940346,-0.8462067246437073,0.009057335197459472,-0.6924708985193084,0.021301845088601112,0.03391675651073456,0.004870369099080563,0.0,0.0,-0.6,0.0,0.0004916191101074219,0.0030977725982666016,0.00549626350402832,0
1.7994639873504639,0.05187545716762543,-0.03428058698773384,-0.8482698798179626,0.009098504021169952,-0.6926327964448606,0.02002277411520481,0.03260103985667229,0.0048171039670705795,0.0,0.0,-0.6,0.0,0.0004172325134277344,0.0028231143951416016,0.005285978317260742,0
1.8095622062683105,0.05201549828052521,-0.034358784556388855,-0.8502848148345947,0.009140732301076402,-0.6927920991659794,0.018731750547885895,0.03136207535862923,0.004770189523696899,0.0,0.0,-0.6,0.0,0.0004684925079345703,0.0030705928802490234,0.005864620208740234,0
1.8194613456726074,0.05215412378311157,-0.034436389803886414,-0.8522523045539856,0.009177662691774906,-0.6929472712608323,0.017430758103728294,0.030232751742005348,0.0047303009778261185,0.0,0.0,-0.6,0.0,0.0004665851593017578,0.002900362014770508,0.00550389289855957,0
1.829566240310669,0.052424389868974686,-0.034592900425195694,-0.8560506701469421,0.009271742072175966,-0.6931250689519277,0.0160395335406065,0.028651854023337364,0.004658801946789026,0.0,0.0,-0.6,0.0,0.0004436969757080078,0.0028176307678222656,0.0051898956298828125,0
1.8397002220153809,0.052552539855241776,-0.034671276807785034,-0.8578830361366272,0.009312540887330648,-0.6933003056850539,0.014662332832813263,0.02691997028887272,0.0046015516854822636,0.0,0.0,-0.6,0.0,0.0004930496215820312,0.0029573440551757812,0.005492210388183594,0
1.8494868278503418,0.05267443507909775,-0.03474768251180649,-0.8596693873405457,0.009372515994480517,-0.6934781030375067,0.013132170774042606,0.025181295350193977,0.0045450967736542225,0.0,0.0,-0.6,0.0,0.00036835670471191406,0.00275421142578125,0.005236387252807617,0
1.8596587181091309,0.05290600657463074,-0.03489576280117035,-0.8631680607795715,0.00945880668093782,-0.6936825955632391,0.011349460110068321,0.023099977523088455,0.004465450067073107,0.0,0.0,-0.6,0.0,0.0004639625549316406,0.0028624534606933594,0.005280256271362305,0
1.869612455368042,0.0530158206820488,-0.03496863320469856,-0.8648518323898315,0.009485120682520365,-0.6938802255378327,0.009795306250452995,0.021127380430698395,0.004411054775118828,0.0,0.0,-0.6,0.0,0.0005223751068115234,0.003122091293334961,0.005501270294189453,0
1.8796720504760742,0.05312216281890869,-0.03504164144396782,-0.866492748260498,0.009520104908359646,-0.6940733986855371,0.008395747281610966,0.019240546971559525,0.004369731992483139,0.0,0.0,-0.6,0.0,0.0004646778106689453,0.002733945846557617,0.005251169204711914,0
1.889601469039917,0.05322501063346863,-0.03511429205536842,-0.8680921792984009,0.009559492380856566,-0.694256334567122,0.007047492079436779,0.017430417239665985,0.004338277969509363,0.0,0.0,-0.6,0.0,0.00047969818115234375,0.002944469451904297,0.00524592399597168,0
1.8996272087097168,0.053325045853853226,-0.03518597036600113,-0.8696526288986206,0.009613939006402684,-0.6944271914404743,0.005638536065816879,0.01572844758629799,0.004308778326958418,0.0,0.0,-0.6,0.0,0.0004706382751464844,0.0029337406158447266,0.005510091781616211,0
1.9095194339752197,0.05351167544722557,-0.03532029315829277,-0.8726564049720764,0.009684155979755091,-0.6946291587904385,0.003748454386368394,0.013536660000681877,0.004253223072737455,0.0,0.0,-0.6,0.0,0.00041031837463378906,0.0028390884399414062,0.0052890777587890625,0
1.9197161197662354,0.053597062826156616,-0.03538409620523453,-0.8740997910499573,0.009706290032680106,-0.6948232507922751,0.002102831844240427,0.011438647285103798,0.004218506161123514,0.0,0.0,-0.6,0.0,0.0005278587341308594,0.002968311309814453,0.00558924674987793,0
1.9295001029968262,0.053676292300224304,-0.03544715791940689,-0.8755477070808411,0.009735952152847067,-0.6950148190442742,0.0006345049478113651,0.009350098669528961,0.004193248227238655,0.0,0.0,-0.6,0.0,0.00041103363037109375,0.0028336048126220703,0.005298614501953125,0
1.9396142959594727,0.0537491999566555,-0.035507895052433014,-0.8769555687904358,0.009776325425014437,-0.6952045334377817,-0.0007992561440914869,0.007335010450333357,0.004185913596302271,0.0,0.0,-0.6,0.0,0.00042319297790527344,0.002786397933959961,0.0052835941314697266,0
1.949666976928711,0.05387849733233452,-0.03562541306018829,-0.8796563744544983,0.009855116735469866,-0.6954253579060703,-0.002358489902690053,0.004941919352859259,0.004148855339735746,0.0,0.0,-0.6,0.0,0.0005512237548828125,0.00307464599609375,0.0056209564208984375,0
1.9594967365264893,0.0539347268640995,-0.03568034991621971,-0.8809510469436646,0.009875439709073845,-0.6956309995846065,-0.0038456551264971495,0.002812323858961463,0.004135339055210352,0.0,0.0,-0.6,0.0,0.0003948211669921875,0.002733945846557617,0.005409955978393555,0
1.9695954322814941,0.05398780480027199,-0.035732876509428024,-0.882209837436676,0.009908588267003075,-0.6958354886532769,-0.005175092723220587,0.0009638280607759953,0.004125937819480896,0.0,0.0,-0.6,0.0,0.0005106925964355469,0.00312042236328125,0.005608797073364258,0
1.9797437191009521,0.05408211424946785,-0.03583167493343353,-0.8846166133880615,0.009951057695062163,-0.6960754125709447,-0.006562238559126854,-0.0012307357974350452,0.004108587745577097,0.0,0.0,-0.6,0.0,0.0005135536193847656,0.002975940704345703,0.005570650100708008,0
1.9894614219665527,0.05412178859114647,-0.0358770377933979,-0.8857659697532654,0.00997318607139456,-0.6963058850090209,-0.007883920334279537,-0.0032155173830688,0.004104366526007652,0.0,0.0,-0.6,0.0,0.0003902912139892578,0.002739429473876953,0.005150794982910156,0
1.999636173248291,0.054156262427568436,-0.035919416695833206,-0.8868710994720459,0.010007129436342284,-0.6965238540056412,-0.009188729338347912,-0.00501816812902689,0.004106306936591864,0.0,0.0,-0.6,0.0,0.0005002021789550781,0.002997159957885742,0.005581378936767578,0
2.0095291137695312,0.054185815155506134,-0.035959307104349136,-0.8879430294036865,0.010036952468736043,-0.69673623301567,-0.01025812141597271,-0.006741372402757406,0.00411127507686615,0.0,0.0,-0.6,0.0,0.00040459632873535156,0.002871990203857422,0.0053272247314453125,0
2.0195047855377197,0.05422849580645561,-0.036034271121025085,-0.8899911046028137,0.010107588662876602,-0.6969785913059396,-0.011432945728302002,-0.008579983375966549,0.004086967557668686,0.0,0.0,-0.6,0.0,0.0004429817199707031,0.002815723419189453,0.005327939987182617,0
2.0295865535736084,0.054244257509708405,-0.036068305373191833,-0.8909654021263123,0.010148419547886794,-0.6972165248538191,-0.012452182359993458,-0.010144157335162163,0.0040648141875863075,0.0,0.0,-0.6,0.0,0.0005230903625488281,0.0031731128692626953,0.005766868591308594,0
2.039491653442383,0.054253410547971725,-0.036100391298532486,-0.8919074535369873,0.010175486497808394,-0.6974454134923593,-0.013337384909391403,-0.011634482070803642,0.0040578776970505714,0.0,0.0,-0.6,0.0,0.0004754066467285156,0.0030100345611572266,0.0056209564208984375,0
2.0496273040771484,0.05425756424665451,-0.03613174706697464,-0.8928182721138,0.010205775364265106,-0.6976678114979944,-0.014067049138247967,-0.01304177101701498,0.0040588052943348885,0.0,0.0,-0.6,0.0,0.0005080699920654297,0.003103017807006836,0.0054624080657958984,0
2.0595035552978516,0.05424980819225311,-0.03619220480322838,-0.8945503234863281,0.010247494039282046,-0.6979222236534084,-0.014666308648884296,-0.01463821530342102,0.004045255947858095,0.0,0.0,-0.6,0.0,0.0005426406860351562,0.0030870437622070312,0.005864858627319336,0
2.0694754123687744,0.054236795753240585,-0.036219522356987,-0.8954131007194519,0.010281290516035256,-0.6981659836775806,-0.015252227894961834,-0.01622498221695423,0.004044993780553341,0.0,0.0,-0.6,0.0,0.00045108795166015625,0.0030984878540039062,0.005852937698364258,0
2.0798208713531494,0.0543530210852623,-0.0361599363386631,-0.8969168066978455,0.010322601209860827,-0.6983726025484592,-0.015846427530050278,-0.01756991446018219,0.004060578066855669,0.0,0.0,-0.6,0.0,0.0005300045013427734,0.003092527389526367,0.005765676498413086,0
2.089474678039551,0.05446156486868858,-0.03610009700059891,-0.898375391960144,0.010375282085387752,-0.6985412090180444,-0.016632867977023125,-0.01863962784409523,0.004080561921000481,0.0,0.0,-0.6,0.0,0.0004115104675292969,0.0027947425842285156,0.00535273551940918,0
2.099618434906006,0.05464910715818405,-0.03597952052950859,-0.9011620283126831,0.010436123708854663,-0.6987039892851418,-0.017317673191428185,-0.019844092428684235,0.0040889005176723,0.0,0.0,-0.6,0.0,0.0004830360412597656,0.003184795379638672,0.005722761154174805,0
2.1096487045288086,0.05472974106669426,-0.03592060133814812,-0.9024879932403564,0.010460264498907827,-0.6988518323193607,-0.0178856011480093,-0.020843420177698135,0.004103079438209534,0.0,0.0,-0.6,0.0,0.0004990100860595703,0.003145933151245117,0.005517244338989258,0
2.1194498538970947,0.05480123683810234,-0.035861168056726456,-0.9037719368934631,0.010495089306278092,-0.6989801702795884,-0.01856442354619503,-0.021746328100562096,0.0041188932955265045,0.0,0.0,-0.6,0.0,0.0003821849822998047,0.002637147903442383,0.005037069320678711,0
2.1296422481536865,0.05486395210027695,-0.03580035641789436,-0.9050148129463196,0.010519302980110562,-0.6990997278187497,-0.019263161346316338,-0.022438248619437218,0.0041328128427267075,0.0,0.0,-0.6,0.0,0.0004856586456298828,0.0031020641326904297,0.005561113357543945,0
2.13958477973938,0.05491877719759941,-0.03573869168758392,-0.9062169194221497,0.010548934621596711,-0.6992091794392754,-0.019847474992275238,-0.02300962060689926,0.004144464153796434,0.0,0.0,-0.6,0.0,0.0004973411560058594,0.0030546188354492188,0.005753040313720703,0
2.1495280265808105,0.05500733107328415,-0.0356137678027153,-0.9085684418678284,0.010596430101305957,-0.6993185769766646,-0.0205420833081007,-0.023298457264900208,0.004141572397202253,0.0,0.0,-0.6,0.0,0.00042319297790527344,0.002836465835571289,0.00522923469543457,0
2.1596078872680664,0.055041272193193436,-0.035548288375139236,-0.9096879959106445,0.010633452652752317,-0.6994167405052262,-0.021283525973558426,-0.023557206615805626,0.004138336982578039,0.0,0.0,-0.6,0.0,0.0005142688751220703,0.0028955936431884766,0.00534820556640625,0
2.169466495513916,0.055067844688892365,-0.0354810431599617,-0.9107706546783447,0.010675795911146297,-0.6995093026350601,-0.02181282266974449,-0.02375778742134571,0.004124656785279512,0.0,0.0,-0.6,0.0,0.000362396240234375,0.0026984214782714844,0.0051381587982177734,0
2.17972993850708,0.05508735030889511,-0.03541307523846626,-0.9118165969848633,0.010761794595503927,-0.6996000562781372,-0.022255657240748405,-0.0238801222294569,0.004079902078956366,0.0,0.0,-0.6,0.0,0.0004303455352783203,0.002779722213745117,0.005139827728271484,0
2.189655065536499,0.055115681141614914,-0.03527424484491348,-0.9138047695159912,0.010839560599625295,-0.6996876734075623,-0.02277659811079502,-0.02367420308291912,0.004010828211903572,0.0,0.0,-0.6,0.0,0.0005056858062744141,0.0030486583709716797,0.005481719970703125,0
2.1995058059692383,0.05512237921357155,-0.035203322768211365,-0.9147505760192871,0.010894196123343436,-0.6997697324855449,-0.023075701668858528,-0.023329583927989006,0.0039418889209628105,0.0,0.0,-0.6,0.0,0.0004215240478515625,0.0027027130126953125,0.005398750305175781,0
2.209646463394165,0.05512445047497749,-0.03513341769576073,-0.915662944316864,0.010921068626782748,-0.6998543617434364,-0.023092040792107582,-0.022927571088075638,0.0038852549623697996,0.0,0.0,-0.6,0.0,0.0004820823669433594,0.002923727035522461,0.005267620086669922,0
2.219600200653076,0.05512121319770813,-0.03506569564342499,-0.9165566563606262,0.010962759027339642,-0.6999346457680152,-0.022876201197504997,-0.022575732320547104,0.0038333735428750515,0.0,0.0,-0.6,0.0,0.0004596710205078125,0.002845287322998047,0.005362033843994141,0
2.229539394378662,0.055095795542001724,-0.034929290413856506,-0.9182535409927368,0.011052305407763016,-0.700019843503897,-0.022640299052000046,-0.022138817235827446,0.0037577892653644085,0.0,0.0,-0.6,0.0,0.00042176246643066406,0.0027909278869628906,0.0051157474517822266,0
2.239664316177368,0.0550726093351841,-0.03486056998372078,-0.91905677318573,0.011089502876365166,-0.7001047197086142,-0.022305896505713463,-0.02185853384435177,0.0036917352117598057,0.0,0.0,-0.6,0.0,0.0004909038543701172,0.0028929710388183594,0.005408763885498047,0
2.2494852542877197,0.05504162609577179,-0.0347924530506134,-0.919829785823822,0.011129889541565989,-0.7001907585069951,-0.021849250420928,-0.021725649014115334,0.003632019041106105,0.0,0.0,-0.6,0.0,0.0003840923309326172,0.002753019332885742,0.005135059356689453,0
2.259608745574951,0.05500452220439911,-0.03472519293427467,-0.9205725789070129,0.011148951631398096,-0.700278623355641,-0.021395275369286537,-0.021552367135882378,0.0035835932940244675,0.0,0.0,-0.6,0.0,0.00047779083251953125,0.002893209457397461,0.00536656379699707,0
2.2696404457092285,0.0549144521355629,-0.034591738134622574,-0.9219725728034973,0.011180872443252176,-0.7003849854913572,-0.020805971696972847,-0.021087152883410454,0.003532703733071685,0.0,0.0,-0.6,0.0,0.0005548000335693359,0.003120899200439453,0.005682706832885742,0
2.2795729637145996,0.05486404523253441,-0.034524790942668915,-0.9226276874542236,0.011210619191938853,-0.7004962132952285,-0.020258890464901924,-0.020476358011364937,0.003484513144940138,0.0,0.0,-0.6,0.0,0.0003902912139892578,0.002687215805053711,0.005266666412353516,0
2.2896225452423096,0.05481075122952461,-0.03445820137858391,-0.9232863187789917,0.01125098182297887,-0.700598252870939,-0.01973389834165573,-0.019824694842100143,0.003436380298808217,0.0,0.0,-0.6,0.0,0.000537872314453125,0.0030808448791503906,0.00542140007019043,0
2.2994375228881836,0.054753378033638,-0.03439193218946457,-0.9239179491996765,0.011281702928626352,-0.7006993817906942,-0.019102368503808975,-0.019221298396587372,0.0033927359618246555,0.0,0.0,-0.6,0.0,0.0004649162292480469,0.002862215042114258,0.005358695983886719,0
2.309514045715332,0.05462724715471268,-0.034264858812093735,-0.9250966906547546,0.011340823959148622,-0.7008312478294038,-0.01814054697751999,-0.01840457320213318,0.0033389138989150524,0.0,0.0,-0.6,0.0,0.00043845176696777344,0.002778291702270508,0.0051517486572265625,0
2.319603443145752,0.05455925315618515,-0.03420218825340271,-0.9256427884101868,0.011364976536434994,-0.7009666815792027,-0.017240794375538826,-0.01764931157231331,0.0032922790851444006,0.0,0.0,-0.6,0.0,0.0004951953887939453,0.0029921531677246094,0.005627870559692383,0
