time,x,y,z,yaw,throttle,roll_rate,pitch_rate,yaw_rate,x_ref,y_ref,z_ref,yaw_ref,pred_time,nr_time,metadata
1.1920928955078125e-06,0.06633066385984421,-0.05777352303266525,0.15523001551628113,-0.032569545345645566,-0.7307219931331952,0.15987421784656186,-0.26643072068590723,0.13787748999743077,0.5557046590133411,0.2262572251904151,-0.8131286125952075,0.33510371572561565,0.18735003471374512,0.1877303123474121,Sim
0.18880844116210938,0.06633066385984421,-0.05777352303266525,0.15523001551628113,-0.032569545345645566,-0.7521847528734937,0.2751996646188289,-0.4265015044801351,0.2640495214578684,0.5327740835999776,0.275956112170403,-0.8379780560852015,0.4141911112749945,0.0004367828369140625,0.0006566047668457031,Jax
0.19010138511657715,0.06602540612220764,-0.05941785126924515,0.14976374804973602,-0.03263108224425502,-0.7690691827220811,0.3412631507936462,-0.5385510531360945,0.35259607979511487,0.5326015323500207,0.2762889931546492,-0.8381444965773246,0.41473269837217563,0.0003199577331542969,0.0005159378051757812,1stOrderHold
0.19947123527526855,0.06599371880292892,-0.059453096240758896,0.1496485471725464,-0.03264266282222649,-0.7830290400286415,0.3773518224312742,-0.6169857371952662,0.41605482310275604,0.5313448578367045,0.27869811992636817,-0.8393490599631841,0.4186575320286799,0.0005064010620117188,0.0007410049438476562,QuatYawError
0.20931267738342285,0.06596087664365768,-0.05948669835925102,0.14953836798667908,-0.03263520454658635,-0.7947499659791178,0.39511303264237174,-0.6718900160366863,0.46201904656618714,0.5300132006963745,0.28122234457379935,-0.8406111722868996,0.42277990565904083,0.0004220008850097656,0.0006327629089355469,NoPyJoules
0.21945714950561523,0.06589725613594055,-0.05954936519265175,0.1493275910615921,-0.032623646250325364,-0.8046379955259128,0.40178729796198803,-0.7103230112256804,0.4957831319575571,0.5286279894163214,0.28381763300693197,-0.8419088165034659,0.4270292122048576,0.0005905628204345703,0.0009074211120605469,0
0.22951149940490723,0.06586450338363647,-0.059576280415058136,0.14922663569450378,-0.03259717140948234,-0.8129782999636832,0.4018805281089247,-0.7372261078579763,0.5209874281461526,0.5272425448092395,0.2863831331330059,-0.8431915665665028,0.43124076844222253,0.0007600784301757812,0.001169443130493164,0
0.2396552562713623,0.06583047658205032,-0.059601426124572754,0.14913100004196167,-0.032569675316730495,-0.8199935539150921,0.3984133351579978,-0.7560582755005834,0.5402134826467723,0.5258321632445591,0.288964593155541,-0.8444822965777705,0.43548977538241673,0.0007953643798828125,0.0012514591217041016,0
0.24970316886901855,0.06579490005970001,-0.059625886380672455,0.14904004335403442,-0.03256618655561323,-0.8258727525496089,0.39323804708698273,-0.7659107471990841,0.5552487377388919,0.5244226471455588,0.2915148146507219,-0.8457574073253609,0.43969863516917795,0.0009348392486572266,0.0014290809631347656,0
0.2593960762023926,0.06572087109088898,-0.05967583507299423,0.14887350797653198,-0.03254344276603402,-0.8307559270148854,0.38748780619814316,-0.7671769506415088,0.567287438205828,0.5230512102203833,0.29396841920007744,-0.8469842096000386,0.4437587906985719,0.0007872581481933594,0.001224517822265625,0
0.26961469650268555,0.06568450480699539,-0.05969898775219917,0.14879879355430603,-0.032544441684739335,-0.834752024902974,0.3818399961199329,-0.7630690921059419,0.5773200440233199,0.5215929610920355,0.2965481123515076,-0.8482740561757538,0.44803915636060176,0.0007822513580322266,0.0011944770812988281,0
0.27960848808288574,0.06564797461032867,-0.05972187966108322,0.14872923493385315,-0.03254235069196535,-0.8379770896481408,0.3766932849097828,-0.7560448498347666,0.5859119017506592,0.520154489759632,0.299064051304895,-0.8495320256524475,0.45222534598858366,0.0007944107055664062,0.0012030601501464844,0
0.2895827293395996,0.06560947000980377,-0.05974431708455086,0.1486719399690628,-0.032530732823336066,-0.8405457052107633,0.37216004183756446,-0.7476904278122348,0.5934886073338795,0.5187067322898334,0.30156811150584717,-0.8507840557529236,0.4564033463962136,0.0007159709930419922,0.0010993480682373047,0
0.29950380325317383,0.06557036936283112,-0.05976451560854912,0.14861781895160675,-0.03251811977824919,-0.8425660475030383,0.3683816627142829,-0.7390023537113787,0.6003459805049018,0.5172547335666555,0.30405187156616587,-0.8520259357830828,0.46055907611922775,0.0008652210235595703,0.0013780593872070312,0
0.3094778060913086,0.06550353020429611,-0.05980401486158371,0.1485191136598587,-0.03255601484345247,-0.8441348478821514,0.36556509940733506,-0.7306204505980656,0.6067270484970043,0.5157830000757601,0.30654183537137064,-0.8532709176856853,0.4647369766583168,0.0007927417755126953,0.001283407211303711,0
0.31986403465270996,0.06547526270151138,-0.059822965413331985,0.1484733670949936,-0.03254464667880332,-0.8453494001846766,0.3635246405133446,-0.7229759967319426,0.6128210093372858,0.5142377008917818,0.30912713724539675,-0.8545635686226983,0.4690875499045839,0.0015654563903808594,0.0026259422302246094,0
0.3299686908721924,0.06559223681688309,-0.05999000370502472,0.1479109525680542,-0.032538735232847574,-0.8462730224404796,0.3623633904516368,-0.7160713143657197,0.6186717970581537,0.5127218584626475,0.3116348758637403,-0.8558174379318702,0.473320178404074,0.001402139663696289,0.0024597644805908203,0
0.3397235870361328,0.06581304222345352,-0.06031307578086853,0.1468554139137268,-0.032494783391035176,-0.8469536303040569,0.3618865020458785,-0.7099386463602644,0.6242831710172884,0.5112468830754028,0.31404876141402854,-0.8570243807070143,0.47740629975409626,0.00131988525390625,0.0018758773803710938,0
0.35004615783691406,0.06591738015413284,-0.06046609580516815,0.14636091887950897,-0.0324830127153998,-0.8474646528444228,0.3619791702869844,-0.7046384124965882,0.6298281628275363,0.5096736982400935,0.3165955169017181,-0.858297758450859,0.48173020809994893,0.0008931159973144531,0.0014395713806152344,0
0.3597259521484375,0.06601949781179428,-0.060614969581365585,0.14588117599487305,-0.032496859476596404,-0.8478484165705826,0.3625842559339964,-0.7001326453201867,0.6352353454671643,0.5081869472729544,0.3189765298911433,-0.8594882649455716,0.4857848708595945,0.001013040542602539,0.0015149116516113281,0
0.36952924728393555,0.06611940264701843,-0.060760173946619034,0.14541685581207275,-0.03249267748873727,-0.84813886847223,0.3635689335402463,-0.6962886815361073,0.6405587272758475,0.50666989062113,0.32138080517973083,-0.8606904025898654,0.48989126552341505,0.0007843971252441406,0.0011944770812988281,0
0.37958431243896484,0.06630945205688477,-0.06104092299938202,0.144526407122612,-0.032519644203779084,-0.8483371325356102,0.36496361757234796,-0.6930925768345853,0.6458746601431785,0.5051020562640972,0.32383933170289975,-0.8619196658514499,0.49410312136640255,0.0007836818695068359,0.0011985301971435547,0
0.38977622985839844,0.06639906764030457,-0.0611751526594162,0.14410030841827393,-0.03251814584369542,-0.8484919066294885,0.36661599944705636,-0.6904777877635863,0.6511961693439908,0.5035007092945238,0.3263235139243132,-0.8631617569621566,0.498372301751854,0.0006737709045410156,0.0010347366333007812,0
0.39933013916015625,0.06648451834917068,-0.06130626052618027,0.1436876803636551,-0.03252521272845624,-0.8486160195464687,0.3685043255377814,-0.688354031799949,0.65642460044283,0.5019885107071319,0.32864499862014596,-0.8643224993100729,0.5023742339219162,0.0006818771362304688,0.0010242462158203125,0
0.4095621109008789,0.06656599789857864,-0.0614345520734787,0.1432880014181137,-0.032511037954966474,-0.8487207941405269,0.37058457491687574,-0.6866095068309505,0.6616864465556932,0.5003571188328148,0.3311234718852236,-0.8655617359426118,0.5066601922222351,0.0007510185241699219,0.0011258125305175781,0
0.4195272922515869,0.0667179599404335,-0.061680667102336884,0.1425659954547882,-0.03247022448330544,-0.8488060228531155,0.3728516704029862,-0.6850732886617259,0.666919760962945,0.4987565014025638,0.33352953738563307,-0.8667647686928165,0.5108343976253117,0.0010800361633300781,0.0015330314636230469,0
0.42958903312683105,0.0667887032032013,-0.06180068850517273,0.14222261309623718,-0.03246587477687604,-0.8488875334134217,0.3752972997374295,-0.6838182250942917,0.6721619413271593,0.49712863595818624,0.3359510668391353,-0.8679755334195676,0.5150490497874439,0.0010297298431396484,0.0016360282897949219,0
0.43967771530151367,0.0668557658791542,-0.06191738322377205,0.141890749335289,-0.03246902059231365,-0.848974138499876,0.37771922783073625,-0.6826943909568188,0.677417362489171,0.4954846077688488,0.338371103175419,-0.8691855515877095,0.5192749870946952,0.0013692378997802734,0.001898050308227539,0
0.4496886730194092,0.06692072004079819,-0.06203031167387962,0.1415705680847168,-0.032454130230836875,-0.8490634932623623,0.38020159557679556,-0.6816737367585934,0.6826631123116166,0.4938416003635347,0.3407645429770868,-0.8703822714885434,0.5234683672576204,0.0010073184967041016,0.0015175342559814453,0
0.4595656394958496,0.06704305112361908,-0.0622444748878479,0.1409592479467392,-0.03242021595124083,-0.8491461396474366,0.3826921603286659,-0.6804930737744783,0.6878738709477421,0.4922092532136988,0.34311812987776225,-0.8715590649388811,0.5276056213005721,0.0008573532104492188,0.00130462646484375,0
0.46996140480041504,0.06710361689329147,-0.0623469352722168,0.14066752791404724,-0.03243196424153408,-0.8492356394849861,0.385183342858401,-0.6793363673246579,0.6931587615025864,0.4904790498512088,0.3455868945099848,-0.8727934472549923,0.5319601892884742,0.0008027553558349609,0.001209259033203125,0
0.47945570945739746,0.06716319173574448,-0.06244657561182976,0.14038529992103577,-0.03242887808424884,-0.8493270503681594,0.3876494642925677,-0.678228562788951,0.6983483982355788,0.4888880602338791,0.34783396119521587,-0.8739169805976079,0.5359371543233169,0.0008063316345214844,0.0012731552124023438,0
0.4898545742034912,0.06722074747085571,-0.06254340708255768,0.14014442265033722,-0.0324152363519898,-0.84942292561648,0.39009980628245694,-0.6772418828452538,0.7036094772030146,0.4871336794533446,0.35028670877189455,-0.8751433543859473,0.5402930206022505,0.0006663799285888672,0.000993490219116211,0
0.49938082695007324,0.06732602417469025,-0.06272753328084946,0.13968463242053986,-0.03242341393927157,-0.8495110241230016,0.392606076675008,-0.6762913604073928,0.7087916760012722,0.48551571522947434,0.3525258717671824,-0.8762629358835912,0.5442833680215707,0.0006146430969238281,0.0009453296661376953,0
0.5093841552734375,0.0673753023147583,-0.06281544268131256,0.13946600258350372,-0.032428177366684,-0.8496058091052511,0.3950362995650149,-0.675352248655596,0.7139923272521467,0.4838056452817465,0.35486912741673204,-0.877434563708366,0.5484735523911878,0.0007002353668212891,0.0010619163513183594,0
0.5195550918579102,0.06742270290851593,-0.062900111079216,0.13925503194332123,-0.03242773381934564,-0.8497078309374919,0.3975156414950502,-0.6744569370291272,0.7192302507566454,0.48205532788792854,0.35724313968901017,-0.878621569844505,0.552733944345042,0.0007228851318359375,0.0010957717895507812,0
0.5294637680053711,0.06746828556060791,-0.06298315525054932,0.1390516608953476,-0.03241455800188225,-0.8498140333309935,0.40001952083595294,-0.6735792044438234,0.7244483150235358,0.48033894019236306,0.359547635974536,-0.879773817987268,0.5568844809039305,0.0006852149963378906,0.0010483264923095703,0
0.5395839214324951,0.0675525814294815,-0.06314151734113693,0.13866692781448364,-0.03246025781708762,-0.8499216022926768,0.4024338016868626,-0.6727363667567648,0.7297077644794903,0.4785745486569749,0.3618928037109508,-0.8809464018554753,0.5611236008585777,0.0007710456848144531,0.0011589527130126953,0
0.5494363307952881,0.0675901472568512,-0.06321615725755692,0.13848523795604706,-0.03246461123813889,-0.8500325076781826,0.4049021009179523,-0.6718535879046682,0.7349386039542254,0.47684583705105726,0.364167609332676,-0.882083804666338,0.5652505684418191,0.0007305145263671875,0.0011255741119384766,0
0.5595271587371826,0.06762618571519852,-0.06328920274972916,0.13833481073379517,-0.032477555997827624,-0.8501498383963022,0.4073539437204613,-0.6709644541575227,0.7401901332153169,0.47506408428495583,0.36648890272762197,-0.8832444513638109,0.5694774045659383,0.0007405281066894531,0.0011093616485595703,0
0.5696506500244141,0.06766077131032944,-0.0633593201637268,0.13819003105163574,-0.0324777423590703,-0.8502691039522637,0.40974428318523776,-0.6700194814412949,0.7454564593253113,0.4732652092357925,0.3688089501720389,-0.8844044750860194,0.5737179226801579,0.0007474422454833984,0.0011060237884521484,0
0.5794246196746826,0.06772664934396744,-0.06349144876003265,0.1379125714302063,-0.03247726901014481,-0.8503787751965668,0.4122673242251833,-0.6690312698598975,0.7506780122866163,0.471517691143014,0.3710405192686659,-0.8855202596343329,0.5778120335134503,0.0006456375122070312,0.0009756088256835938,0
0.589613676071167,0.06775809824466705,-0.06355582177639008,0.137781023979187,-0.03247020959912672,-0.8504939454337822,0.4147345342191728,-0.6680827427936966,0.7559309645137904,0.46968475687597105,0.37335804418595286,-0.8866790220929763,0.5820800154764113,0.0007016658782958984,0.0010466575622558594,0
0.5996184349060059,0.06778107583522797,-0.06361399590969086,0.137655109167099,-0.03246642271642475,-0.8506137387147605,0.4171625295911453,-0.6671738077065559,0.761178143944194,0.46787389267007834,0.3756248401766688,-0.8878124200883344,0.5862707990572736,0.0007891654968261719,0.0012254714965820312,0
0.6094837188720703,0.0678023248910904,-0.06366991996765137,0.1375342607498169,-0.03247043323032704,-0.8507360260855854,0.4195538009005655,-0.6662818800999132,0.7664022886369751,0.466077561043885,0.37785143521149106,-0.8889257176057455,0.5904031595417223,0.0007014274597167969,0.0010769367218017578,0
0.6195685863494873,0.06783951818943024,-0.06377536803483963,0.13730838894844055,-0.032480657152355416,-0.8508586432030512,0.4218561924656927,-0.665383341665388,0.7716471462923684,0.4642302940257333,0.38011871054814067,-0.8900593552740703,0.5946274989523196,0.0007843971252441406,0.0011992454528808594,0
0.6295647621154785,0.06785571575164795,-0.06382358074188232,0.1372046321630478,-0.03249453741854645,-0.850981238649826,0.42414441170650996,-0.6644667008855274,0.7768939582109065,0.46238838855056896,0.38235713427842305,-0.8911785671392115,0.5988146872657103,0.0007717609405517578,0.001178741455078125,0
0.6395044326782227,0.06786975264549255,-0.06386972218751907,0.13710379600524902,-0.03248506643517203,-0.8511033128938029,0.4263655197137432,-0.6635212555978589,0.7821244804901836,0.4605461929266377,0.3845740555221845,-0.8922870277610921,0.602978206734913,0.0008523464202880859,0.0013451576232910156,0
0.6499392986297607,0.06788194924592972,-0.0639123022556305,0.13700605928897858,-0.03248517082966838,-0.8512269607087299,0.4285465862224929,-0.6626173538832532,0.7874250142991333,0.4586007832764337,0.38689187323881774,-0.8934459366194089,0.6073491531635191,0.0013537406921386719,0.002743244171142578,0
0.659609317779541,0.06790002435445786,-0.06398966163396835,0.1368226259946823,-0.03244199437869991,-0.8513462112005798,0.4306776994397114,-0.6616977565422363,0.7911975100093933,0.45678755196814047,0.38903101722992905,-0.8945155086149645,0.6113997213129888,0.0009648799896240234,0.0014505386352539062,0
0.6696274280548096,0.06790987402200699,-0.06402535736560822,0.13673445582389832,-0.03244237831671046,-0.8514604418077552,0.4329027026535047,-0.6608397264119944,0.7938382570065753,0.45489852720516827,0.39123820103176116,-0.8956191005158806,0.6155960975321404,0.0008893013000488281,0.0014200210571289062,0
0.6796844005584717,0.06791732460260391,-0.0640612319111824,0.13664959371089935,-0.03244120047515653,-0.8515822665255717,0.43521991972897134,-0.65996921464902,0.7956867799046027,0.4529914475246665,0.39344472098314814,-0.896722360491574,0.6198087523234548,0.0009074211120605469,0.0014336109161376953,0
0.6894876956939697,0.06792478263378143,-0.06409589946269989,0.13656999170780182,-0.03245286303847396,-0.851710439514109,0.4375311804986453,-0.6589752373652876,0.7969807459332219,0.451122170475056,0.3955866369151952,-0.8977933184575976,0.6239151469872752,0.0005743503570556641,0.0008552074432373047,0
0.6993162631988525,0.0679427981376648,-0.06415915489196777,0.1364184021949768,-0.032456146734566954,-0.8518427680175866,0.4398071070006996,-0.6578196326962364,0.7978865221532553,0.44923790767571303,0.39772515925843505,-0.8988625796292175,0.6280321277164288,0.0007379055023193359,0.0016705989837646484,0
0.7093937397003174,0.06795184314250946,-0.06418711692094803,0.13634665310382843,-0.03244774179752692,-0.8519748313588389,0.44207052857268464,-0.656697481726325,0.7985205655072787,0.4472954003884286,0.39990852052857706,-0.8999542602642885,0.6322533712022588,0.0006365776062011719,0.0010025501251220703,0
0.7194442749023438,0.06796011328697205,-0.06421240419149399,0.13627804815769196,-0.0324542869073684,-0.8521056786373037,0.4442471707706051,-0.6555834217010998,0.798964395855095,0.44534751736831435,0.40207659565545334,-0.9010382978277266,0.6364633295429696,0.0006837844848632812,0.0010249614715576172,0
0.7296018600463867,0.06804788112640381,-0.06425867229700089,0.1358049362897873,-0.03248012050214383,-0.8522226592307199,0.4463789783436337,-0.6544047448467486,0.7992750770985666,0.4433682100791021,0.40425812334602895,-0.9021290616730144,0.6407181288585349,0.0007343292236328125,0.001148223876953125,0
0.739229679107666,0.06813271343708038,-0.06430217623710632,0.13534505665302277,-0.032478204668484924,-0.8523300631429049,0.44850334461693186,-0.6531986701125628,0.7994925539689967,0.4414822676512058,0.4063168804634494,-0.9031584402317246,0.6447510202762691,0.0004942417144775391,0.0007395744323730469,0
0.749401330947876,0.06828591227531433,-0.06438759714365005,0.1344636082649231,-0.032472531716399175,-0.8524154315632176,0.450754655571705,-0.6517485861141076,0.7996447877782977,0.43947941268361024,0.408482369053144,-0.904241184526572,0.649011711835746,0.0006082057952880859,0.0009138584136962891,0
0.7595095634460449,0.06836197525262833,-0.06442796438932419,0.13404060900211334,-0.03247193161328233,-0.8524963454818008,0.45298449505521204,-0.6503359803917315,0.7997513514448085,0.43747852267846704,0.41062457573197686,-0.9053122878659884,0.6532458383633494,0.0006968975067138672,0.0010712146759033203,0
0.7696607112884521,0.06843634694814682,-0.06446493417024612,0.13362951576709747,-0.03244584829133063,-0.8525757783143084,0.45516183207643,-0.6489365054188339,0.7998259460113659,0.4354586293084907,0.41276601381505534,-0.9063830069075276,0.6574979412283107,0.0010585784912109375,0.0016493797302246094,0
0.7797505855560303,0.06857810169458389,-0.06453444063663483,0.13285034894943237,-0.03241526993722982,-0.852635779585658,0.45741069484017555,-0.6476359765538646,0.7998781622079562,0.43344054075592425,0.41488467991625333,-0.9074423399581266,0.6617243778782664,0.000949859619140625,0.0014495849609375,0
0.7897748947143555,0.0686447024345398,-0.06456857919692993,0.1324760913848877,-0.032401180953916836,-0.8526976260443447,0.459681186280302,-0.6464345507735395,0.7999147135455693,0.4314253581450477,0.41697980808357776,-0.9084899040417889,0.6659233506794808,0.0008397102355957031,0.0013036727905273438,0
0.7994511127471924,0.06870874017477036,-0.06460102647542953,0.1321125626564026,-0.032402131390904615,-0.8527622054637334,0.46189350049811295,-0.6452546584987638,0.7999402994818985,0.4294705458724057,0.4189928999733264,-0.9094964499866631,0.6699765154110132,0.0006861686706542969,0.0010571479797363281,0
0.809638500213623,0.06877118349075317,-0.06463104486465454,0.1317593902349472,-0.032405351699295724,-0.8528321979368668,0.4641477637256484,-0.6440566648502417,0.799958209637329,0.4274023160552116,0.42110243436798245,-0.9105512171839911,0.6742437982941881,0.0007493495941162109,0.0011506080627441406,0
0.8194200992584229,0.06889106333255768,-0.06468183547258377,0.13108614087104797,-0.032404788882775225,-0.8529032001009852,0.4662872654749828,-0.6428326354066307,0.7999707467461303,0.4254067173287045,0.4231183343364072,-0.9115591671682035,0.6783411049207886,0.0007283687591552734,0.0011258125305175781,0
0.8298366069793701,0.06894729286432266,-0.06470389664173126,0.13076581060886383,-0.032406346884292565,-0.8529780805179538,0.4684708791553546,-0.6416468852236502,0.7999795227222912,0.42327113447237624,0.42525468453912124,-0.9126273422695605,0.6827043614717472,0.0011608600616455078,0.0017914772033691406,0
0.839745044708252,0.0690019354224205,-0.06472573429346085,0.13045546412467957,-0.03241226949402083,-0.853056302182536,0.4707450729298318,-0.640522510515138,0.7999856659056038,0.42122975860023143,0.4272768311874524,-0.9136384155937262,0.6868547981620948,0.0009741783142089844,0.0014743804931640625,0
0.8496034145355225,0.06905565410852432,-0.0647476390004158,0.13015514612197876,-0.03241617192618652,-0.8531357481504104,0.4730299549564198,-0.6393378922790568,0.7999899661339227,0.4191891103932508,0.42927903481036084,-0.9146395174051803,0.690984262458858,0.0007760524749755859,0.0011894702911376953,0
0.8596103191375732,0.06916134059429169,-0.06479094922542572,0.12957605719566345,-0.032425266474668125,-0.8532024004120102,0.47536834127268,-0.6381477566899617,0.7999929762937459,0.41710798324840576,0.4313014378719919,-0.9156507189359959,0.6951759448565883,0.0007581710815429688,0.0011239051818847656,0
0.8693621158599854,0.0692114382982254,-0.06481112539768219,0.12929843366146088,-0.032436902962236606,-0.8532739456447755,0.4776071163663324,-0.6370208985311931,0.7999950834056221,0.41507052311606046,0.4332625772440541,-0.916631288622027,0.699260767915579,0.0010259151458740234,0.0016255378723144531,0
0.879530668258667,0.06925997883081436,-0.0648299977183342,0.12902818620204926,-0.032444301657262906,-0.8533469100141505,0.4798451260374662,-0.6358752535830695,0.7999965583839355,0.4129361699753988,0.435297277186578,-0.9176486385932889,0.7035201611840245,0.0006690025329589844,0.0010256767272949219,0
0.8897082805633545,0.06930959969758987,-0.06484752148389816,0.1287645548582077,-0.03246141725388392,-0.8534236217103698,0.48208434216191987,-0.6347549630032076,0.7999975908687549,0.41078992777366313,0.43732326171804375,-0.9186616308590219,0.7077833494570234,0.0007245540618896484,0.0011227130889892578,0
0.8996191024780273,0.06940387934446335,-0.06487874686717987,0.1282617598772049,-0.032448957265117206,-0.8535022990126309,0.48426357689264327,-0.633601494289804,0.7999983136081285,0.40869039304483223,0.43928596908262446,-0.9196429845413122,0.7119347848327797,0.0010645389556884766,0.0016794204711914062,0
0.9096717834472656,0.06945090740919113,-0.06489153951406479,0.12802302837371826,-0.03244391432833293,-0.8535875293947915,0.4864770802751827,-0.6323997054897015,0.79999881952569,0.40655122697985363,0.44126647260037277,-0.9206332363001863,0.7161456419903586,0.0009386539459228516,0.0014226436614990234,0
0.9197814464569092,0.06949786096811295,-0.06490317732095718,0.12779392302036285,-0.032459162505310536,-0.8536784957559767,0.4886601489028451,-0.6311480759165979,0.799999173667983,0.4043902563811396,0.44324769660314783,-0.9216238483015738,0.7203803677292072,0.0008983612060546875,0.0013589859008789062,0
0.9295296669006348,0.06954451650381088,-0.06491352617740631,0.12757107615470886,-0.03245417548062153,-0.853765985826209,0.49077793293579935,-0.6299260219551536,0.7999994215675881,0.4022974013621259,0.44514806621761316,-0.9225740331088066,0.7244636927600848,0.000751495361328125,0.001168966293334961,0
0.9396054744720459,0.06963318586349487,-0.06492955982685089,0.127140611410141,-0.03245577830214321,-0.8538438375429016,0.4928157861518212,-0.6287414604602684,0.7999995950973117,0.4001248313072904,0.4471019116167056,-0.9235509558083528,0.7286842371661287,0.0007984638214111328,0.0012121200561523438,0
0.9494731426239014,0.06967392563819885,-0.06493469327688217,0.12693436443805695,-0.03245076516260403,-0.8539256985636123,0.494855074243466,-0.6275527677600977,0.7999997165681182,0.3979879432879935,0.4490051191215896,-0.9245025595607947,0.7328175963359861,0.0008285045623779297,0.00128936767578125,0
0.9595251083374023,0.06971343606710434,-0.06493841111660004,0.12673383951187134,-0.03245748543892496,-0.8540100839035005,0.49689742043513146,-0.6263074614142468,0.7999998015976828,0.3958018373680261,0.45093337150414425,-0.9254666857520721,0.7370281538879423,0.0008158683776855469,0.0012140274047851562,0
0.9696741104125977,0.06975302845239639,-0.06493961066007614,0.1265392303466797,-0.03247239082604348,-0.8540983035829026,0.49894332718567247,-0.6250651913902479,0.799999861118378,0.3935851501326362,0.45286943989970246,-0.9264347199498512,0.7412793579360358,0.0009791851043701172,0.0013778209686279297,0
0.9794650077819824,0.0698256567120552,-0.06493888050317764,0.12617039680480957,-0.03247681494156355,-0.8541867122487419,0.5010521632266964,-0.6238264335874378,0.7999999027828646,0.39143770265922856,0.4547268685011535,-0.9273634342505768,0.7453805594357307,0.0007009506225585938,0.0010998249053955078,0
0.9896814823150635,0.06986139714717865,-0.06493815034627914,0.12600213289260864,-0.032485476989203135,-0.8542794315247095,0.5031794498701527,-0.6225375203470814,0.7999999319480052,0.389187568300175,0.45665417624346394,-0.9283270881217319,0.7496600262808926,0.0006718635559082031,0.0010352134704589844,0
0.9996235370635986,0.06989530473947525,-0.06493675708770752,0.12583909928798676,-0.032490929957178824,-0.8543726862519606,0.5052801864154322,-0.6213329542103417,0.7999999523636037,0.3869887628675734,0.4585190262292559,-0.929259513114628,0.753824544435504,0.0006897449493408203,0.0010464191436767578,0
1.009462594985962,0.06992750614881516,-0.06493492424488068,0.12568071484565735,-0.0325112882832679,-0.8544662480005449,0.5073514010264134,-0.6201122116558354,0.7999999666545226,0.3848039390468171,0.4603541337862118,-0.9301770668931059,0.7579459193804562,0.0006656646728515625,0.0010423660278320312,0
1.0195701122283936,0.06999117881059647,-0.06492907553911209,0.12537828087806702,-0.03254566120127948,-0.8545599786058876,0.5094071615011906,-0.6188377843534096,0.7999999766581658,0.38255044125430787,0.4622284715334337,-0.9311142357667168,0.7621797463024369,0.000732421875,0.0011157989501953125,0
1.029543161392212,0.07002390921115875,-0.06492576003074646,0.12523438036441803,-0.03254364866080256,-0.854653645056727,0.5114637267641684,-0.6175314169366313,0.7999999836607161,0.3803179750605255,0.46406706179803525,-0.9320335308990175,0.7663572473673624,0.0007929801940917969,0.0012314319610595703,0
1.0395007133483887,0.07005830854177475,-0.06492123752832413,0.1250939816236496,-0.03254368220738352,-0.8547481025810564,0.5135319158581542,-0.6161043531644315,0.7999999885625013,0.37808016208241646,0.4658920379655931,-0.9329460189827965,0.7705282569771309,0.0008006095886230469,0.0012106895446777344,0
1.0494394302368164,0.07009565085172653,-0.06491581350564957,0.12495706230401993,-0.032551252109764166,-0.8548429790783484,0.5155489101099193,-0.6145385910914494,0.7999999919937509,0.3758378496874155,0.4677028017259888,-0.9338514008629943,0.7746913769721699,0.0006721019744873047,0.001016855239868164,0
1.0592374801635742,0.0701334998011589,-0.06490835547447205,0.12482382357120514,-0.03255666408278229,-0.8549395857685301,0.517505190405595,-0.613031982110826,0.7999999943956256,0.3736187844346182,0.4694773731689295,-0.9347386865844647,0.7787955745280911,0.0006434917449951172,0.0010190010070800781,0
1.0696642398834229,0.07017064839601517,-0.06489936262369156,0.12470781058073044,-0.03258021666516738,-0.8550411593087107,0.5194718724582269,-0.611575768981032,0.799999996076938,0.37124812749698755,0.4713542487662336,-0.9356771243831168,0.7831631254263075,0.0008709430694580078,0.0013492107391357422,0
1.0797362327575684,0.07024119794368744,-0.06487421691417694,0.12448802590370178,-0.03259649370170051,-0.8551388900344296,0.5213467252698785,-0.6101322162900432,0.7999999972538566,0.36894917807956706,0.4731558981925639,-0.9365779490962819,0.7873820719356973,0.0008809566497802734,0.0013141632080078125,0
1.1165077686309814,0.07027507573366165,-0.06486009061336517,0.12438234686851501,-0.032608398663369065,-0.8552838717355316,0.5249400166044405,-0.6077411845488077,0.7999999980776996,0.3604821952784964,0.4796379748176701,-0.939818987408835,0.8027848968638477,0.0004515647888183594,0.0006759166717529297,0
1.1190993785858154,0.07043106108903885,-0.06480874121189117,0.12399464845657349,-0.032629476133541856,-0.8554051003148027,0.5279232961685519,-0.6056384247010971,0.7999999986543898,0.3598811267656246,0.48008913193062847,-0.9400445659653142,0.8038704679031913,0.0002884864807128906,0.00046253204345703125,0
1.1294379234313965,0.07033130526542664,-0.06474629044532776,0.12367251515388489,-0.03264610355160784,-0.8555163699215829,0.5305775371596715,-0.6038492207852265,0.7999999990580728,0.3574777126415149,0.48188140134745855,-0.9409407006737293,0.8082010674412827,0.0005307197570800781,0.0008039474487304688,0
1.1392664909362793,0.07014109939336777,-0.06462234258651733,0.1230815127491951,-0.03263786990250963,-0.8556131808591249,0.5328852586434634,-0.6020797004039632,0.799999999340651,0.355184576567136,0.4835741065946607,-0.9417870532973303,0.8123180481704363,0.0003790855407714844,0.0005939006805419922,0
1.1493749618530273,0.07005161792039871,-0.06456051766872406,0.12279872596263885,-0.03261193919701583,-0.8557054670566204,0.5350599560544007,-0.6004451799245089,0.7999999995384557,0.3528177751060392,0.4853036344075988,-0.9426518172037994,0.8165522745665805,0.0005109310150146484,0.0007586479187011719,0
1.1595304012298584,0.06996455043554306,-0.06449916213750839,0.12252438813447952,-0.03260408956362705,-0.855792783945652,0.5371287263054306,-0.5989357443568818,0.799999999676919,0.35043149615297586,0.4870295335028327,-0.9435147667514163,0.8208061750652776,0.0006358623504638672,0.0009539127349853516,0
1.1693987846374512,0.069879911839962,-0.06443852931261063,0.12225744873285294,-0.0325940707535174,-0.8558763798385236,0.5391008110733065,-0.5974526871298836,0.7999999997738434,0.34810457983845877,0.488695407688153,-0.9443477038440764,0.8249398338407578,0.0005838871002197266,0.0008819103240966797,0
1.1795706748962402,0.06972436606884003,-0.0643199011683464,0.12174434959888458,-0.03261062725849714,-0.8559495518764202,0.5409823746291149,-0.5961176995874901,0.7999999998416903,0.3456978105257508,0.490400880706491,-0.9452004403532455,0.8292006252687756,0.000698089599609375,0.0010585784912109375,0
1.1896049976348877,0.06965095549821854,-0.06426282972097397,0.12149965763092041,-0.032596616537514764,-0.8560190073762068,0.5429530100214196,-0.5945524711856818,0.7999999998891832,0.34331540402938016,0.49207167501914134,-0.9460358375095707,0.8334037925487067,0.0007410049438476562,0.0011599063873291016,0
1.1994023323059082,0.06959327310323715,-0.06421159952878952,0.12123987078666687,-0.03251662933611098,-0.8559871928198419,0.5449617738819968,-0.5921835800136721,0.7999999999224283,0.34098147300799087,0.4936918422106049,-0.9468459211053024,0.8375076904990052,0.0007524490356445312,0.0011408329010009766,0
1.2094826698303223,0.06956077367067337,-0.06416623294353485,0.12094676494598389,-0.0323141278536791,-0.8558043291258026,0.5463769852781711,-0.588827265748165,0.7999999999456998,0.3385721450896431,0.49534725452897954,-0.9476736272644897,0.8417301324073257,0.0008802413940429688,0.0014324188232421875,0
1.2197844982147217,0.06958795338869095,-0.06407561898231506,0.12010718137025833,-0.03152041905247928,-0.8552452882452453,0.5446448660248504,-0.5825515821902091,0.7999999999619899,0.33610157505373534,0.49702689187447224,-0.9485134459372361,0.8460453521901219,0.0010113716125488281,0.0015730857849121094,0
1.2297861576080322,0.06965571641921997,-0.06402573734521866,0.1195366308093071,-0.03092340718977151,-0.8545278942290385,0.5418037771130361,-0.5757454631283411,0.7999999999733929,0.33369501877208535,0.49864580059065733,-0.9493229002953286,0.850234837479953,0.0008976459503173828,0.0013883113861083984,0
1.2397289276123047,0.06976203620433807,-0.06397343426942825,0.11885599792003632,-0.030250745649935996,-0.8536672984747684,0.537767819881616,-0.568352999088459,0.799999999981375,0.33129490313478854,0.5002436278024049,-0.9501218139012024,0.854399655240187,0.0010221004486083984,0.0016436576843261719,0
1.2494783401489258,0.06990647315979004,-0.06391698867082596,0.11805857717990875,-0.029443029679134026,-0.8526733747525517,0.5323025237164164,-0.5601791496640772,0.7999999999869626,0.3289340333166776,0.5017991647322889,-0.9508995823661444,0.858483479613769,0.0008692741394042969,0.0013349056243896484,0
1.259429931640625,0.07032295316457748,-0.06378431618213654,0.11607926338911057,-0.027566777720223153,-0.8513277754887816,0.5202898406715102,-0.5469630540651473,0.7999999999908738,0.32651667283599645,0.5033754685720301,-0.951687734286015,0.8626519925100156,0.0007109642028808594,0.001065969467163086,0
1.269791603088379,0.07059505581855774,-0.06370560079813004,0.11488544195890427,-0.026499252996980666,-0.849836661464948,0.508153010629111,-0.5331777915266346,0.7999999999936117,0.32399167278200713,0.505004352424726,-0.9525021762123629,0.8669922792965722,0.0007007122039794922,0.001033782958984375,0
1.279266119003296,0.07090634107589722,-0.06362125277519226,0.11356779932975769,-0.025356224153934476,-0.8482144657604642,0.4955346833461123,-0.5187474539539813,0.7999999999955282,0.32167574702981205,0.5064826885223347,-0.9532413442611674,0.8709609552425218,0.0006313323974609375,0.0009350776672363281,0
1.2897722721099854,0.07125281542539597,-0.06353050470352173,0.11209593713283539,-0.024102449629756682,-0.8464702816861234,0.4821731175204497,-0.5032550450768033,0.7999999999968698,0.3190997656157898,0.5081095743872064,-0.9540547871936031,0.8753617623648505,0.0005762577056884766,0.0008816719055175781,0
1.2993407249450684,0.07204387336969376,-0.06331481039524078,0.1086544394493103,-0.021199907357089886,-0.8443891738131327,0.4595592476636987,-0.47983761948668546,0.7999999999978089,0.3167465361386445,0.5095798581617708,-0.9547899290808853,0.8793697865159061,0.0005841255187988281,0.0009062290191650391,0
1.3093271255493164,0.07247837632894516,-0.06317023187875748,0.10666915029287338,-0.019352623379785525,-0.8421267624909871,0.43716193326123165,-0.4558625776809222,0.7999999999984663,0.3142832942701456,0.5111027401048688,-0.9555513700524343,0.8835528802191209,0.0005924701690673828,0.0009286403656005859,0
1.3195774555206299,0.07293236255645752,-0.06299036741256714,0.10448821634054184,-0.017180893874121233,-0.8396863771125429,0.41446541383360963,-0.4308199454732617,0.7999999999989265,0.3117473377036456,0.5126534867087994,-0.9563267433543996,0.8878465283970876,0.000881195068359375,0.0013988018035888672,0
1.3293986320495605,0.07340949773788452,-0.06276976317167282,0.10209328681230545,-0.014696787771519794,-0.8370651804956347,0.39131039311546806,-0.4043492910771737,0.7999999999992485,0.3093103761749186,0.5141275047986932,-0.9570637523993466,0.8919604132014738,0.0007383823394775391,0.0011420249938964844,0
1.339508295059204,0.0744389146566391,-0.062190551310777664,0.09662601351737976,-0.00882380853079209,-0.833977178516846,0.3572457219803225,-0.3661774248938099,0.799999999999474,0.30679455263231603,0.5156327205241509,-0.9578163602620754,0.8961951389403224,0.0007269382476806641,0.001102447509765625,0
1.3494679927825928,0.07499673962593079,-0.06182444468140602,0.09356609731912613,-0.005472947989741267,-0.8306450332542757,0.32643426103168705,-0.32894898573950343,0.7999999999996318,0.30430888558258967,0.5171035700471254,-0.9585517850235626,0.9003670473669588,0.0007367134094238281,0.0011365413665771484,0
1.3594415187835693,0.07558824121952057,-0.0614020973443985,0.09028112888336182,-0.0018408383730940715,-0.8271473208413478,0.2981820310860881,-0.29234545547899343,0.7999999999997423,0.3018127012473064,0.5185644543986834,-0.9592822271993416,0.9045447481689662,0.0006802082061767578,0.001026153564453125,0
1.3695471286773682,0.07621543854475021,-0.06091966852545738,0.08677203208208084,0.002013227213459615,-0.8235443126984963,0.2720187539070763,-0.2562240587248491,0.7999999999998196,0.2992763060972858,0.5200323957300772,-0.9600161978650386,0.9087777761426198,0.0007665157318115234,0.0011510848999023438,0
1.3793301582336426,0.07758595794439316,-0.05975871533155441,0.07910355180501938,0.010370378556445597,-0.8195689578229675,0.23708289321077428,-0.20929328631121163,0.7999999999998737,0.2968140730765184,0.5214416611891757,-0.9607208305945878,0.9128756819804656,0.0006425380706787109,0.0009839534759521484,0
1.3894946575164795,0.078336201608181,-0.05906982719898224,0.07495548576116562,0.014830623845787391,-0.8154805546979718,0.20734085084026516,-0.1656980689429362,0.7999999999999116,0.29424880181541535,0.5228935289618647,-0.9614467644809324,0.9171333774837162,0.0005283355712890625,0.0007944107055664062,0
1.3995473384857178,0.07913506031036377,-0.058306559920310974,0.07060663402080536,0.01949394313383194,-0.8113760643728573,0.18162173474572746,-0.12480212428806603,0.7999999999999381,0.2917047656543201,0.524317012593105,-0.9621585062965525,0.9213442346412949,0.0006682872772216797,0.0009827613830566406,0
1.4093148708343506,0.07998452335596085,-0.05746804550290108,0.0660632774233818,0.024344323604460608,-0.807310633543183,0.15897015775724144,-0.08604235894698739,0.7999999999999566,0.28922629565513647,0.5256882630434196,-0.9628441315217098,0.9254356490239837,0.0005834102630615234,0.0008852481842041016,0
1.4194135665893555,0.08088628947734833,-0.05655043572187424,0.06133129075169563,0.029334297966900395,-0.8033229090671459,0.1385643787157679,-0.048980852445512674,0.7999999999999696,0.2866570176382269,0.5270936863962205,-0.9635468431981102,0.9296657808099519,0.0006678104400634766,0.0010292530059814453,0
1.4294769763946533,0.08285433799028397,-0.0544668547809124,0.05133788287639618,0.039687580908995615,-0.7990690837784016,0.11116898024454817,-0.0023739214104594453,0.7999999999999787,0.28408992351099316,0.5284817076867638,-0.9642408538433819,0.9338811320518702,0.0007359981536865234,0.0010902881622314453,0
1.4394054412841797,0.08392513543367386,-0.05329641327261925,0.04608502984046936,0.04506427970595995,-0.7948811433452426,0.08882272522139946,0.03986927250186536,0.7999999999999852,0.2815506662888905,0.5298388644788921,-0.964919432239446,0.9380399576996515,0.0007150173187255859,0.0010752677917480469,0
1.449554204940796,0.08505547791719437,-0.052037786692380905,0.04067128896713257,0.05054712463488743,-0.7908176095716221,0.0701889929146218,0.0787144229762125,0.7999999999999896,0.27894836631346914,0.5312135248005708,-0.9656067624002853,0.9422910618792042,0.0007727146148681641,0.0011501312255859375,0
1.4593422412872314,0.08750615268945694,-0.049255192279815674,0.02938998118042946,0.06181275897113399,-0.786525204869887,0.0468172612824502,0.12491008585370098,0.7999999999999927,0.2764322037471511,0.5325272168927082,-0.9662636084463541,0.9463910649564085,0.0007216930389404297,0.0011572837829589844,0
1.4698877334594727,0.08883101493120193,-0.04772809147834778,0.02353588119149208,0.06761117740789548,-0.7823857504908068,0.028726617051183168,0.16597009888971462,0.7999999999999949,0.2737144040928041,0.5339292321947929,-0.9669646160973964,0.950808350387982,0.0010533332824707031,0.0016551017761230469,0
1.4795186519622803,0.0902193933725357,-0.04610811918973923,0.01754733920097351,0.07347809416199613,-0.7784384618712711,0.014306061824251459,0.20289365125463713,0.7999999999999965,0.2712260956296194,0.5351975383440328,-0.9675987691720164,0.9548425400967476,0.0009851455688476562,0.0014727115631103516,0
1.4897119998931885,0.09167138487100601,-0.044395145028829575,0.011432316154241562,0.07943340257466144,-0.7746994749158933,0.0026154910135449457,0.23684304338897363,0.7999999999999976,0.2685860736985721,0.5365272789105743,-0.968263639455287,0.9591123196934445,0.0007622241973876953,0.0011649131774902344,0
1.4995460510253906,0.09477116167545319,-0.040690768510103226,-0.001161185442470014,0.09157195326851095,-0.7707560965201244,-0.01293659125444294,0.27677102656714225,0.7999999999999984,0.2660329284839644,0.5377978067659311,-0.9688989033829656,0.9632315973990381,0.0007526874542236328,0.0011615753173828125,0
1.509514570236206,0.09641973674297333,-0.03869869187474251,-0.007625318132340908,0.09775317571215707,-0.7670307355443335,-0.024409636108504232,0.3119662100393355,0.7999999999999989,0.26343873873787965,0.5390733075678995,-0.9695366537839497,0.967407200961687,0.0007977485656738281,0.0012145042419433594,0
1.5194697380065918,0.09813343733549118,-0.03661274164915085,-0.014193915762007236,0.10398234541715971,-0.763532366028426,-0.033112111954461725,0.34369621025433367,0.7999999999999993,0.26084192056563216,0.5403346115840002,-0.9701673057920001,0.9715772118860466,0.0008130073547363281,0.0012166500091552734,0
1.529663324356079,0.09937852621078491,-0.03498528152704239,-0.020428352057933807,0.11026847294764455,-0.7602680340179283,-0.039596131600360726,0.3721970672585701,0.7999999999999995,0.2581766536894509,0.5416131603734508,-0.9708065801867254,0.9758470913512843,0.0007662773132324219,0.0011529922485351562,0
1.5394618511199951,0.10069945454597473,-0.03325338661670685,-0.02676377445459366,0.11660489910651665,-0.7572155992473821,-0.04453744408599166,0.3981599054252324,0.7999999999999996,0.25560877315217,0.5428297662137206,-0.9714148831068603,0.9799514886442872,0.0007355213165283203,0.0011522769927978516,0
1.549424648284912,0.10356045514345169,-0.029481133446097374,-0.03971531614661217,0.12945341440574487,-0.7539800628763185,-0.05259631072174369,0.4277301828807589,0.7999999999999997,0.25299196511941124,0.5440542855129611,-0.9720271427564805,0.984124695361955,0.00072479248046875,0.0011162757873535156,0
1.5596110820770264,0.10509785264730453,-0.027441516518592834,-0.04630216211080551,0.1359410793630739,-0.7509855781852532,-0.05787436477169383,0.4536157918192668,0.7999999999999998,0.25031035263264356,0.5452932489632726,-0.9726466244816363,0.9883915787709663,0.0008397102355957031,0.0012607574462890625,0
1.5694758892059326,0.10670503973960876,-0.02530197985470295,-0.052965763956308365,0.14247509215417573,-0.7482137456706635,-0.06129986060141926,0.4765563037680754,0.7999999999999999,0.24770762581026434,0.5464804956404593,-0.9732402478202296,0.9925237395183333,0.0006735324859619141,0.0010342597961425781,0
1.5794970989227295,0.11012198030948639,-0.020724982023239136,-0.06650632619857788,0.15566242071043482,-0.7452871468467654,-0.06698367603976423,0.5014287889517676,0.7999999999999999,0.24505786844461885,0.5476738455626486,-0.9738369227813243,0.9967214140285161,0.0007178783416748047,0.0010852813720703125,0
1.5896055698394775,0.11192997545003891,-0.01828894205391407,-0.07337295264005661,0.16231426136562715,-0.7426033748947476,-0.07031316151742835,0.5228126029715556,0.7999999999999999,0.24237921394030074,0.5488645704084769,-0.9744322852042384,1.0009556404246605,0.0006923675537109375,0.0010509490966796875,0
1.5993387699127197,0.11379922181367874,-0.015757888555526733,-0.08029846101999283,0.1689828811299711,-0.7401326625444541,-0.0721075202118879,0.5412963264806697,0.7999999999999999,0.23979453482714005,0.5499987100594287,-0.9749993550297142,1.0050326737374626,0.0006852149963378906,0.001016855239868164,0
1.6098079681396484,0.1157258003950119,-0.01313054095953703,-0.08727838099002838,0.17568677837842214,-0.7378518858643193,-0.07294311409381604,0.5575970893708229,0.7999999999999999,0.2370084871458658,0.5512050226738032,-0.9756025113369016,1.0094180012359553,0.0013937950134277344,0.002324819564819336,0
1.6197125911712646,0.1177099421620369,-0.01040874794125557,-0.09428955614566803,0.18244858555825008,-0.7357340572211267,-0.07332787516620529,0.5720841101188234,0.7999999999999999,0.23436709600582487,0.5523332909664204,-0.9761666454832101,1.013566840029649,0.0010535717010498047,0.001674652099609375,0
1.6296188831329346,0.11975087970495224,-0.007593128364533186,-0.1013483852148056,0.1892329579691235,-0.7337533690538406,-0.07337844978895768,0.5851370198606123,0.7999999999999999,0.23171988756565817,0.553449088631067,-0.9767245443155335,1.0177163779031286,0.00092315673828125,0.0014698505401611328,0
1.6395328044891357,0.12399905174970627,-0.001691353158093989,-0.11559262126684189,0.20288033561653834,-0.7316024525221541,-0.07572185497331127,0.5981337802041434,0.7999999999999999,0.2290653222420761,0.5545530435820669,-0.9772765217910334,1.0218691115699163,0.0007915496826171875,0.0011925697326660156,0
1.6494700908660889,0.12619946897029877,0.0013913973234593868,-0.12277105450630188,0.2097694263422518,-0.7296173627083474,-0.07681282086120679,0.6091901791067061,0.7999999999999999,0.22639922287539666,0.555646822974285,-0.9778234114871425,1.0260316323537102,0.0008420944213867188,0.0013134479522705078,0
1.659360647201538,0.13074123859405518,0.007808336056768894,-0.13722413778305054,0.22355959634068417,-0.7275160131128301,-0.07941747122941666,0.6187235998832201,0.7999999999999999,0.22374047496151273,0.5567227315854785,-0.9783613657927392,1.030174578903492,0.0006623268127441406,0.0009865760803222656,0
1.6693687438964844,0.13307738304138184,0.01113959401845932,-0.1444915235042572,0.23047145444772438,-0.725598263300354,-0.08054759336367091,0.6265188020566799,0.7999999999999999,0.22104492617179597,0.5577984767043608,-0.9788992383521804,1.0343667606439266,0.0004892349243164062,0.0007460117340087891,0
1.6792774200439453,0.13545483350753784,0.014550565741956234,-0.15178178250789642,0.2373883968551806,-0.7238370102123953,-0.08079746127944024,0.6329057792415753,0.7999999999999999,0.21837105963431977,0.5588506780117425,-0.9794253390058711,1.0385172972028152,0.0004467964172363281,0.0006732940673828125,0
1.6894800662994385,0.1378709226846695,0.01804075576364994,-0.15909218788146973,0.24430961930989556,-0.7222121272149447,-0.08057412009462298,0.6379852913556866,0.7999999999999999,0.2156126321107337,0.5599207023090693,-0.9799603511545346,1.042790971672606,0.00048613548278808594,0.0007145404815673828,0
1.6992990970611572,0.14280928671360016,0.025247957557439804,-0.1737610101699829,0.2581615818769866,-0.7204946782965999,-0.08202694320593104,0.6406034173839839,0.7999999999999999,0.21295296866961005,0.5609376374738997,-0.9804688187369498,1.0469039576601245,0.0004892349243164062,0.0007548332214355469,0
1.7095468044281006,0.14532510936260223,0.028962649405002594,-0.18111352622509003,0.2650895387753466,-0.7189172276367978,-0.08255614657239768,0.64222996471461,0.7999999999999999,0.21017207647894334,0.5619854964930404,-0.9809927482465202,1.0511965072841414,0.0006868839263916016,0.0010421276092529297,0
1.7196180820465088,0.14786751568317413,0.032748714089393616,-0.18847662210464478,0.27202994424157073,-0.7174589890293989,-0.08264741309443181,0.6428362614861268,0.7999999999999999,0.20743403769322163,0.5630018827733058,-0.9815009413866529,1.0554151541879087,0.0007300376892089844,0.0011081695556640625,0
1.7293641567230225,0.15043213963508606,0.03660521283745766,-0.19584862887859344,0.2789768724715065,-0.7160983490644062,-0.08270880793889093,0.6425049095346803,0.7999999999999999,0.20477973041175387,0.5639727493527408,-0.9819863746763704,1.0594975804019184,0.0007765293121337891,0.0012731552124023438,0
1.7394802570343018,0.15562038123607635,0.04452478140592575,-0.2106090486049652,0.292862604746745,-0.7146689213713417,-0.0848245263491519,0.6387618594932836,0.7999999999999999,0.20201984297272793,0.5649672406832756,-0.9824836203416378,1.0637350025913708,0.0009729862213134766,0.00148773193359375,0
1.7493224143981934,0.15823768079280853,0.048583872616291046,-0.2179918736219406,0.2997934954397705,-0.7133358631056891,-0.0863508036826609,0.63470798208963,0.7999999999999999,0.19933005743352014,0.5659218393060561,-0.982960919653028,1.0678576758273544,0.0007238388061523438,0.0010704994201660156,0
1.7593543529510498,0.16086751222610474,0.052706148475408554,-0.22537758946418762,0.30672753008143017,-0.7120944002838631,-0.08743801451971424,0.6303607872431521,0.7999999999999999,0.1965837647563937,0.5668816661651732,-0.9834408330825866,1.0720598444218767,0.0007634162902832031,0.0011091232299804688,0
1.769454002380371,0.16350805759429932,0.05688916891813278,-0.23275993764400482,0.3136559566099655,-0.7109305839474528,-0.08838585907960385,0.6256334747988533,0.7999999999999999,0.19381426757402936,0.5678345090646945,-0.9839172545323471,1.0762903756820086,0.000774383544921875,0.0012083053588867188,0
1.7796227931976318,0.16880345344543457,0.06542956084012985,-0.24751293659210205,0.3275288255965926,-0.7097164089039277,-0.09134100769026789,0.6163478171097572,0.7999999999999999,0.19102114508090484,0.5687802054677886,-0.9843901027338943,1.0805498688189947,0.0008683204650878906,0.0014264583587646484,0
1.7899260520935059,0.17145413160324097,0.06978363543748856,-0.25488054752349854,0.33447787257381695,-0.7085627550438021,-0.09358588625527488,0.6075723864861984,0.7999999999999999,0.18818638165878313,0.5697243945612429,-0.9848621972806214,1.0848656878130363,0.0007882118225097656,0.001195669174194336,0
1.799687147140503,0.17410457134246826,0.07419256865978241,-0.2622396945953369,0.3414136228404565,-0.7074708428689884,-0.095560762029353,0.5990107728533652,0.7999999999999999,0.18549647928992696,0.570605867627596,-0.985302933813798,1.0889544057451215,0.0008180141448974609,0.0012362003326416016,0
1.809443712234497,0.17675074934959412,0.07865399122238159,-0.26958927512168884,0.34834903191444844,-0.7064352612831332,-0.09747091052127055,0.5903503664471726,0.7999999999999999,0.18280369950124412,0.5714742404069135,-0.9857371202034567,1.0930412261749298,0.0006539821624755859,0.0009949207305908203,0
1.819349765777588,0.17938955128192902,0.0831645131111145,-0.276928573846817,0.3552918141553087,-0.7054525941435307,-0.09917276222428308,0.5813549861522344,0.7999999999999999,0.18006550289533044,0.5723429170235722,-0.986171458511786,1.0971906641798685,0.00046563148498535156,0.0007143020629882812,0
1.82938551902771,0.18463853001594543,0.09232710301876068,-0.2915787398815155,0.36912411020278385,-0.7044436223781596,-0.10307707832835598,0.567426830033546,0.7999999999999999,0.17728724635034518,0.5732095884417078,-0.9866047942208538,1.101394430671045,0.0006351470947265625,0.0009961128234863281,0
1.8393886089324951,0.1872430443763733,0.09697578847408295,-0.2988869845867157,0.3760195248428665,-0.7034657506486044,-0.10630287394226326,0.5545487011052151,0.7999999999999999,0.17451388137129417,0.5740600188209642,-0.987030009410482,1.1055845151721213,0.0007219314575195312,0.0011110305786132812,0
1.8494961261749268,0.18983060121536255,0.10166610032320023,-0.3061784505844116,0.38291034088156056,-0.7025249520862981,-0.10918471528171368,0.5421906754583563,0.7999999999999999,0.17170742079888263,0.5749056980432491,-0.9874528490216246,1.109818342094102,0.0007665157318115234,0.001153707504272461,0
1.8594269752502441,0.19494041800498962,0.11116330325603485,-0.3207024037837982,0.39670104521652105,-0.7015864027397171,-0.11419156929342762,0.5250118532562628,0.7999999999999999,0.1689460226740043,0.5757232333531753,-0.9878616166765877,1.113978166427292,0.0006699562072753906,0.0010135173797607422,0
1.8694050312042236,0.19745849072933197,0.11596857756376266,-0.32793378829956055,0.4035284894097297,-0.7006601394749996,-0.11846509131427249,0.5093615778018625,0.7999999999999999,0.16616757820469366,0.5765312965950652,-0.9882656482975325,1.1181577647315761,0.0006890296936035156,0.001047372817993164,0
1.8795197010040283,0.1999485343694687,0.12080869823694229,-0.3351445198059082,0.41036374776406986,-0.6997607482857847,-0.12223831194458985,0.49484149248334774,0.7999999999999999,0.16334714877843506,0.5773367379493147,-0.9886683689746574,1.1223945877097832,0.0007188320159912109,0.0010616779327392578,0
1.8895721435546875,0.20240704715251923,0.12568283081054688,-0.34233197569847107,0.4172255457947041,-0.698902799912844,-0.12581790913971522,0.4810388381801502,0.7999999999999999,0.16054020315410933,0.578123553551693,-0.9890617767758465,1.126605344998821,0.0006413459777832031,0.0009772777557373047,0
1.8994901180267334,0.20719504356384277,0.13551653921604156,-0.3566282391548157,0.4309006852285946,-0.6980661472423897,-0.1316074806170013,0.4621584325092921,0.7999999999999999,0.15776709083901477,0.5788864699128785,-0.9894432349564393,1.1307597764308037,0.0007143020629882812,0.0010533332824707031,0
1.9095005989074707,0.20953428745269775,0.14047496020793915,-0.36373743414878845,0.4377326351262475,-0.6972341041808046,-0.13659178987998577,0.4450356410048695,0.7999999999999999,0.15496443739898838,0.5796430135364481,-0.989821506768224,1.1349529568566472,0.0006811618804931641,0.0010292530059814453,0
1.9194364547729492,0.21183355152606964,0.1454588919878006,-0.3708192706108093,0.44453275093460953,-0.6964286323886333,-0.14104145393925166,0.4291987810232946,0.7999999999999999,0.15217908961234505,0.5803804999177331,-0.9901902499588665,1.1391148784291958,0.0006837844848632812,0.0010592937469482422,0
1.9294273853302002,0.21401743590831757,0.14950622618198395,-0.37801945209503174,0.4513356790318079,-0.6956567922794177,-0.14458612097867354,0.4136973960968355,0.7999999999999999,0.1493747640220123,0.5811085783856301,-0.990554289192815,1.1432998696346872,0.0006959438323974609,0.001079559326171875,0
1.9394240379333496,0.21615947782993317,0.15359385311603546,-0.38518503308296204,0.458145009135454,-0.6949240880512062,-0.14735782902243236,0.39825457496639427,0.7999999999999999,0.14656534628397178,0.5818235121311783,-0.9909117560655891,1.1474872576851596,0.0007016658782958984,0.0010476112365722656,0
1.9495372772216797,0.22031188011169434,0.16187764704227448,-0.39941030740737915,0.47172573385175665,-0.6942164092201691,-0.1515959021398179,0.37699844899347434,0.7999999999999999,0.1437196822107182,0.582532962968835,-0.9912664814844174,1.1517234814521213,0.0008955001831054688,0.0013988018035888672,0
1.959341287612915,0.22232072055339813,0.16606922447681427,-0.4064681828022003,0.4785149052354141,-0.693506093756707,-0.15498533072422993,0.3577043486069354,0.7999999999999999,0.14095775045829012,0.5832074352970291,-0.9916037176485145,1.1558301757215643,0.0007050037384033203,0.0010781288146972656,0
1.9694576263427734,0.2242821753025055,0.17029161751270294,-0.4134885370731354,0.48529260758533205,-0.6928046233266529,-0.15771987106612279,0.33980429085784836,0.7999999999999999,0.1381045141694358,0.5838896669457544,-0.9919448334728771,1.1600676977795576,0.0008015632629394531,0.0012094974517822266,0
1.9795477390289307,0.22619380056858063,0.17454054951667786,-0.42047950625419617,0.49208067525267557,-0.6921291046530069,-0.15994364117509094,0.3227669804605317,0.7999999999999999,0.13525538588792138,0.584556225343901,-0.9922781126719504,1.1642942342980542,0.0007727146148681641,0.0011603832244873047,0
1.9898242950439453,0.22805270552635193,0.17881432175636292,-0.42742910981178284,0.4988429299457488,-0.6914883406781738,-0.16178758657061146,0.30632478932706875,0.7999999999999999,0.13235030587602875,0.5852208100661849,-0.9926104050330924,1.1685988680155175,0.0007123947143554688,0.0010671615600585938,0
1.9994559288024902,0.23160682618618011,0.18742792308330536,-0.4412047564983368,0.5123594583599658,-0.6908820629936961,-0.16559773066251496,0.2848507742680993,0.7999999999999999,0.12962457345847955,0.5858305812738929,-0.9929152906369464,1.1726333573299057,0.0006892681121826172,0.001050710678100586,0
2.0105626583099365,0.2333020269870758,0.19176475703716278,-0.448029488325119,0.5190986599138541,-0.6902688724626153,-0.16837162345680892,0.26566914791078655,0.7999999999999999,0.12647790843617346,0.5865179781367412,-0.9932589890683705,1.1772857333067062,0.0006144046783447266,0.0009248256683349609,0
2.019373893737793,0.2365218698978424,0.20048469305038452,-0.4615456759929657,0.5325523160212384,-0.6896891705995364,-0.17283323922445054,0.24252584449193826,0.7999999999999999,0.12397898639066533,0.5870512847558919,-0.9935256423779459,1.1809765749719332,0.0008285045623779297,0.0013267993927001953,0
2.0294084548950195,0.23804205656051636,0.20486539602279663,-0.4682353138923645,0.5392484867423409,-0.6890988385507104,-0.1764144789927314,0.2221671166656285,0.7999999999999999,0.12113038555361985,0.5876456667887813,-0.9938228333943906,1.1851798421204054,0.0006046295166015625,0.0009489059448242188,0
2.0403425693511963,0.2394990772008896,0.20925670862197876,-0.4748710095882416,0.5459345463917972,-0.6885113228238074,-0.17923151427434839,0.2040145502869419,0.7999999999999999,0.1180231789693494,0.5882775953799099,-0.994138797689955,1.1897599132736099,0.0017542839050292969,0.002303600311279297,0
2.0493156909942627,0.2408936470746994,0.21365666389465332,-0.4814625680446625,0.5526244704846766,-0.6879471452495125,-0.18174304305455752,0.1872979074265975,0.7999999999999999,0.1154707720359993,0.5887839169045044,-0.9943919584522521,1.1935185656780933,0.0004661083221435547,0.0006926059722900391,0
2.0592193603515625,0.2434924840927124,0.22247247397899628,-0.4945060610771179,0.5659741666158808,-0.6874260295021085,-0.1857730177894843,0.1667208670277743,0.796884794433824,0.11265115109336829,0.5893298890751589,-0.9946649445375795,1.1976670049976232,0.0005421638488769531,0.0008215904235839844,0
2.0693724155426025,0.24469639360904694,0.22688473761081696,-0.5009577870368958,0.5726202299606571,-0.686907829078839,-0.18877228993868655,0.1485552862622378,0.7938067795253873,0.10975785002011192,0.5898755922726101,-0.9949377961363051,1.2019199068109117,0.0004799365997314453,0.0007159709930419922,0
2.0792999267578125,0.24583552777767181,0.231296569108963,-0.507361650466919,0.5792509227531134,-0.6864091544612932,-0.19100973802371574,0.13228481618477494,0.7907250250874736,0.1069262657726228,0.5903954384037214,-0.9951977192018606,1.2060783329845297,0.00048828125,0.0007176399230957031,0
2.089801549911499,0.24690979719161987,0.23570731282234192,-0.5137158632278442,0.5858924019470478,-0.6859417344040625,-0.19264673198074103,0.11761296573004976,0.7877268119946689,0.10392825187399458,0.5909305529945253,-0.9954652764972627,1.2104772426045816,0.0006465911865234375,0.0009751319885253906,0
2.0994322299957275,0.24886354804039001,0.24451838433742523,-0.526231586933136,0.5991559293799127,-0.6855253069440268,-0.19581968542177142,0.09965104245299707,0.7821671070872839,0.10117652023251979,0.5914079064010207,-0.9957039532005103,1.2145113324448065,0.0006613731384277344,0.0010251998901367188,0
2.1095426082611084,0.24973945319652557,0.24891628324985504,-0.5324133038520813,0.6057780313877,-0.6851212227375952,-0.1981470386598109,0.08391413397754102,0.777380100806545,0.09828536898624161,0.5918952493839077,-0.9959476246919539,1.2187463577892776,0.0006964206695556641,0.0010464191436767578,0
2.1196513175964355,0.25054824352264404,0.2533065378665924,-0.5385443568229675,0.6123806067793076,-0.684734662940211,-0.19985637091053102,0.06998593447748011,0.7731410701362337,0.0953923486555801,0.5923683818520129,-0.9961841909260064,1.2229806840539628,0.0007486343383789062,0.0011246204376220703,0
2.1294596195220947,0.251290500164032,0.2576880156993866,-0.5446248054504395,0.6189747403563903,-0.6843722543192708,-0.20115822998139632,0.057416266827918006,0.7692415901721843,0.09258312495354513,0.5928139379044965,-0.9964069689522482,1.2270891759571416,0.0006711483001708984,0.0010187625885009766,0
2.139626979827881,0.252573162317276,0.2664206624031067,-0.5566331744194031,0.6320929654763279,-0.6840443386496914,-0.2038683475780843,0.04230303410019639,0.7631897343058014,0.08966886687289273,0.5932617418254201,-0.9966308709127101,1.2313480698828827,0.0007264614105224609,0.0011053085327148438,0
2.149432420730591,0.25311458110809326,0.2707684338092804,-0.5625600218772888,0.6386456435143584,-0.6837309783705341,-0.20563633063059583,0.029226688530178947,0.7580364383399127,0.08685629340309568,0.5936800352852328,-0.9968400176426164,1.235455363363571,0.0007030963897705078,0.0010585784912109375,0
