time,x,y,z,yaw,throttle,roll_rate,pitch_rate,yaw_rate,x_ref,y_ref,z_ref,yaw_ref,pred_time,nr_time,metadata
1.1920928955078125e-06,0.013127107173204422,-0.02254810929298401,0.8721058368682861,-0.06170148155936404,-0.752364549002585,0.13705696753595187,-0.2797877004030113,0.02313805558475845,0.5557046590133411,0.2262572251904151,-0.8,0.0,0.0016105175018310547,0.001990795135498047,Sim
0.00979161262512207,0.013182244263589382,-0.02263793721795082,0.8714911341667175,-0.06169092243805903,-0.789820281685608,0.22278342665507261,-0.4358513902821079,0.039330734823614946,0.5546278093514961,0.22888423513636846,-0.8,0.0,0.0012176036834716797,0.0015554428100585938,Nonlinear
0.020023822784423828,0.013231291435658932,-0.02272234484553337,0.870927631855011,-0.061670878409027935,-0.8195569504874632,0.27047217745167823,-0.5450959731974755,0.050658093779904614,0.5534890956391464,0.2316243100552267,-0.8,0.0,0.001238107681274414,0.001561880111694336,0OrderHold
0.029926776885986328,0.013272992335259914,-0.022801797837018967,0.8704132437705994,-0.061658191304459514,-0.8438266789433557,0.2918846685801244,-0.6157120017638272,0.05858248738509762,0.552374133073162,0.23427082001750177,-0.8,0.0,0.0012001991271972656,0.0015430450439453125,QuatYawError
0.03980588912963867,0.013333764858543873,-0.022947710007429123,0.869530975818634,-0.061653580440409354,-0.8638555704082336,0.29636062119830053,-0.6445540550262243,0.06412783383471629,0.5512492462656865,0.23690561093294635,-0.8,0.0,0.001173257827758789,0.001481771469116211,NoPyJoules
0.04992532730102539,0.013353968970477581,-0.02301645465195179,0.8692272305488586,-0.0616232177340065,-0.8802832824403317,0.2902530099833363,-0.6449543054970004,0.06799819033455333,0.5500839649010403,0.239598897240265,-0.8,0.0,0.0012774467468261719,0.0016188621520996094,0
0.05984067916870117,0.013366308994591236,-0.02308160439133644,0.8689655661582947,-0.061617642178358176,-0.8935603016673377,0.27821889122651605,-0.6277569206146069,0.07070534905107129,0.5489294211243982,0.24223230714343824,-0.8,0.0,0.0012481212615966797,0.0015778541564941406,0
0.06984472274780273,0.013370709493756294,-0.02314339205622673,0.8687447309494019,-0.06162087741343402,-0.9041010086409034,0.26358856472777203,-0.6009656931658596,0.07260157336578577,0.5477517737066948,0.24488363440860997,-0.8,0.0,0.0012309551239013672,0.001581430435180664,0
0.07989645004272461,0.0133693041279912,-0.023203544318675995,0.8685640692710876,-0.06162921379902496,-0.9123230624704055,0.24867798872118102,-0.5703317805989062,0.07393205653068423,0.546555615627718,0.24754183288043682,-0.8,0.0,0.0012395381927490234,0.0015649795532226562,0
0.09006190299987793,0.013346553780138493,-0.023319315165281296,0.8683226108551025,-0.061645497540980476,-0.9186244211117889,0.23492099738711994,-0.5395921451044442,0.07486950114934895,0.545332804576773,0.25022416400585906,-0.8,0.0,0.0012993812561035156,0.0016531944274902344,0
0.09989738464355469,0.01332666166126728,-0.023373737931251526,0.868257999420166,-0.0616402556583486,-0.9233807299813422,0.22280989871577145,-0.5110534180562276,0.0755237466764249,0.544137155790892,0.2528136778099607,-0.8,0.0,0.0012717247009277344,0.0015990734100341797,0
0.10991811752319336,0.013299787417054176,-0.023425346240401268,0.8682287931442261,-0.06163620804611898,-0.9269189856577218,0.21274100832024553,-0.48586593576536163,0.07598020069079199,0.5429063413365306,0.2554460892959266,-0.8,0.0,0.0012869834899902344,0.0016334056854248047,0
0.1198725700378418,0.01322608906775713,-0.023525260388851166,0.8683480024337769,-0.06165726776672758,-0.9295197736381702,0.2049021783986019,-0.46432177336467917,0.0763076158960772,0.5416710589783134,0.25805515663383394,-0.8,0.0,0.0012392997741699219,0.0015594959259033203,0
0.1299147605895996,0.013180278241634369,-0.023572860285639763,0.8684945106506348,-0.06167584605079993,-0.9314168326260881,0.19901568091695543,-0.44632169090567386,0.07654377339630479,0.54041218432028,0.26068116740221886,-0.8,0.0,0.0012416839599609375,0.0016491413116455078,0
0.13998675346374512,0.013127168640494347,-0.02361835353076458,0.8686729073524475,-0.06168161589240823,-0.9327849708442648,0.19483605121473313,-0.43153932769994896,0.07671124733706641,0.5391367862305396,0.26330880299185844,-0.8,0.0,0.0012898445129394531,0.0016355514526367188,0
0.14987683296203613,0.013066803105175495,-0.023660119622945786,0.86888188123703,-0.06167149269101663,-0.9337651774428023,0.19202230529372555,-0.41954086183427974,0.07682468289507771,0.5378719911625444,0.2658829086700379,-0.8,0.0,0.0012521743774414062,0.0016009807586669922,0
0.15995240211486816,0.012931044213473797,-0.023731382563710213,0.8693932294845581,-0.06165435328124899,-0.9344763699542727,0.1904627154175495,-0.4097971807531945,0.07689766050702276,0.5365708370172079,0.26849904443526973,-0.8,0.0,0.0006511211395263672,0.0008308887481689453,0
0.16979479789733887,0.012857647612690926,-0.023763710632920265,0.8696947693824768,-0.06164371134106537,-0.9349850043775632,0.18987963083298345,-0.4018154476897399,0.07694475410781544,0.5352875084091795,0.2710484889112881,-0.8,0.0,0.0006620883941650391,0.0008471012115478516,0
0.1799001693725586,0.012778314761817455,-0.023793872445821762,0.8700245022773743,-0.06166602504086263,-0.9353431487344432,0.19004984013020743,-0.3953265954371797,0.0769860872657944,0.5339572881857644,0.27365966891981836,-0.8,0.0,0.0006506443023681641,0.0008404254913330078,0
0.1899862289428711,0.012693298980593681,-0.023821497336030006,0.8703811764717102,-0.06165917620765068,-0.9355968954838181,0.19080496290656457,-0.38998167045911064,0.07701245216392508,0.5326169090813857,0.2762593494537169,-0.8,0.0,0.0006608963012695312,0.0008451938629150391,0
0.20003128051757812,0.012507583945989609,-0.023870274424552917,0.8712766766548157,-0.06165082014374713,-0.9357867391724745,0.19217644918739538,-0.38566447994919406,0.0770277740686527,0.5312693997639321,0.2788419352867701,-0.8,0.0,0.0012502670288085938,0.0015764236450195312,0
0.20988845825195312,0.012406610883772373,-0.023892823606729507,0.871760904788971,-0.06166100293986721,-0.9359314946230165,0.19386928558598612,-0.38206552189628945,0.07704231795050709,0.5299349195025032,0.281369829747035,-0.8,0.0,0.00124359130859375,0.0015959739685058594,0
0.22005367279052734,0.012300383299589157,-0.023914240300655365,0.8722695112228394,-0.06165480934529695,-0.9360419734677894,0.19589477645837916,-0.37901576219120225,0.07705017606984131,0.5285461391914148,0.2839700314220667,-0.8,0.0,0.0007145404815673828,0.0009293556213378906,0
0.22973108291625977,0.012193962931632996,-0.02393389865756035,0.8728006482124329,-0.06166418528284763,-0.9361319646072728,0.1980953520674525,-0.3764337292209085,0.07705919272995677,0.527212148132636,0.2864390875236329,-0.8,0.0,0.0008091926574707031,0.0010204315185546875,0
0.2398669719696045,0.012082007713615894,-0.023951588198542595,0.8733547925949097,-0.06166677248266952,-0.936209481332249,0.20047558785747663,-0.3741785414404556,0.07706647459197083,0.5258025916569949,0.28901839838803933,-0.8,0.0,0.000720977783203125,0.0009241104125976562,0
0.24974918365478516,0.011843698099255562,-0.023985516279935837,0.8745285272598267,-0.06167981180772332,-0.9362991107948765,0.20307906618146657,-0.3721337821251074,0.07707646164227583,0.5244161637392627,0.29152647771513784,-0.8,0.0,0.000732421875,0.0009322166442871094,0
0.25974178314208984,0.011719144880771637,-0.024001996964216232,0.8751470446586609,-0.061687976175207264,-0.9363817776928035,0.205729842058506,-0.37018469457953296,0.0770865142152958,0.5230020843972032,0.29405581054653673,-0.8,0.0,0.000732421875,0.0009236335754394531,0
0.2699000835418701,0.011951196938753128,-0.024364808574318886,0.8731957077980042,-0.06167139778718652,-0.9363948322907117,0.20845882977691535,-0.36805123344406837,0.077087334120902,0.5215520521165639,0.29662005483952203,-0.8,0.0,0.0006561279296875,0.0008349418640136719,0
0.27991724014282227,0.012384358793497086,-0.025061478838324547,0.8695501089096069,-0.06168211896062398,-0.9363089784411261,0.211400994774881,-0.3656062542004771,0.0770919284948654,0.5201098556427314,0.29914166888499016,-0.8,0.0,0.0006766319274902344,0.0008602142333984375,0
0.28989529609680176,0.012585095129907131,-0.025398720055818558,0.8678496479988098,-0.06168837969359829,-0.9361856208298309,0.21448935182229517,-0.36325538727278583,0.07709749233150515,0.5186611683637163,0.3016464692841351,-0.8,0.0,0.0006916522979736328,0.0008807182312011719,0
0.2996828556060791,0.012778842821717262,-0.02572784014046192,0.8662272691726685,-0.06169117241750419,-0.9360416634227838,0.21762825517211573,-0.3609497493932012,0.07710243428861767,0.5172284190015672,0.30409663361691325,-0.8,0.0,0.001430511474609375,0.0018053054809570312,0
0.30986857414245605,0.012964406050741673,-0.026049761101603508,0.8646825551986694,-0.061695162416123515,-0.9358841597769133,0.22086231691269598,-0.3586590868033328,0.0771073899080787,0.5157250953090369,0.3066392441754396,-0.8,0.0,0.0012249946594238281,0.0015728473663330078,0
0.31998586654663086,0.0131411487236619,-0.026364212855696678,0.8632134795188904,-0.061693650447312565,-0.9357190590765676,0.224108123122686,-0.3564471172578662,0.0771102918533973,0.5142194973492281,0.30915741709670685,-0.8,0.0,0.0006630420684814453,0.0008463859558105469,0
0.32981204986572266,0.013464891351759434,-0.0269703958183527,0.8604923486709595,-0.06169030682594112,-0.9355129727808469,0.22748053561704398,-0.35410946117377556,0.07711106935710603,0.5127454502576965,0.3115960578056663,-0.8,0.0,0.001260995864868164,0.0016045570373535156,0
0.3399200439453125,0.013611315749585629,-0.027264535427093506,0.8592978715896606,-0.06169666904163167,-0.935311975518764,0.2308949744105059,-0.35200342670348395,0.0771139994405861,0.5112170612329516,0.31409730387945806,-0.8,0.0,0.0006740093231201172,0.0008585453033447266,0
0.3499186038970947,0.013747608289122581,-0.02755272388458252,0.8581686019897461,-0.061727508635118375,-0.9351198475283385,0.2343113150568197,-0.3500240032950797,0.07712761534657965,0.5096932152643658,0.31656409511104183,-0.8,0.0,0.0006551742553710938,0.0008356571197509766,0
0.35973334312438965,0.013991975225508213,-0.028108961880207062,0.8560980558395386,-0.061746712998583794,-0.934907460398771,0.23777620013120607,-0.34803716867514034,0.07714434811707473,0.50818580781509,0.31897834524513474,-0.8,0.0,0.0006620883941650391,0.0008418560028076172,0
0.36988329887390137,0.014102088287472725,-0.02837889827787876,0.8551523089408875,-0.06175256916506746,-0.9347113281058687,0.24124266704804373,-0.3461126163252508,0.0771582571188526,0.5066148882293393,0.3214675022834719,-0.8,0.0,0.0006461143493652344,0.0008304119110107422,0
0.38008642196655273,0.014203174971044064,-0.02864363230764866,0.8542640805244446,-0.06175728355354547,-0.9345281501696879,0.24467813745759112,-0.3442869737649478,0.07716976131577637,0.5050234518826334,0.32396190061263297,-0.8,0.0,0.0013566017150878906,0.0017850399017333984,0
0.3898298740386963,0.014296798966825008,-0.028903871774673462,0.8534306883811951,-0.06176295065109584,-0.9343549495192712,0.24807764358887335,-0.34243939631797127,0.07717993941520439,0.5034922484018661,0.3263365682837789,-0.8,0.0,0.0006413459777832031,0.0008168220520019531,0
0.3998711109161377,0.014463220722973347,-0.029408100992441177,0.8519201278686523,-0.061765758672460314,-0.9341685372210368,0.251459478110552,-0.34055978902988737,0.07718811709281569,0.5019025648704499,0.3287762390691635,-0.8,0.0,0.0006656646728515625,0.0008494853973388672,0
0.4097402095794678,0.01453389786183834,-0.029651407152414322,0.8513203859329224,-0.06177377029352099,-0.934007052084515,0.25481865154602396,-0.33878184651253435,0.07719684582504135,0.5003286142017782,0.3311665408988778,-0.8,0.0,0.00066375732421875,0.0008504390716552734,0
0.41996049880981445,0.01459625456482172,-0.029890399426221848,0.8507706522941589,-0.06176899601627375,-0.9338660858070784,0.25816157650328925,-0.33703607559106785,0.0772011655836316,0.49868665664397815,0.33363395883100844,-0.8,0.0,0.0006723403930664062,0.0008544921875,0
0.4298431873321533,0.014650940895080566,-0.03012492135167122,0.8502676486968994,-0.06174892103261622,-0.9337388425799488,0.26150140913291753,-0.3352820667824019,0.07719666129577321,0.49708736454793356,0.33601213074350417,-0.8,0.0,0.0007190704345703125,0.0009081363677978516,0
0.43976807594299316,0.014751785434782505,-0.030581047758460045,0.8493950366973877,-0.061752968985987956,-0.9336115373334146,0.26494737697469134,-0.3334512742365604,0.07719502627678673,0.4954698295200003,0.3383927422912935,-0.8,0.0,0.0006766319274902344,0.0008609294891357422,0
0.44987940788269043,0.014792864210903645,-0.030802356079220772,0.8490254282951355,-0.061769319772177256,-0.9335059433555184,0.26830297738795594,-0.3316009422007344,0.07720001330831718,0.4938101844272989,0.34081006698141564,-0.8,0.0,0.0006392002105712891,0.0008256435394287109,0
0.45991039276123047,0.01482885517179966,-0.031019294634461403,0.8487003445625305,-0.061779646207644624,-0.9334207638754144,0.2716250175864881,-0.3296962427779775,0.07720737664368878,0.4921520736983469,0.34320014037645274,-0.8,0.0,0.0006732940673828125,0.0008599758148193359,0
0.46987318992614746,0.014861103147268295,-0.031231973320245743,0.8484189510345459,-0.06178250867443805,-0.9333498797453217,0.27483689846731185,-0.32775058005413243,0.07721360440349641,0.49049378391208187,0.34556598204048955,-0.8,0.0,0.0006561279296875,0.0008413791656494141,0
0.47983884811401367,0.014910358935594559,-0.031642843037843704,0.8480502367019653,-0.06179626843013104,-0.9332905056793416,0.27812632166609896,-0.3258222433657768,0.07722312374374662,0.4888236401950389,0.347924487190067,-0.8,0.0,0.0011334419250488281,0.0015368461608886719,0
0.48995113372802734,0.014925111085176468,-0.031842976808547974,0.8479592204093933,-0.06181504081133509,-0.9332392747235685,0.28135881871984786,-0.32398182866576375,0.07723682692487328,0.4871173312742669,0.3503094425964509,-0.8,0.0,0.0006699562072753906,0.0008549690246582031,0
0.499774694442749,0.014932476915419102,-0.03203921765089035,0.8479035496711731,-0.06183671492499788,-0.9331992081357903,0.2844951953702088,-0.32215380694329415,0.0772545469442855,0.4854485979143977,0.35261829048270504,-0.8,0.0,0.0006580352783203125,0.0008444786071777344,0
0.5098779201507568,0.014937321655452251,-0.03223137930035591,0.8478825688362122,-0.061843346008403126,-0.9331690480070143,0.2875536787511783,-0.32032035695800803,0.07726943761415102,0.48372094291035106,0.35498457627046404,-0.8,0.0,0.0006690025329589844,0.0008442401885986328,0
0.5197985172271729,0.014925772324204445,-0.03260236233472824,0.8479425311088562,-0.061822913281781,-0.9331500567927778,0.2906150007749311,-0.31846359570176624,0.0772721988105736,0.4820132938876689,0.357299852386703,-0.8,0.0,0.0006761550903320312,0.0008594989776611328,0
0.5297214984893799,0.014911055564880371,-0.03278443589806557,0.8480235934257507,-0.061832503527934214,-0.9331440398528243,0.29370159420891456,-0.3166056512302615,0.07727772799037684,0.4802941487676026,0.3596074674691892,-0.8,0.0,0.0006744861602783203,0.0008578300476074219,0
0.5399065017700195,0.014890952967107296,-0.0329635813832283,0.8482094407081604,-0.06184751486654372,-0.9331553778066661,0.29673761074043364,-0.31468636455916554,0.07728722766821768,0.4785181200768783,0.36196741394508186,-0.8,0.0,0.0006649494171142578,0.0008554458618164062,0
0.5498552322387695,0.014865831471979618,-0.03313935920596123,0.848426878452301,-0.06184311961347291,-0.9331747111158657,0.29969996246711494,-0.31275498785973394,0.07729222922280472,0.4767720963522267,0.36426414610815466,-0.8,0.0,0.0006697177886962891,0.0008504390716552734,0
0.5597825050354004,0.01479767169803381,-0.03348172828555107,0.848947286605835,-0.06181502795742778,-0.9332060860314075,0.3027109183304992,-0.3108383586154567,0.0772851959399987,0.47501885063352034,0.3665475297186018,-0.8,0.0,0.0007035732269287109,0.0008835792541503906,0
0.5697078704833984,0.014758623205125332,-0.0336507223546505,0.8492481708526611,-0.061802685782061086,-0.9332403489454295,0.3057002924248559,-0.30889025536924514,0.07727564432627197,0.4732550093100226,0.36882203860801266,-0.8,0.0,0.0006334781646728516,0.0008127689361572266,0
0.5798130035400391,0.014715624041855335,-0.03381842374801636,0.8495750427246094,-0.06179617619175795,-0.9332794784401749,0.3086773063088196,-0.30687010039116747,0.07726651710029961,0.47144803317058515,0.3711290234131343,-0.8,0.0,0.0006387233734130859,0.0008261203765869141,0
0.5899577140808105,0.014668768271803856,-0.03398378565907478,0.8499288558959961,-0.06178230793534099,-0.9333286424123144,0.31158017385336806,-0.30477938511916886,0.0772549274459626,0.4696226679890458,0.37343613873171205,-0.8,0.0,0.0006906986236572266,0.000881195068359375,0
0.5996720790863037,0.014619370922446251,-0.03414622321724892,0.8503106236457825,-0.061767513355067485,-0.9333869523044823,0.31447606700066794,-0.3026558465900496,0.07724126672032414,0.4678641535337135,0.3756369708084944,-0.8,0.0,0.0006725788116455078,0.0008637905120849609,0
0.6096851825714111,0.014566334895789623,-0.03430723398923874,0.8507677912712097,-0.06176929764489789,-0.9334487890521177,0.31732043049320763,-0.30051032538331746,0.07723237332106361,0.4660407667497233,0.3778968162439716,-0.8,0.0,0.0006656646728515625,0.0008461475372314453,0
0.6200098991394043,0.014446452260017395,-0.03462110087275505,0.8517495393753052,-0.06176419469929794,-0.9335243583239549,0.3202503378064146,-0.29844339299034967,0.07722423433698127,0.46414920560615064,0.3802177204381448,-0.8,0.0,0.0006909370422363281,0.0008783340454101562,0
0.6297621726989746,0.014379153028130531,-0.03477339819073677,0.8522738814353943,-0.061752597274442975,-0.9336022215257636,0.32307718645211136,-0.2963896355843844,0.077214188013803,0.4623519046553247,0.3824012503399975,-0.8,0.0,0.0006427764892578125,0.0008187294006347656,0
0.6398723125457764,0.014232560992240906,-0.0350717157125473,0.8533849120140076,-0.061778037180586595,-0.9336950565161374,0.32598604058983494,-0.29441574852572056,0.07721669555238207,0.4604778066825682,0.38465593658854574,-0.8,0.0,0.0006580352783203125,0.0008325576782226562,0
0.6497533321380615,0.014151595532894135,-0.03521665185689926,0.8539717793464661,-0.06179006933126452,-0.9337888149186899,0.32876695870140626,-0.2924372591597187,0.07722296288589166,0.4586355559181059,0.38685065186411405,-0.8,0.0,0.0006844997406005859,0.0008771419525146484,0
0.6597225666046143,0.014064822345972061,-0.035360321402549744,0.8545772433280945,-0.06179614603280674,-0.9338800354577904,0.3315166001235703,-0.29038104178456675,0.0772296287824267,0.4567662574211674,0.38905601920733707,-0.8,0.0,0.0006842613220214844,0.0008668899536132812,0
0.6698179244995117,0.014009449630975723,-0.03572097420692444,0.8525765538215637,-0.06181249461126197,-0.9339048329483105,0.3342013814970399,-0.2881437990111407,0.07724042562692192,0.45486250354069213,0.39128008238689305,-0.8,0.0,0.0006656646728515625,0.0008485317230224609,0
0.6797990798950195,0.013884123414754868,-0.0364215113222599,0.8489791750907898,-0.061802103108430866,-0.9338271716638312,0.33698157044687194,-0.2858426470698027,0.07724408660450692,0.45296963935248585,0.39346982835393984,-0.8,0.0,0.0006716251373291016,0.0008485317230224609,0
0.6899583339691162,0.013814262114465237,-0.03676117956638336,0.84730064868927,-0.06180642909321593,-0.933720917541437,0.3397404280457867,-0.28357602834888607,0.07724827153311083,0.4510321747886499,0.3956892433531909,-0.8,0.0,0.0006515979766845703,0.0008261203765869141,0
0.6997840404510498,0.013739065267145634,-0.0370931513607502,0.8456990718841553,-0.06180535572141928,-0.9335937476242298,0.34246513187857613,-0.2814004643255421,0.0772507984687098,0.4491479757020893,0.397826715948936,-0.8,0.0,0.0006954669952392578,0.0008809566497802734,0
0.709850549697876,0.013662422075867653,-0.03741767257452011,0.8441725373268127,-0.06181134547600696,-0.9334515386959841,0.34521187723478874,-0.2793226492688305,0.07725481348159947,0.44720709516557927,0.40000726747593535,-0.8,0.0,0.0006573200225830078,0.0008392333984375,0
0.7198178768157959,0.013496163301169872,-0.038049694150686264,0.8413364887237549,-0.06178577841831756,-0.9332604352914823,0.34810287348437496,-0.27721655346357776,0.07724803634398869,0.4452749071357866,0.40215700550309524,-0.8,0.0,0.0006976127624511719,0.0008933544158935547,0
0.7297446727752686,0.01340780034661293,-0.038357917219400406,0.8400893807411194,-0.06178042157831301,-0.9330751617646809,0.3510716446619695,-0.27515948723249073,0.07724128353265947,0.4433403052975346,0.4042887256635891,-0.8,0.0,0.0006453990936279297,0.0008742809295654297,0
0.7399394512176514,0.013314559124410152,-0.03866138309240341,0.8389079570770264,-0.06176479548396692,-0.9328976164741987,0.3540742933519092,-0.27317742794538385,0.07723069677934923,0.44134285530548906,0.40646830635462605,-0.8,0.0,0.0013737678527832031,0.001729726791381836,0
0.7499017715454102,0.013216771185398102,-0.03895867243409157,0.8377901315689087,-0.06174752384990769,-0.9327280438436205,0.35698933101559716,-0.27124604862334106,0.07721680918925984,0.43938059859573225,0.40858865571336656,-0.8,0.0,0.0013222694396972656,0.0016694068908691406,0
0.7597358226776123,0.013115179724991322,-0.0392492413520813,0.8367339968681335,-0.061739670809086905,-0.9325681439601173,0.3598672878018402,-0.26932392314079634,0.07720414298588948,0.43743361578014567,0.4106724142007932,-0.8,0.0,0.0009834766387939453,0.00118255615234375,0
0.769751787185669,0.013009308837354183,-0.03953462839126587,0.8357375264167786,-0.061743144887270306,-0.932413319380726,0.362776603453172,-0.2674187470028226,0.07719657942284901,0.43544045934772646,0.41278518185981544,-0.8,0.0,0.0007135868072509766,0.0009100437164306641,0
0.7798173427581787,0.012789259664714336,-0.040090467780828476,0.8339179158210754,-0.06177034443891264,-0.9322476806163852,0.3658078078020627,-0.2655586656446027,0.07720148476058654,0.43342715418446603,0.41489866475508824,-0.8,0.0,0.0007526874542236328,0.0009453296661376953,0
0.7897908687591553,0.012674183584749699,-0.04036158695816994,0.8330946564674377,-0.06177772091766823,-0.9321002210460547,0.36878459579089096,-0.26372738295062853,0.07720768467653616,0.4314221387952023,0.416983138936544,-0.8,0.0,0.0006873607635498047,0.0008699893951416016,0
0.7997643947601318,0.012432485818862915,-0.04088842123746872,0.8317287564277649,-0.06180107515066506,-0.9319501090762244,0.37195763200107157,-0.26181306865583615,0.07722078245507472,0.4294070986901881,0.41905792391324015,-0.8,0.0,0.0007600784301757812,0.0009527206420898438,0
0.8096842765808105,0.012307391501963139,-0.04114694148302078,0.8311207890510559,-0.06181684912725176,-0.9318190801631168,0.37504261582577414,-0.25990203842112647,0.07723586614127172,0.42739299917593115,0.4211118904227266,-0.8,0.0,0.000690460205078125,0.0008754730224609375,0
0.8197567462921143,0.012178013101220131,-0.04140166565775871,0.8305619955062866,-0.061822804147272155,-0.931708554738648,0.3781073393268408,-0.2580445364905164,0.07724865785411726,0.42533786657924716,0.4231875461941366,-0.8,0.0,0.0007352828979492188,0.0009222030639648438,0
0.8298463821411133,0.012044101022183895,-0.041653577238321304,0.830051600933075,-0.061826536813036286,-0.9316126243288884,0.38110031423957297,-0.25617207580910034,0.07725901180277069,0.42326912533054606,0.4252566843000995,-0.8,0.0,0.0006768703460693359,0.0008625984191894531,0
0.8397102355957031,0.011764666996896267,-0.04214150831103325,0.8291642665863037,-0.061869945617325395,-0.9315135488050276,0.38398497628384975,-0.2543701165449213,0.07728253786843656,0.42123694704946046,0.4272697443541375,-0.8,0.0,0.0006783008575439453,0.0008819103240966797,0
0.8497750759124756,0.011621707119047642,-0.04237677529454231,0.828785240650177,-0.06187376315605303,-0.9314278538446481,0.38674266577978345,-0.25251849342762883,0.07730043769142547,0.4191534926516695,0.42931381249373607,-0.8,0.0,0.0006866455078125,0.0008740425109863281,0
0.8598499298095703,0.011476035229861736,-0.042607128620147705,0.8284473419189453,-0.06189603098808476,-0.9313527446438921,0.3894359536748168,-0.2506009017795926,0.07732131800452961,0.41705803182163026,0.43134973987828945,-0.8,0.0,0.0006802082061767578,0.0008883476257324219,0
0.8698523044586182,0.011327396146953106,-0.042832307517528534,0.8282151818275452,-0.0619043411206197,-0.9312881790709727,0.39207233244341033,-0.24867322534558267,0.07733905052340316,0.41496786337138136,0.43336090313847025,-0.8,0.0,0.0006353855133056641,0.0008096694946289062,0
0.879899263381958,0.011024771258234978,-0.04327087849378586,0.8278661966323853,-0.06189814105490489,-0.9312354188900063,0.3948254106527282,-0.24660637269361396,0.07734913826197157,0.41285861516411876,0.43537083490372436,-0.8,0.0,0.0006687641143798828,0.0008597373962402344,0
0.889812707901001,0.01087099313735962,-0.04348486289381981,0.8277488350868225,-0.06189144548585431,-0.9311953055894887,0.3974988985929564,-0.24452251124932814,0.07735368884057546,0.4107678546602302,0.4373439945601539,-0.8,0.0,0.0006480216979980469,0.0008230209350585938,0
0.8999171257019043,0.010715055279433727,-0.04369577392935753,0.8276673555374146,-0.061901462220150985,-0.9311667049790976,0.40015002790277293,-0.24236234784391825,0.07736063052095946,0.40862711354269077,0.439344832765527,-0.8,0.0,0.0006368160247802734,0.0008237361907958984,0
0.9098057746887207,0.010557688772678375,-0.043902862817049026,0.8276214599609375,-0.061913118767693086,-0.9311478665304487,0.4027184906043546,-0.24017103305154203,0.07736986090255653,0.4065226493100545,0.44129280030149415,-0.8,0.0,0.0006649494171142578,0.0008451938629150391,0
0.9198341369628906,0.010240449570119381,-0.04431084170937538,0.827629804611206,-0.061903356435282345,-0.9311305174041122,0.4055089161116615,-0.23801370362002036,0.07737266129502045,0.4043789682923285,0.4432579948549512,-0.8,0.0,0.0006444454193115234,0.0008220672607421875,0
0.9297616481781006,0.010080680251121521,-0.04451371356844902,0.8276820778846741,-0.06190749631249117,-0.9311206161148625,0.4082678252909731,-0.23583751622746932,0.07737617402369851,0.402247488101142,0.4451931696649462,-0.8,0.0,0.0006723403930664062,0.0008599758148193359,0
0.9399967193603516,0.009918629191815853,-0.0447152815759182,0.8278200626373291,-0.06193108709470315,-0.9311226122513444,0.4109667698769269,-0.23362686475477143,0.07738747947710264,0.4000402784160521,0.44717756612424947,-0.8,0.0,0.0013170242309570312,0.001699209213256836,0
0.9497270584106445,0.009753278456628323,-0.04491559416055679,0.8279886245727539,-0.06194812479556877,-0.9311354505763981,0.4136705509179787,-0.2314730958876885,0.07740178243231013,0.3979328370033744,0.4490539580434025,-0.8,0.0,0.0013043880462646484,0.0016431808471679688,0
0.9599423408508301,0.009584355168044567,-0.045114897191524506,0.8281867504119873,-0.06196196896465955,-0.9311557859085928,0.41632610555160005,-0.2292717230655417,0.07741698606436442,0.3957108951655786,0.45101317879553854,-0.8,0.0,0.0012769699096679688,0.0016245841979980469,0
0.9698727130889893,0.009413213469088078,-0.045313287526369095,0.8284125924110413,-0.0619714785359038,-0.9311827338869991,0.4189714314086092,-0.22701357793059357,0.07743119469601902,0.39354167782023947,0.45290721767093844,-0.8,0.0,0.0013256072998046875,0.0016753673553466797,0
0.9799222946166992,0.009063863195478916,-0.04570776969194412,0.8289458155632019,-0.061956764363208995,-0.9312197812143911,0.42169933102409823,-0.22482853333268585,0.07743562292341669,0.3913371908388949,0.45481337168812697,-0.8,0.0,0.0016186237335205078,0.002091646194458008,0
0.990053653717041,0.008886628784239292,-0.04590248689055443,0.8292510509490967,-0.061963869716209874,-0.9312620337581732,0.4243015955471638,-0.2225977553276805,0.07744138718997039,0.3891054196873999,0.45672417537272136,-0.8,0.0,0.0013539791107177734,0.0017070770263671875,0
0.9997570514678955,0.008526064455509186,-0.04628216102719307,0.8299364447593689,-0.06195673953726454,-0.9313169310140872,0.4269241361103652,-0.2205362629859434,0.07744274835945347,0.3869591736265135,0.4585439978303999,-0.8,0.0,0.0013799667358398438,0.0017328262329101562,0
1.0097665786743164,0.008340529166162014,-0.046469081193208694,0.8303983807563782,-0.061977375051599684,-0.9313801702155915,0.42948212978251354,-0.2184372226111326,0.0774514394959673,0.3847362987493277,0.4604106649771137,-0.8,0.0,0.0012660026550292969,0.0016093254089355469,0
1.0199389457702637,0.008152293972671032,-0.04665471985936165,0.8308814764022827,-0.06198516327766234,-0.9314459771004449,0.43196422727360495,-0.2162429237542327,0.0774604438763005,0.38246803585813566,0.46229665967516986,-0.8,0.0,0.0013761520385742188,0.001737356185913086,0
1.0297636985778809,0.007962075062096119,-0.046838998794555664,0.8313844203948975,-0.061965963037983456,-0.9315164135994691,0.43440404000903343,-0.21403146113855004,0.07745954685265415,0.38026850777765386,0.4641075974303334,-0.8,0.0,0.0012784004211425781,0.0016269683837890625,0
1.0399751663208008,0.007769010029733181,-0.04702204093337059,0.831908106803894,-0.061960123176676735,-0.9315918429571987,0.43679739816940816,-0.21180999599820027,0.07745672898811168,0.37797331679293417,0.46597872461363316,-0.8,0.0,0.0013287067413330078,0.0015683174133300781,0
1.0496280193328857,0.0073751588352024555,-0.04738568142056465,0.8330157399177551,-0.06192147069820564,-0.9316854031232171,0.4392939671276929,-0.20966410708994382,0.07744026180350529,0.3757952173670582,0.46773705712082025,-0.8,0.0,0.0007481575012207031,0.0009398460388183594,0
1.0597503185272217,0.007175880949944258,-0.047566093504428864,0.8335991501808167,-0.061915153198722435,-0.9317839573143079,0.44171629441722216,-0.2073974857355991,0.07742636571197462,0.37350240546309155,0.46956996615337776,-0.8,0.0,0.0006728172302246094,0.000858306884765625,0
1.0699207782745361,0.007290379144251347,-0.04764758422970772,0.831682562828064,-0.06191405483971203,-0.9318206755348956,0.44392706909165014,-0.20480355653679982,0.07741622656327424,0.371189681130988,0.4714002764338131,-0.8,0.0,0.0012776851654052734,0.0016314983367919922,0
1.0799145698547363,0.007495943456888199,-0.0478157103061676,0.828158438205719,-0.061919349017347004,-0.9317617200476852,0.44602564460439126,-0.20202213061166233,0.0774111144757971,0.36890839339935216,0.4731876977262921,-0.8,0.0,0.0012216567993164062,0.0015707015991210938,0
1.1247034072875977,0.0075864288955926895,-0.04790220409631729,0.8265442252159119,-0.06192008442210407,-0.9316666390587705,0.45006535354601196,-0.19646605741067125,0.077407811791347,0.35857946282075936,0.4810621257625418,-0.8,0.0,0.0006885528564453125,0.0008759498596191406,0
1.1296095848083496,0.007942968048155308,-0.04834820702672005,0.8195475339889526,-0.06195086863309433,-0.9314086183299339,0.4531077374569609,-0.19163774908036485,0.0774170439913533,0.3574377308143997,0.4819110587963849,-0.8,0.0,0.0006542205810546875,0.0008330345153808594,0
1.1397297382354736,0.007997987791895866,-0.048440903425216675,0.8183493614196777,-0.06194822448575968,-0.9311664461408331,0.4559700039050338,-0.18749318205281135,0.07742251497610718,0.3550762965899786,0.48365361944261875,-0.8,0.0,0.0006508827209472656,0.0008289813995361328,0
1.1501085758209229,0.008045803755521774,-0.048534732311964035,0.8172137141227722,-0.061940938137726706,-0.9309420096609615,0.4587242450899209,-0.18379094857228395,0.07742361228492253,0.35264567798156526,0.48542870310780156,-0.8,0.0,0.0013475418090820312,0.0017027854919433594,0
1.159724235534668,0.008121764287352562,-0.048726119101047516,0.8152486085891724,-0.06193062546096204,-0.9307124822884386,0.4613950427975327,-0.18042023695206397,0.07742051314730654,0.35038586755847445,0.487062361320699,-0.8,0.0,0.001207590103149414,0.001528024673461914,0
1.1699225902557373,0.008149293251335621,-0.048823438584804535,0.8143517374992371,-0.06192757600510544,-0.9305059650813257,0.463991643434182,-0.17734172426516542,0.0774172002050291,0.34798084725552225,0.4887835205316653,-0.8,0.0,0.0012896060943603516,0.0016350746154785156,0
1.1797831058502197,0.008169442415237427,-0.0489206463098526,0.813510537147522,-0.06191342111553099,-0.930324166836675,0.46649050604377684,-0.1744845514522173,0.0774095730618445,0.3456474579985985,0.4904363717946571,-0.8,0.0,0.0006928443908691406,0.0008904933929443359,0
1.1899514198303223,0.008184188976883888,-0.049014948308467865,0.8127122521400452,-0.06191593861987406,-0.9300942082949902,0.46843020559434406,-0.17155799082045592,0.0774051781257439,0.34323300995938344,0.4921291506040074,-0.8,0.0,0.0013644695281982422,0.0016701221466064453,0
1.1997921466827393,0.008202271535992622,-0.0490957610309124,0.8118748664855957,-0.061906500591671035,-0.9295681772097633,0.46857872260092975,-0.16774465744019648,0.07739856240989737,0.34088845252872907,0.4937560763500216,-0.8,0.0,0.0007131099700927734,0.0009090900421142578,0
1.2097175121307373,0.00827629305422306,-0.049198977649211884,0.8096380829811096,-0.06181396722368188,-0.9279124168027575,0.46133069179598485,-0.16024067913503823,0.07735923139580887,0.338515918797164,0.49538568077903894,-0.8,0.0,0.0006842613220214844,0.0008709430694580078,0
1.2198424339294434,0.008333336561918259,-0.04921532794833183,0.8081057071685791,-0.0616706546014365,-0.9257555375550051,0.4518134667239958,-0.15181410105418594,0.0772779574526049,0.33608765737255036,0.4970363030622926,-0.8,0.0,0.0006644725799560547,0.0008475780487060547,0
1.2298634052276611,0.008406850509345531,-0.04920632764697075,0.8063284158706665,-0.06149276466754721,-0.9231571981917542,0.4401518040164929,-0.14239135311444318,0.07715435696715366,0.3336764013642372,0.49865825890344223,-0.8,0.0,0.0006716251373291016,0.0008652210235595703,0
1.2397451400756836,0.008499660529196262,-0.04917111247777939,0.8042218089103699,-0.06130007055740925,-0.9201597307719486,0.42653135798690245,-0.13211108712244332,0.07699557633603604,0.3312909832959088,0.5002462237606895,-0.8,0.0,0.0007152557373046875,0.0009012222290039062,0
1.249708652496338,0.008739948272705078,-0.049015697091817856,0.7989885210990906,-0.06083740656800096,-0.9160576831390029,0.4026961378940798,-0.1169492928669964,0.07671093089822563,0.32887817349878207,0.5018357769192079,-0.8,0.0,0.0007007122039794922,0.0009152889251708984,0
1.2597429752349854,0.00888863019645214,-0.04889092594385147,0.7958605289459229,-0.06055634702781008,-0.911692951812831,0.3806122508810618,-0.10279155878160055,0.07640628176418676,0.32644050796804275,0.5034248650569082,-0.8,0.0,0.0006916522979736328,0.0008800029754638672,0
1.2697772979736328,0.009058929048478603,-0.048731621354818344,0.7923936247825623,-0.06025044533844819,-0.9071354878174528,0.35984124211975543,-0.08941716301920934,0.07607831423684885,0.3239951643621887,0.505002112342036,-0.8,0.0,0.0006699562072753906,0.0008542537689208984,0
1.2798244953155518,0.009476575069129467,-0.04829707369208336,0.7844559550285339,-0.05957074957901241,-0.9016707370239365,0.33104583456778003,-0.07232715347642894,0.07559385105792434,0.32153904803510525,0.5065694824885114,-0.8,0.0,0.0007033348083496094,0.0008862018585205078,0
1.2898929119110107,0.009722684510052204,-0.048014815896749496,0.7799931764602661,-0.059185210041099175,-0.8961507957972139,0.30624468634459917,-0.057246026440468986,0.07511014950595929,0.3190701382896707,0.5081281795490291,-0.8,0.0,0.001132965087890625,0.0013613700866699219,0
1.299668312072754,0.009996617212891579,-0.0476839579641819,0.7752788066864014,-0.058778295620435045,-0.8906388015457992,0.2843260072544513,-0.04368919277250839,0.07461896551183514,0.316665850365277,0.5096300022687401,-0.8,0.0,0.0006935596466064453,0.0008869171142578125,0
1.309762954711914,0.010298026725649834,-0.04730238765478134,0.7702475786209106,-0.05837285032275329,-0.8851661292102001,0.26445553950574446,-0.03120589364551233,0.07412309472931715,0.31417562565309454,0.51116893122087,-0.8,0.0,0.0007004737854003906,0.0008947849273681641,0
1.3196594715118408,0.010984443128108978,-0.04637565091252327,0.7592616677284241,-0.05746811814287471,-0.8790042646720138,0.23665121804172295,-0.015413801535609954,0.0734367106141001,0.3117270158086143,0.5126658440105561,-0.8,0.0,0.0006916522979736328,0.0008778572082519531,0
1.329638957977295,0.011371972039341927,-0.045822422951459885,0.7533232569694519,-0.057000679615554356,-0.8729785093771162,0.213095790421791,-0.001779746610275355,0.07278095228570304,0.3092506557134096,0.5141634292137337,-0.8,0.0,0.0006635189056396484,0.0008585453033447266,0
1.3397963047027588,0.011790236458182335,-0.04520690068602562,0.7470978498458862,-0.056517873002839294,-0.8671137832293851,0.19255947678848767,0.010354274535762924,0.07214086897605528,0.30672277287307353,0.5156754217538906,-0.8,0.0,0.0006871223449707031,0.0008778572082519531,0
1.349637746810913,0.012241970747709274,-0.04452669620513916,0.7405931949615479,-0.056024311258855784,-0.8614165264036678,0.17408063788758435,0.02128555796577355,0.07150772500530969,0.3042664583577934,0.5171285355870483,-0.8,0.0,0.0007288455963134766,0.0009241104125976562,0
1.359710454940796,0.013238836079835892,-0.04297035187482834,0.7267804741859436,-0.05499733335926883,-0.8551518490182617,0.14808106733142684,0.03519105432726409,0.0706794075134427,0.30174529426555047,0.518603680461869,-0.8,0.0,0.0006864070892333984,0.0008718967437744141,0
1.369842290878296,0.013787084259092808,-0.04209236800670624,0.7195473313331604,-0.054465334075861606,-0.8491208676488176,0.12648948361784465,0.04702615220255002,0.06990008553785877,0.2992021160785037,0.5200750847081078,-0.8,0.0,0.001371622085571289,0.0017366409301757812,0
1.3798019886016846,0.014367391355335712,-0.04114564135670662,0.7120691537857056,-0.05391210357791772,-0.8433313724303954,0.10793158230059961,0.05738193556483989,0.06914709871822039,0.2966951526891806,0.5215093348836085,-0.8,0.0,0.0006754398345947266,0.0008637905120849609,0
1.389789342880249,0.014980324544012547,-0.040130048990249634,0.7043542861938477,-0.05336721658719973,-0.8377734704811293,0.09147682571449052,0.06673956269658218,0.06841567532295427,0.2941743242019652,0.5229354328980941,-0.8,0.0,0.0006725788116455078,0.0008571147918701172,0
1.3996517658233643,0.016138074919581413,-0.0382571816444397,0.688252329826355,-0.05228165838408962,-0.831724309494377,0.06841603939798796,0.0782728685395625,0.06749659462009933,0.2916783019418768,0.5243317348552378,-0.8,0.0,0.000675201416015625,0.0008625984191894531,0
1.409818410873413,0.016766617074608803,-0.037210896611213684,0.6798800230026245,-0.051715412589849706,-0.8259599076441119,0.04967757568389166,0.08794911408926291,0.06664089595526403,0.2890983493122957,0.5257586370426127,-0.8,0.0,0.00070953369140625,0.0008995532989501953,0
1.419783353805542,0.017431732267141342,-0.03609186410903931,0.6713054776191711,-0.051144966210352985,-0.8204721922439269,0.033872637084151905,0.09643794055334633,0.0658279894975673,0.28656280756807184,0.5271449111190435,-0.8,0.0,0.0006802082061767578,0.0008804798126220703,0
1.4297406673431396,0.018129076808691025,-0.034896958619356155,0.6625385284423828,-0.050566454840083694,-0.8152459821505016,0.01996558599921371,0.10392955388422224,0.06504201321332928,0.28402256746674737,0.5285179099799712,-0.8,0.0,0.0006504058837890625,0.0008308887481689453,0
1.439748764038086,0.019614944234490395,-0.03228408470749855,0.6445382237434387,-0.04939427647352762,-0.8095974404759344,0.0003354551473230584,0.11292105082642621,0.06405226292690348,0.28146274337766103,0.5298855764127959,-0.8,0.0,0.0006835460662841797,0.0008695125579833984,0
1.4496166706085205,0.020402954891324043,-0.030866939574480057,0.6353182196617126,-0.04882032336310462,-0.8042566780348293,-0.015473604819705753,0.12039860195115944,0.06314420530999443,0.2789323283038725,0.5312219462964427,-0.8,0.0,0.0006649494171142578,0.0008542537689208984,0
1.4596905708312988,0.021219821646809578,-0.029375100508332253,0.6259370446205139,-0.04821023545048438,-0.799206884430448,-0.028620505080163734,0.1268578295325666,0.06227978201092786,0.2763425460435861,0.5325737481759202,-0.8,0.0,0.0006492137908935547,0.0008246898651123047,0
1.4698424339294434,0.02195681259036064,-0.028260018676519394,0.6152622699737549,-0.04761285016214295,-0.7943947527356127,-0.0396489531899258,0.13257570931825668,0.0614506662184525,0.2737260940110496,0.5339232392933033,-0.8,0.0,0.0007145404815673828,0.0008959770202636719,0
1.4796624183654785,0.023517251014709473,-0.02578413300216198,0.5935893058776855,-0.04639007903525406,-0.7891616874856239,-0.05527860539177085,0.13891598841696193,0.06041174599113806,0.27118890652887867,0.5352163833214292,-0.8,0.0,0.0006761550903320312,0.0008573532104492188,0
1.489954948425293,0.024337036535143852,-0.024423763155937195,0.5826025605201721,-0.04578305639634789,-0.7842258224262597,-0.06750663246422021,0.14408014608045983,0.059456868342426396,0.2685230715491378,0.5365588132216417,-0.8,0.0,0.0006783008575439453,0.00086212158203125,0
1.4997169971466064,0.025181815028190613,-0.022982819005846977,0.5715239644050598,-0.045153894956824286,-0.7795629528470459,-0.07742229663639183,0.14839377948766683,0.0585525184485077,0.26598849363910027,0.5378197851061285,-0.8,0.0,0.0007190704345703125,0.0009212493896484375,0
1.5098152160644531,0.026050258427858353,-0.021463610231876373,0.5603610873222351,-0.044512933405750674,-0.7751528312785287,-0.08580645496450251,0.15206351538351826,0.05767911294111276,0.26336040390087995,0.5391115818243617,-0.8,0.0,0.0006797313690185547,0.0008666515350341797,0
1.5198276042938232,0.027856122702360153,-0.018194925040006638,0.5379145741462708,-0.04326312727846975,-0.7703939721070358,-0.09802518723053394,0.15594254468196078,0.05659905178820617,0.2607484578878293,0.540379719927681,-0.8,0.0,0.0006766319274902344,0.0008597373962402344,0
1.5297040939331055,0.02879323810338974,-0.016451191157102585,0.5265874862670898,-0.04263243167787984,-0.765936387443763,-0.10726110560507393,0.15911776021356386,0.05560649813094939,0.2581659812433554,0.5416182475957171,-0.8,0.0,0.0006425380706787109,0.0008289813995361328,0
1.5396854877471924,0.029751595109701157,-0.014635739848017693,0.5151991844177246,-0.041993272025184714,-0.7617502636351499,-0.11454852968082845,0.16178065447798815,0.05467202570110896,0.25555009800936657,0.5428573914090173,-0.8,0.0,0.0006585121154785156,0.000843048095703125,0
1.5497963428497314,0.03072991780936718,-0.012749981135129929,0.5037549734115601,-0.04135348151635586,-0.7578014763311873,-0.12056776444997502,0.1641099055923709,0.05377797355940906,0.25289422269667033,0.5440997262695938,-0.8,0.0,0.0006766319274902344,0.0008745193481445312,0
1.5596816539764404,0.03172751143574715,-0.010794883593916893,0.49225980043411255,-0.04072444276248832,-0.7540645325196376,-0.12577558429402394,0.1662387771067986,0.052916247527519576,0.2502917531080704,0.545301786468822,-0.8,0.0,0.0006477832794189453,0.0008249282836914062,0
1.5698933601379395,0.03378163278102875,-0.0066793798469007015,0.4691956341266632,-0.039496541779232605,-0.7500167394749594,-0.1343443134972009,0.16799321127885145,0.05185257643647607,0.24759735583416034,0.5465304651928675,-0.8,0.0,0.0006530284881591797,0.0008401870727539062,0
1.5797996520996094,0.03483181074261665,-0.004522255621850491,0.4576367437839508,-0.03886008566546857,-0.7462391157942014,-0.14081467396634256,0.1693451714664153,0.05086933563008409,0.24497777915502023,0.547709674663753,-0.8,0.0,0.0007026195526123047,0.00089263916015625,0
1.5898828506469727,0.03589580953121185,-0.002300951862707734,0.4460490942001343,-0.03822206532791772,-0.7427001799203894,-0.14583392360099995,0.17044469347292204,0.049941809439028935,0.24230565518472758,0.5488970481479198,-0.8,0.0,0.0006887912750244141,0.0008721351623535156,0
1.5997600555419922,0.03752963989973068,0.0009962596232071519,0.4228251278400421,-0.03703169030858786,-0.7389150808746927,-0.15199707862265427,0.1702159872265773,0.04884615047304085,0.23968254099490796,0.5500475248032884,-0.8,0.0,0.0006830692291259766,0.0008933544158935547,0
1.6096229553222656,0.03836715593934059,0.0027473042719066143,0.4111865162849426,-0.036450489733308805,-0.735399939554862,-0.15573418140838485,0.16980083373611482,0.04786123898112038,0.23705777536755374,0.5511838269922171,-0.8,0.0,0.0006468296051025391,0.0008294582366943359,0
1.6197514533996582,0.039218515157699585,0.004564042203128338,0.3995353877544403,-0.03590557905256915,-0.7321271166596551,-0.15797037464002295,0.16929843604703557,0.04696745943149859,0.23435672150601966,0.5523376929786251,-0.8,0.0,0.0006353855133056641,0.0008141994476318359,0
1.6298270225524902,0.04008179530501366,0.006444921251386404,0.3878767192363739,-0.03537441404352014,-0.7290630156653408,-0.15919845900001592,0.168667337366839,0.04614262686836989,0.23166421032842754,0.5534723964687905,-0.8,0.0,0.0006780624389648438,0.0008716583251953125,0
1.6396026611328125,0.04183512553572655,0.010392222553491592,0.3646610379219055,-0.03428759477709136,-0.7257964087251222,-0.16178780322310649,0.1664596117902192,0.04515768684926746,0.22904659859901644,0.554560777255497,-0.8,0.0,0.0006496906280517578,0.0008273124694824219,0
1.6498897075653076,0.04272345080971718,0.012454311363399029,0.35305750370025635,-0.0337513240387268,-0.7227764323021207,-0.1628921627633038,0.16447237699216288,0.04426712730900911,0.22628652751014988,0.5556927275638922,-0.8,0.0,0.0006718635559082031,0.0008687973022460938,0
1.6596884727478027,0.04361807182431221,0.01457207091152668,0.34146010875701904,-0.03323174720891626,-0.7199650062472647,-0.16304559107081196,0.16254049586939967,0.043448894319650794,0.22365226206363312,0.5567581752195652,-0.8,0.0,0.0006535053253173828,0.0008363723754882812,0
1.6697800159454346,0.04451750963926315,0.016744714230298996,0.3298718333244324,-0.03272954082833308,-0.7173360153940805,-0.1626850017933161,0.1606570153238319,0.04268780383438056,0.22093404440520859,0.5578424042888434,-0.8,0.0,0.0006649494171142578,0.0008437633514404297,0
1.6797223091125488,0.0463261678814888,0.02124686911702156,0.3067399561405182,-0.03170500377213029,-0.7145305618276281,-0.16323616139729508,0.15694522968608698,0.04177083909861538,0.2182508879151511,0.5588976202528045,-0.8,0.0,0.0007226467132568359,0.0009016990661621094,0
1.689800500869751,0.04723232612013817,0.02357293665409088,0.2952030599117279,-0.031185204127339213,-0.711938291857933,-0.1628180759267618,0.15367649599669297,0.04093403891678381,0.21552591289257367,0.5599540881820784,-0.8,0.0,0.0006756782531738281,0.0008790493011474609,0
1.6996524333953857,0.04813796281814575,0.025948597118258476,0.28369101881980896,-0.030670153730983286,-0.7095399357182566,-0.16195357610076058,0.15070769698820427,0.04015513489086818,0.21285717132480084,0.5609739963809414,-0.8,0.0,0.0006792545318603516,0.0008633136749267578,0
1.7098116874694824,0.04904225841164589,0.028374958783388138,0.27224746346473694,-0.03018121268397089,-0.707302042730698,-0.1607414879002453,0.14785692696059238,0.03942654918009691,0.2101001272451521,0.5620123989126672,-0.8,0.0,0.0006780624389648438,0.0008592605590820312,0
1.7197256088256836,0.05084181949496269,0.03335997462272644,0.24944794178009033,-0.029223900606384953,-0.7049144016163149,-0.16016447374815443,0.1431915546381757,0.038557547153461554,0.20740477817585143,0.5630126623707729,-0.8,0.0,0.0006570816040039062,0.0008347034454345703,0
1.7298898696899414,0.05173822492361069,0.03591642528772354,0.23809689283370972,-0.028746302361816776,-0.702710540032186,-0.15901156460476606,0.13933738061953685,0.0377701463931038,0.20463642474835744,0.5640247633448462,-0.8,0.0,0.0006911754608154297,0.0008721351623535156,0
1.7398881912231445,0.052630383521318436,0.03851374611258507,0.2267821878194809,-0.02828413615059213,-0.7006701782522544,-0.15741540035087218,0.13594839563030606,0.03704565353164417,0.2019084481021393,0.5650070606505602,-0.8,0.0,0.001344919204711914,0.0017232894897460938,0
1.7497961521148682,0.053517721593379974,0.04114854708313942,0.21550796926021576,-0.027830272752468355,-0.6987762339413179,-0.15554873087182777,0.13292655935129385,0.036368309754326936,0.1992004743110062,0.5659674646428627,-0.8,0.0,0.0013995170593261719,0.0017447471618652344,0
1.759765625,0.05527661368250847,0.04653013125061989,0.1930929273366928,-0.0269288176221303,-0.6967754302461523,-0.15437457959896295,0.12781711892992037,0.03555612343632818,0.19647107794567434,0.5669207312586696,-0.8,0.0,0.0006601810455322266,0.0008542537689208984,0
1.769723653793335,0.056144874542951584,0.049274854362010956,0.1819576919078827,-0.026498077615145246,-0.6949427352661292,-0.15279971437207684,0.12352185589523129,0.03482606551110961,0.19374026093915836,0.5678597637544209,-0.8,0.0,0.0006666183471679688,0.0008533000946044922,0
1.779738187789917,0.057003848254680634,0.052055250853300095,0.17093582451343536,-0.026077290275609878,-0.6932527368041933,-0.15105526386191168,0.11972581874270159,0.03415722971113081,0.19098942235388813,0.5687908583556245,-0.8,0.0,0.0006709098815917969,0.0008494853973388672,0
1.7899320125579834,0.05785127729177475,0.05486806109547615,0.1599653661251068,-0.025651144388077873,-0.6916915750324033,-0.14901083479173588,0.11617387476450726,0.033529239943321125,0.1881847403826949,0.5697249366905909,-0.8,0.0,0.0006582736968994141,0.0008432865142822266,0
1.7996234893798828,0.0595090389251709,0.06058533862233162,0.13818688690662384,-0.024836203046804686,-0.6900455583945048,-0.14738532667783136,0.11035717276148843,0.032784044102876,0.18551403514286094,0.570600160151584,-0.8,0.0,0.0006635189056396484,0.0008413791656494141,0
1.809755563735962,0.06031915917992592,0.06348826736211777,0.12738081812858582,-0.024444951915478744,-0.6885357306503351,-0.1455089388372557,0.1054789437586271,0.032115687840318395,0.18271756215608426,0.5715017869436083,-0.8,0.0,0.0007121562957763672,0.0008959770202636719,0
1.81984543800354,0.06111626327037811,0.06641852855682373,0.11663211137056351,-0.02404420654824021,-0.6871439766838747,-0.14346127516439935,0.10127753825485869,0.0314975589438125,0.17992838195729374,0.5723860387590094,-0.8,0.0,0.0006482601165771484,0.0008301734924316406,0
1.8298487663269043,0.06189935281872749,0.06937448680400848,0.10594350844621658,-0.023667745470373643,-0.6858588530353575,-0.14132785019163407,0.09747853297972242,0.030923695812059192,0.1771589016643175,0.5732492682604076,-0.8,0.0,0.0012960433959960938,0.0018398761749267578,0
1.839771032333374,0.06342268735170364,0.07536397129297256,0.08475128561258316,-0.022923447800954146,-0.6845047757531051,-0.13953700775671898,0.09170554766150416,0.030242879993799033,0.17440777279804234,0.5740922650477243,-0.8,0.0,0.0007030963897705078,0.0008838176727294922,0
1.8497793674468994,0.06416082382202148,0.07839541137218475,0.07427985966205597,-0.022549275518345124,-0.6832700555019492,-0.1376449291125967,0.08684040644139683,0.029625994315038828,0.1716287164840971,0.5749291988393191,-0.8,0.0,0.0014107227325439453,0.0017819404602050781,0
1.8597276210784912,0.06488228589296341,0.08144932240247726,0.06387383490800858,-0.022181468729089757,-0.6821392628839482,-0.13563561676331196,0.08260789504869695,0.029056246793935668,0.16886236328055276,0.5757477766064812,-0.8,0.0,0.0006971359252929688,0.0008792877197265625,0
1.8699712753295898,0.06471765786409378,0.08409692347049713,0.05136226862668991,-0.021837726531370113,-0.6810229482016033,-0.13324892820432782,0.07802738058164187,0.028528520205018372,0.16600978792872628,0.5765767514493272,-0.8,0.0,0.0013735294342041016,0.001720428466796875,0
1.879715919494629,0.06455008685588837,0.08677244186401367,0.03897419944405556,-0.021467718921352692,-0.6799260590620421,-0.13066001210266134,0.07305662415995426,0.028020358739019965,0.1632923953312798,0.5773522266580193,-0.8,0.0,0.0012664794921875,0.001592874526977539,0
1.8900699615478516,0.0642036721110344,0.09220588207244873,0.01457173377275467,-0.0207632917017875,-0.6786757605836187,-0.12788483552256857,0.06472201553744884,0.0274004855054841,0.16040109830374816,0.5781621638112886,-0.8,0.0,0.0013947486877441406,0.0016231536865234375,0
1.8997249603271484,0.06402438133955002,0.09495946019887924,0.002554548205807805,-0.020423792724995424,-0.6774923923589405,-0.12496797215391364,0.05731188985982884,0.026839262125711985,0.1577013836395581,0.5789043734488183,-0.8,0.0,0.0006937980651855469,0.000881195068359375,0
1.9097189903259277,0.0638398677110672,0.09773622453212738,-0.009340002201497555,-0.02008122683754503,-0.6763761183691155,-0.12198855562821467,0.05069860557762775,0.02631794355207739,0.15490325326495824,0.5796593673252699,-0.8,0.0,0.0006825923919677734,0.0008718967437744141,0
1.9197883605957031,0.06365100294351578,0.10053573548793793,-0.02111203968524933,-0.0197452263493063,-0.6753189686609348,-0.11903043052847165,0.0447112073191687,0.025827020367444102,0.15208037408654965,0.5804063747217936,-0.8,0.0,0.0006906986236572266,0.0008776187896728516,0
1.929872989654541,0.06345877051353455,0.1033577173948288,-0.03270025923848152,-0.01942729690137843,-0.6743196184529435,-0.11608584525818665,0.03919164108741088,0.025364150595227643,0.14924960700102635,0.5811407358033329,-0.8,0.0,0.0006649494171142578,0.0008497238159179688,0
1.9397547245025635,0.063053198158741,0.10905846208333969,-0.05551697686314583,-0.018777168646872695,-0.6732401381423795,-0.11275935554221765,0.030903019092447675,0.024796343659236438,0.14647235267962308,0.5818469299570945,-0.8,0.0,0.0006785392761230469,0.0008587837219238281,0
1.949965476989746,0.06283725798130035,0.11193323135375977,-0.0667448490858078,-0.018448969337321538,-0.6722497063719477,-0.10947001641761557,0.023855607388999653,0.02427580406296115,0.14359911907549147,0.582562694480811,-0.8,0.0,0.0006842613220214844,0.0008687973022460938,0
1.9596831798553467,0.06261131167411804,0.11482495069503784,-0.07785220444202423,-0.018149228400361112,-0.6713365677041131,-0.10627208556291556,0.01752515342682687,0.02379902349420808,0.1408613769907239,0.5832307197604367,-0.8,0.0,0.0007102489471435547,0.0008897781372070312,0
1.969879388809204,0.06212296709418297,0.12065455317497253,-0.09970846027135849,-0.017520103856701833,-0.6703833139036277,-0.10299199888219471,0.008956254861308757,0.023229355392209165,0.1379854871110645,0.5839178070128725,-0.8,0.0,0.0006778240203857422,0.0008625984191894531,0
1.979724645614624,0.06186144798994064,0.12359027564525604,-0.11045757681131363,-0.017234498905056544,-0.6695242484295015,-0.09991223235943085,0.0018373494010803914,0.022723485863942686,0.1352054041788667,0.5845677879261132,-0.8,0.0,0.0007030963897705078,0.0008897781372070312,0
1.989999771118164,0.06158605217933655,0.1265394687652588,-0.12108800560235977,-0.016979549661680433,-0.6687414690756981,-0.09698082248338148,-0.00435540203405406,0.022273771227889906,0.1323006719817644,0.5852320327811641,-0.8,0.0,0.001077413558959961,0.001291036605834961,0
1.9997496604919434,0.061298269778490067,0.12950241565704346,-0.13154742121696472,-0.016739472948397175,-0.6680314693825902,-0.09412520436500879,-0.010015227158026503,0.021868942215171928,0.1295414035587893,0.5858489777784194,-0.8,0.0,0.0007004737854003906,0.0008950233459472656,0
2.00964093208313,0.060675542801618576,0.1354610025882721,-0.15211798250675201,-0.01620678497061278,-0.6673082852434238,-0.09125413369741618,-0.017699444228888323,0.021385803914599995,0.12673918407272342,0.5864615752294265,-0.8,0.0,0.0006871223449707031,0.0008714199066162109,0
2.019704818725586,0.06034150719642639,0.1384541094303131,-0.1622295081615448,-0.01597036744379417,-0.6666600473862251,-0.08838386527937817,-0.02398825976333538,0.020958950531642866,0.12388508988003821,0.5870711068562434,-0.8,0.0,0.0006780624389648438,0.0008664131164550781,0
2.0298173427581787,0.059991344809532166,0.141453817486763,-0.17222566902637482,-0.015707251896196407,-0.6660812761801502,-0.08557611961003944,-0.029325526403954395,0.020561484833223714,0.12101425002082389,0.587669593642463,-0.8,0.0,0.0006923675537109375,0.0008802413940429688,0
2.0396711826324463,0.059240490198135376,0.1474745124578476,-0.19187162816524506,-0.015204163136386523,-0.6655131463375841,-0.08269321345875372,-0.03649104043957378,0.0200946005594012,0.11821406644110097,0.5882392663665517,-0.8,0.0,0.0006618499755859375,0.0008435249328613281,0
2.0498011112213135,0.058838266879320145,0.15049438178539276,-0.20152001082897186,-0.01497819836182929,-0.665023619468285,-0.07996979799045145,-0.04220375833439764,0.0196830447772667,0.11533263176273703,0.5888109917882656,-0.8,0.0,0.0006692409515380859,0.0008492469787597656,0
2.0597710609436035,0.05841994658112526,0.15352052450180054,-0.21105025708675385,-0.014731110544426797,-0.6646077158246131,-0.07738843259381405,-0.046758588371210455,0.019302297798246788,0.11249400286235257,0.5893599064408819,-0.8,0.0,0.0006926059722900391,0.0008776187896728516,0
2.069847345352173,0.057984981685876846,0.15655143558979034,-0.2204032689332962,-0.014507220342623101,-0.6642506212388735,-0.07505852552431552,-0.050462745560533685,0.01895181608725631,0.10962244472668814,0.5899007709879215,-0.8,0.0,0.0006411075592041016,0.0008184909820556641,0
2.07983136177063,0.05706869438290596,0.16261957585811615,-0.23876698315143585,-0.014054091482060339,-0.66392489217065,-0.07253152165656022,-0.05553831216038049,0.01853655556685192,0.10677461669617622,0.5904228833890033,-0.8,0.0,0.0006656646728515625,0.0008540153503417969,0
2.089906930923462,0.056584566831588745,0.1656566858291626,-0.24777913093566895,-0.013812493935096178,-0.663651836414492,-0.0702762645589402,-0.0594112243989694,0.018155274122457297,0.10389815389943925,0.5909358456011011,-0.8,0.0,0.00067138671875,0.0008633136749267578,0
2.0997111797332764,0.056082844734191895,0.16869685053825378,-0.25667837262153625,-0.013567181541697115,-0.6634298513934099,-0.06830414856137859,-0.06248068549362099,0.017796384963856417,0.10109678420290025,0.5914215419003879,-0.8,0.0,0.0006504058837890625,0.0008308887481689453,0
2.1098473072052,0.055562786757946014,0.17173942923545837,-0.2654641270637512,-0.013358707903953927,-0.6632529575905486,-0.06651603013905373,-0.06488360224974817,0.01746698493868233,0.09819820087654607,0.5919097172243496,-0.8,0.0,0.0006649494171142578,0.0008599758148193359,0
2.1197431087493896,0.05502421408891678,0.17478249967098236,-0.2741360664367676,-0.013173039375970804,-0.6631206139181571,-0.0648011485036484,-0.06678168001721312,0.017166779223066787,0.09536606832875756,0.5923726133199565,-0.8,0.0,0.000659942626953125,0.0008432865142822266,0
2.129903793334961,0.05389190465211868,0.18086868524551392,-0.2911422848701477,-0.012793776089209155,-0.6630279650330355,-0.062938186293604,-0.06981408399685851,0.016814411489600382,0.09245585814621379,0.59283379989205,-0.8,0.0,0.0006544589996337891,0.0008351802825927734,0
2.1397581100463867,0.05330014228820801,0.1839100569486618,-0.2994057238101959,-0.012615925570421292,-0.6629758244578322,-0.06124026840888403,-0.07180389205763903,0.016501060131628362,0.08963126688342406,0.5932674236774444,-0.8,0.0,0.0006906986236572266,0.0008800029754638672,0
2.149731159210205,0.05269191414117813,0.18694937229156494,-0.30755940079689026,-0.012457594365508298,-0.6629595067371534,-0.05966829233578861,-0.07299586552126647,0.01622233997920532,0.0867705728997912,0.593692570004579,-0.8,0.0,0.0007033348083496094,0.0008914470672607422,0
2.1598243713378906,0.0514279380440712,0.1930219531059265,-0.3235434889793396,-0.012094054762696786,-0.6629910119652059,-0.05822132998541493,-0.07500478921490922,0.015890908521455135,0.0838733587182985,0.5941087944958495,-0.8,0.0,0.0006616115570068359,0.0008428096771240234,0
2.1696975231170654,0.05077073723077774,0.1960539072751999,-0.3313744366168976,-0.011887136399608957,-0.6630546041580434,-0.05692085003481945,-0.07610604035964481,0.01558131211487186,0.08103738027900585,0.5945022649221076,-0.8,0.0,0.0006754398345947266,0.0008616447448730469,0
2.179774284362793,0.05009690299630165,0.1990824043750763,-0.33909645676612854,-0.011733442439411164,-0.6631473047923823,-0.05572066806114335,-0.07649729461228051,0.015306959395189406,0.07814101443476253,0.5948898905369852,-0.8,0.0,0.0006577968597412109,0.0008459091186523438,0
