time,x,y,z,yaw,throttle,roll_rate,pitch_rate,yaw_rate,x_ref,y_ref,z_ref,yaw_ref,pred_time,nr_time,metadata
9.5367431640625e-07,0.016461171209812164,-0.02318200282752514,1.0237034559249878,-0.016908074022948208,-0.7623009600592554,0.14529417188758315,-0.28720945246374313,0.006340494465122578,0.5557046850856209,0.22625716115493655,-0.8,0.0,0.24724864959716797,0.24849224090576172,Sim
0.24961400032043457,0.016461171209812164,-0.02318200282752514,1.0237034559249878,-0.016908074022948208,-0.8064510857489384,0.28455603592017076,-0.4410466167246202,0.010778877637113677,0.5244352101064583,0.29149221327609237,-0.8,0.0,0.0006799697875976562,0.0009648799896240234,Jax
0.2597951889038086,0.015202091075479984,-0.02025105245411396,1.0402135848999023,-0.017294939121211998,-0.8413606584314428,0.377851340326682,-0.5487326317072342,0.014030823974021498,0.522994494002427,0.2940693102708022,-0.8,0.0,0.0005352497100830078,0.0008213520050048828,1stOrderHold
0.27077627182006836,0.015084359794855118,-0.020072052255272865,1.043293833732605,-0.017316955982540735,-0.8695835678040482,0.43652946167806844,-0.616685051712254,0.01631542710412271,0.5214263923890919,0.2968408956328234,-0.8,0.0,0.0007147789001464844,0.0011074542999267578,QuatYawError
0.2797389030456543,0.015023638494312763,-0.019981112331151962,1.0449116230010986,-0.017307658143261642,-0.8915836926483542,0.4691770133145594,-0.6440639116315229,0.017911171412471765,0.5201356379973352,0.2990968373037484,-0.8,0.0,0.0005667209625244141,0.0008466243743896484,NoPyJoules
0.289914608001709,0.014961976557970047,-0.019889390096068382,1.0465797185897827,-0.01731113655992552,-0.908838420750598,0.4841072653666869,-0.6447686585069815,0.019029493518250423,0.5186583528129548,0.3016513103856048,-0.8,0.0,0.0005621910095214844,0.0008714199066162109,0
0.2997574806213379,0.014899362809956074,-0.019796565175056458,1.0482966899871826,-0.017329335543249627,-0.922432565457347,0.487511255726981,-0.6294572771669172,0.019819152854771527,0.5172174505358427,0.30411528876595983,-0.8,0.0,0.0005507469177246094,0.0008437633514404297,0
0.309924840927124,0.014839441515505314,-0.019701404497027397,1.0499516725540161,-0.01736343800192265,-0.9331791056190584,0.4836869497430651,-0.604771112210225,0.020384702533999523,0.5157167560727024,0.3066532691915232,-0.8,0.0,0.0005335807800292969,0.0008244514465332031,0
0.3197910785675049,0.014787083491683006,-0.019470788538455963,1.052998661994934,-0.017372776120815815,-0.9416965177017161,0.47276886264079615,-0.5711188204713259,0.020784084045057608,0.5142486007897422,0.3091090043751432,-0.8,0.0,0.0005905628204345703,0.0008840560913085938,0
0.329967737197876,0.014860810711979866,-0.01929616928100586,1.0505794286727905,-0.017358336656679314,-0.9484606294731097,0.4582393200605907,-0.5340310314723054,0.021058238201278383,0.5127220021049946,0.3116346395339355,-0.8,0.0,0.0005328655242919922,0.0008141994476318359,0
0.33977270126342773,0.014964367263019085,-0.019104598090052605,1.0480090379714966,-0.01732069214368646,-0.9538406600647763,0.44132894320317484,-0.49534050696054377,0.021236026919628958,0.5112394280469047,0.31406089729584885,-0.8,0.0,0.0005617141723632812,0.0008602142333984375,0
0.3501768112182617,0.01525021716952324,-0.018686477094888687,1.0422918796539307,-0.017188921653901283,-0.9565881280139735,0.4174531416097413,-0.4478498332090609,0.021311068570497305,0.5096537049620912,0.3166277009650509,-0.8,0.0,0.0005574226379394531,0.0008549690246582031,0
0.35994505882263184,0.015433285385370255,-0.01845984160900116,1.0390853881835938,-0.017092623369495127,-0.9575833917882649,0.39334171191942774,-0.4023130106575532,0.02132748197503301,0.5081531651074062,0.31903034462465346,-0.8,0.0,0.0005710124969482422,0.0008597373962402344,0
0.3698592185974121,0.015433285385370255,-0.01845984160900116,1.0390853881835938,-0.017092623369495127,-0.9578443914206932,0.3761524688694621,-0.368486391880069,0.021338972329267476,0.5066186296029462,0.32146160601109547,-0.8,0.0,0.0005500316619873047,0.0008563995361328125,0
0.3798024654388428,0.015890294685959816,-0.01796160638332367,1.031783938407898,-0.016928777641801798,-0.956272353665726,0.35049026788228477,-0.324376838351512,0.02128557581572527,0.5050679084421092,0.323892586920283,-0.8,0.0,0.0004942417144775391,0.0007688999176025391,0
0.3900718688964844,0.016169562935829163,-0.01768987625837326,1.027657151222229,-0.01684293137373557,-0.9537315179678801,0.32611854667246953,-0.2834863346584891,0.021215999726868832,0.5034540761677687,0.3263954552227382,-0.8,0.0,0.0005419254302978516,0.0008251667022705078,0
0.39980173110961914,0.01684926077723503,-0.0170897226780653,1.0184756517410278,-0.016697901484714808,-0.9496310564142213,0.2955537049018492,-0.23554860729216093,0.021112905795305774,0.5019135893705955,0.3287594086944513,-0.8,0.0,0.000579833984375,0.0008952617645263672,0
0.4098193645477295,0.01684926077723503,-0.0170897226780653,1.0184756517410278,-0.016697901484714808,-0.9457576915564453,0.27638259355811273,-0.2038332897592031,0.021040751063288933,0.5003159442868849,0.3311856818951005,-0.8,0.0,0.0005044937133789062,0.0007803440093994141,0
0.41977477073669434,0.017713263630867004,-0.016387321054935455,1.0080243349075317,-0.01655340814616724,-0.9406050203326529,0.2499683763532115,-0.16389033180715648,0.02093605532957022,0.49871660377209637,0.33358919215410116,-0.8,0.0,0.0005323886871337891,0.0008234977722167969,0
0.430004358291626,0.018224820494651794,-0.015986112877726555,1.002320408821106,-0.01646417544500413,-0.9351399701948976,0.22682190310653322,-0.12893256899866617,0.020829302792588263,0.49706118854764597,0.3360508515680351,-0.8,0.0,0.0005784034729003906,0.0009200572967529297,0
0.43976402282714844,0.018795296549797058,-0.015547460876405239,0.9963003396987915,-0.016401673556995892,-0.929485678788491,0.20623732334968659,-0.09779188402546404,0.020731136572278347,0.49547049241684205,0.33839177168514606,-0.8,0.0,0.0005404949188232422,0.0008180141448974609,0
0.44978809356689453,0.018795296549797058,-0.015547460876405239,0.9963003396987915,-0.016401673556995892,-0.9246199668779665,0.19495641705547204,-0.07871786145685747,0.020662420751762518,0.4938252253304105,0.3407882727257047,-0.8,0.0,0.0005450248718261719,0.0008373260498046875,0
0.4597513675689697,0.020879266783595085,-0.013973983004689217,0.9762540459632874,-0.016170512148944098,-0.9178194569585155,0.167524570154265,-0.04105852102414267,0.020527640326402162,0.49217845073285144,0.34316231237449446,-0.8,0.0,0.0004906654357910156,0.0007784366607666016,0
0.4699709415435791,0.02170773223042488,-0.01335497759282589,0.9689486622810364,-0.016075218887862383,-0.9110516689278074,0.14472715132757488,-0.009742867580685488,0.020397551228792915,0.4904774569263569,0.3455891552798694,-0.8,0.0,0.0005393028259277344,0.0008308887481689453,0
0.47981762886047363,0.022605042904615402,-0.012683751061558723,0.9613497853279114,-0.015976327813150722,-0.9043834673502021,0.12514780691144267,0.0168865322955723,0.020269410670282564,0.48882720838925564,0.3479194739280444,-0.8,0.0,0.0005965232849121094,0.0009315013885498047,0
0.489940881729126,0.02461870200932026,-0.01117871142923832,0.9453021883964539,-0.015795196269435513,-0.8969418160713851,0.10080764251092372,0.04787182658571075,0.020111785257698224,0.4871190670572033,0.3503070289179477,-0.8,0.0,0.0005190372467041016,0.0007960796356201172,0
0.49985432624816895,0.02573937177658081,-0.01034143939614296,0.9368680715560913,-0.015695479564515422,-0.8897581336409894,0.08081547421807848,0.07334857297549166,0.01996406743943779,0.4854350260528873,0.3526369740696977,-0.8,0.0,0.0005741119384765625,0.0008680820465087891,0
0.5098812580108643,0.02573937177658081,-0.01034143939614296,0.9368680715560913,-0.015695479564515422,-0.8837643380539354,0.0707910024128719,0.08791084490383992,0.019860648782538296,0.48372037022693315,0.35498535663815584,-0.8,0.0,0.0005326271057128906,0.0008275508880615234,0
0.519775390625,0.029563093557953835,-0.0074747116304934025,0.9099447727203369,-0.01536118327073383,-0.876084686614041,0.04658966310747147,0.11602396197907773,0.019662894390105004,0.48201728761038076,0.3572944646152966,-0.8,0.0,0.0005702972412109375,0.0008561611175537109,0
0.5298097133636475,0.029563093557953835,-0.0074747116304934025,0.9099447727203369,-0.01536118327073383,-0.8696798364663018,0.03392297188641092,0.13228342857589798,0.019524466123675442,0.4802788160406334,0.35962794505239354,-0.8,0.0,0.0006120204925537109,0.0009710788726806641,0
0.5398426055908203,0.03250252455472946,-0.005253500770777464,0.8907024264335632,-0.015112176186037626,-0.8626144665416977,0.015765151037451956,0.1531432173933044,0.01933419228253295,0.4785292982804627,0.3619526359721779,-0.8,0.0,0.0005030632019042969,0.0007762908935546875,0
0.5498447418212891,0.03250252455472946,-0.005253500770777464,0.8907024264335632,-0.015112176186037626,-0.8567847546659209,0.006979399075798531,0.1649044043875011,0.019200996582332087,0.4767739432560204,0.3642617287502285,-0.8,0.0,0.0005350112915039062,0.0008320808410644531,0
0.560103178024292,0.03747282549738884,-0.0014517700765281916,0.8602432608604431,-0.014631752883941637,-0.8494086708004353,-0.013977908764833433,0.1868418674341763,0.018927609480055962,0.4749620343524207,0.36662114767673987,-0.8,0.0,0.0005609989166259766,0.0008757114410400391,0
0.570138692855835,0.039276447147130966,-5.812211747979745e-05,0.8497028946876526,-0.014459283126878861,-0.8424860591713063,-0.030228355539414907,0.204017437035306,0.018671557843670767,0.47317820074709527,0.3689205745655039,-0.8,0.0,0.0005331039428710938,0.0008184909820556641,0
0.5797939300537109,0.04115186259150505,0.001398504595272243,0.8389836549758911,-0.01428484338676629,-0.8359786947160096,-0.04335261541374086,0.21792758552453045,0.018426908409665637,0.47145145445338754,0.37112467729024085,-0.8,0.0,0.0005421638488769531,0.0008466243743896484,0
0.5898129940032959,0.04115186259150505,0.001398504595272243,0.8389836549758911,-0.01428484338676629,-0.8306700765279493,-0.048976032801700584,0.22557683272110476,0.01825565328534713,0.469648787349858,0.37340328940812484,-0.8,0.0,0.0005953311920166016,0.0008966922760009766,0
0.5997533798217773,0.045112647116184235,0.004506407771259546,0.8169505596160889,-0.013928669150693481,-0.8247271681152274,-0.06046807918561419,0.23730797580653934,0.01800220660183968,0.46784939273195764,0.375655354973596,-0.8,0.0,0.0005419254302978516,0.0008299350738525391,0
0.6100614070892334,0.04934752732515335,0.007864288054406643,0.7942280769348145,-0.013510873415382468,-0.8183180171828874,-0.07495097618324116,0.25064274745633824,0.017668121535372353,0.465972043207908,0.37798155371479103,-0.8,0.0,0.0005543231964111328,0.0008490085601806641,0
0.6197681427001953,0.05156295374035835,0.009635738097131252,0.7826671004295349,-0.013311551860725648,-0.8123377530047101,-0.08632464460441258,0.2611027163752198,0.017359516064615832,0.46419362943060605,0.3801634837751269,-0.8,0.0,0.0005412101745605469,0.0008339881896972656,0
0.6299669742584229,0.05617864429950714,0.013360945507884026,0.7591848969459534,-0.012867794880114254,-0.8059997078479326,-0.09974816095272196,0.2720584628625241,0.016977086008251704,0.46231405036874396,0.3824470144106847,-0.8,0.0,0.0005712509155273438,0.000850677490234375,0
0.6398468017578125,0.05857400968670845,0.015312879346311092,0.7472800016403198,-0.012632201020395691,-0.8001401507197413,-0.10995539857385557,0.28030799284244123,0.016621036113596558,0.4604825494259147,0.3846502589030846,-0.8,0.0,0.0006108283996582031,0.0009801387786865234,0
0.6501138210296631,0.06102406978607178,0.017322562634944916,0.7352755665779114,-0.012395023007520444,-0.7946912532021164,-0.11786464619452308,0.2868611792949812,0.016282859092128354,0.4585681471196984,0.3869305550705535,-0.8,0.0,0.0005981922149658203,0.0008924007415771484,0
0.6597836017608643,0.06352616846561432,0.019391944631934166,0.723178505897522,-0.01213636411620019,-0.7895991602097353,-0.12435945802504013,0.29218672721365707,0.015949138055471393,0.4567547802135991,0.38906949347388664,-0.8,0.0,0.0005443096160888672,0.0008127689361572266,0
0.6700029373168945,0.06608004868030548,0.021517936140298843,0.7109209299087524,-0.011892320428601938,-0.7848082595478099,-0.1298332320533069,0.2967603465067923,0.015624016800212174,0.4548275131617741,0.39132075497100355,-0.8,0.0,0.0005846023559570312,0.0008859634399414062,0
0.6797451972961426,0.07133428007364273,0.02593541331589222,0.6861804723739624,-0.011357642016345272,-0.7796362020301925,-0.1380163629879287,0.3016906119879819,0.015195926849858987,0.45297988619298524,0.39345803169409327,-0.8,0.0,0.0005419254302978516,0.0008285045623779297,0
0.6901218891143799,0.07403155416250229,0.02822682447731495,0.6737127304077148,-0.011073121514169589,-0.7748341371786494,-0.14431650546260935,0.30556989580904387,0.01478956917203797,0.45100089422739364,0.39572489611609124,-0.8,0.0,0.0005457401275634766,0.000835418701171875,0
0.6997485160827637,0.07677273452281952,0.030571406707167625,0.6611884236335754,-0.010791676649709021,-0.7703532824087899,-0.14940897129134714,0.30859885138145593,0.014399577290105848,0.44915480620396897,0.39781900415122834,-0.8,0.0,0.0005488395690917969,0.0008361339569091797,0
0.7100777626037598,0.07955533266067505,0.032967567443847656,0.6486155390739441,-0.010522344629605333,-0.7661522084659522,-0.15360154222265004,0.3111359603042158,0.014025583375228301,0.44716316487737245,0.4000563759982482,-0.8,0.0,0.0005650520324707031,0.0008502006530761719,0
0.7198011875152588,0.08523858338594437,0.037914056330919266,0.6233474016189575,-0.009932759074755791,-0.7616300272093509,-0.15988591207122776,0.3132218764700467,0.013542692879212188,0.44527815104245533,0.40215341376670216,-0.8,0.0,0.0005414485931396484,0.0008203983306884766,0
0.7299618721008301,0.08813168108463287,0.040460146963596344,0.6106646060943604,-0.009647236560569419,-0.7574477206074361,-0.16452780852607402,0.31464615054167383,0.013097598725680027,0.4432978617560034,0.4043352640601055,-0.8,0.0,0.0005669593811035156,0.0008397102355957031,0
0.7397830486297607,0.08947841823101044,0.04223711043596268,0.5955003499984741,-0.009364745801422112,-0.7534769349842432,-0.1674975683401631,0.31447814531763024,0.012680098601387005,0.44137358012319255,0.406434942849696,-0.8,0.0,0.0005197525024414062,0.0007898807525634766,0
0.7498352527618408,0.08947841823101044,0.04223711043596268,0.5955003499984741,-0.009364745801422112,-0.7502839516515751,-0.16759505075421363,0.3148417911632226,0.012387848954013417,0.43939373448901803,0.4085745294212481,-0.8,0.0,0.0005409717559814453,0.0013356208801269531,0
0.7598376274108887,0.09387192875146866,0.04793093353509903,0.5502909421920776,-0.008342154994396443,-0.7460086180858105,-0.17062711466747946,0.30993407624388414,0.01179980141031217,0.4374134083354771,0.4106939373893181,-0.8,0.0,0.0005018711090087891,0.0007796287536621094,0
0.7701296806335449,0.09544512629508972,0.04994606226682663,0.5353258848190308,-0.008029136930296821,-0.7420285144815466,-0.1721544774597048,0.3050171096962944,0.011270787278991461,0.4353650592672151,0.41286470564732736,-0.8,0.0,0.0005404949188232422,0.0008301734924316406,0
0.7797393798828125,0.09706953912973404,0.052017174661159515,0.5204191207885742,-0.007690006290565115,-0.7383057934180716,-0.17269855527518968,0.3001293921909946,0.010773303822479771,0.43344278774333417,0.41488233241882805,-0.8,0.0,0.0006203651428222656,0.0009253025054931641,0
0.7900288105010986,0.10045983642339706,0.05632171407341957,0.49079132080078125,-0.007079171305272417,-0.7343166398005425,-0.17357090817936152,0.2927310928113328,0.010196001835250811,0.4313741818531826,0.41703275078882873,-0.8,0.0,0.0005476474761962891,0.000835418701171875,0
0.799931526184082,0.10221985727548599,0.05855190008878708,0.47607406973838806,-0.006787234249940915,-0.730623010882197,-0.17347680049555664,0.2858622091613305,0.009682413901321994,0.42937324650877157,0.41909260931507447,-0.8,0.0,0.0005614757537841797,0.0008456707000732422,0
0.8098492622375488,0.10401894897222519,0.060831181704998016,0.4613402485847473,-0.006477816880261375,-0.7271792736883215,-0.17262561986133265,0.2793746219538847,0.009206870532966817,0.4273594178543866,0.42114596990967373,-0.8,0.0,0.0005061626434326172,0.0007824897766113281,0
0.8197429180145264,0.10585460066795349,0.0631575882434845,0.446677029132843,-0.006169743470837586,-0.7239467970111745,-0.1712528682089663,0.27310362271768357,0.008758463034773097,0.4253406949479626,0.4231847034347818,-0.8,0.0,0.0005526542663574219,0.0008375644683837891,0
0.8300294876098633,0.1096220463514328,0.0679432600736618,0.41757121682167053,-0.005603257062377715,-0.7204888982282931,-0.17006336643291123,0.2638718617262178,0.00823214557175108,0.4232314889278522,0.4252941414831779,-0.8,0.0,0.0006430149078369141,0.0009622573852539062,0
0.8397915363311768,0.11154875159263611,0.07039958238601685,0.40313610434532166,-0.005320689013288451,-0.7172917731730993,-0.1683824796495373,0.2555372375517229,0.007757759786418563,0.42122015740331026,0.4272862962898886,-0.8,0.0,0.0005087852478027344,0.0007827281951904297,0
0.850151538848877,0.11350148171186447,0.07289765030145645,0.388782799243927,-0.005049820538118869,-0.7143239120942875,-0.1663146726718795,0.24784495509666285,0.007324114542802556,0.4190753708637261,0.4293900715380252,-0.8,0.0,0.0005357265472412109,0.0008087158203125,0
0.8597660064697266,0.1154758408665657,0.07543530315160751,0.3745141327381134,-0.0047731704280878995,-0.7115544502238205,-0.16391511826362115,0.24042790477810738,0.0069168186974790215,0.4170755278832306,0.4313328228189046,-0.8,0.0,0.0004982948303222656,0.0007569789886474609,0
0.8699562549591064,0.1154758408665657,0.07543530315160751,0.3745141327381134,-0.0047731704280878995,-0.7093175538806864,-0.16086701046540894,0.2365419392881445,0.006631711931659105,0.4149460901205952,0.43338175122359596,-0.8,0.0,0.0006983280181884766,0.0010559558868408203,0
0.8798279762268066,0.12151055783033371,0.08326584845781326,0.3321528732776642,-0.004008075640447446,-0.7064694500702994,-0.15859341116536735,0.22550989179380204,0.006145227159912624,0.41287361546731677,0.4353566097476254,-0.8,0.0,0.0005478858947753906,0.0008380413055419922,0
0.8900146484375,0.123555488884449,0.0859445184469223,0.3181651830673218,-0.0037842215580736554,-0.7038419894302187,-0.1559965630709505,0.21605902583001116,0.005720742611535284,0.4107251669269732,0.4373840843615711,-0.8,0.0,0.0005502700805664062,0.0008192062377929688,0
0.8997669219970703,0.125614196062088,0.08865537494421005,0.304273396730423,-0.003559336082282393,-0.7014069955414393,-0.1532462041211215,0.2076172569763276,0.005339271477481911,0.40865900747155165,0.4393151666086276,-0.8,0.0,0.0005939006805419922,0.0008835792541503906,0
0.9098963737487793,0.12768258154392242,0.09139777719974518,0.2904796004295349,-0.0033472220474424002,-0.6991422816555983,-0.15046499520066153,0.19982839672661123,0.004992698903047776,0.40650332536432227,0.44131060090116564,-0.8,0.0,0.0005512237548828125,0.0008413791656494141,0
0.9197590351104736,0.13184262812137604,0.09697527438402176,0.2631901502609253,-0.002938556746643203,-0.6967525472507069,-0.147937958890529,0.18919681107761938,0.0045968479202233405,0.40439505757018496,0.44324331626411106,-0.8,0.0,0.0005655288696289062,0.0008447170257568359,0
0.9297702312469482,0.13184262812137604,0.09697527438402176,0.2631901502609253,-0.002938556746643203,-0.6948143366747402,-0.14500596612742855,0.18327383377297551,0.004319752259357551,0.4022456412647714,0.4451948383387803,-0.8,0.0,0.000598907470703125,0.0009016990661621094,0
0.9397566318511963,0.136026069521904,0.1026640459895134,0.2363104224205017,-0.002547619765658021,-0.6927463009427685,-0.1421896724302117,0.17414167961501179,0.003979184454457347,0.400092166011674,0.44713114261487874,-0.8,0.0,0.0005509853363037109,0.000827789306640625,0
0.9499809741973877,0.1381177008152008,0.10554713755846024,0.2230297178030014,-0.0023562230779348423,-0.6908357878419664,-0.1393223470295387,0.16596963441758392,0.0036690127470776867,0.3978777247255078,0.449102790202035,-0.8,0.0,0.0005178451538085938,0.0008070468902587891,0
0.9600117206573486,0.14230026304721832,0.11138619482517242,0.19661062955856323,-0.0019873792441640033,-0.6888523302982476,-0.13654952407298868,0.15527665608028154,0.0033135762195975918,0.3956957712159817,0.45102644782960283,-0.8,0.0,0.0005753040313720703,0.0008950233459472656,0
0.9699320793151855,0.1443888545036316,0.11433921754360199,0.18357054889202118,-0.0018195509105965071,-0.6870422050522027,-0.1337401549228105,0.14607488393368592,0.0030018345274006445,0.3935286823914393,0.4529185093758674,-0.8,0.0,0.0005116462707519531,0.0007929801940917969,0
0.9797694683074951,0.14647281169891357,0.11731261014938354,0.17064440250396729,-0.001675142947184585,-0.6853775713350507,-0.13086220477327204,0.13807103121598335,0.0027294625988077267,0.3913707842468566,0.4547844645961429,-0.8,0.0,0.0005457401275634766,0.000850677490234375,0
0.9900877475738525,0.14855150878429413,0.1203060895204544,0.15783213078975677,-0.0015364582786115432,-0.6838440935972985,-0.12797280619781798,0.13091421801108566,0.002486795800323169,0.38909789359237107,0.45673058711014736,-0.8,0.0,0.0005333423614501953,0.0008199214935302734,0
0.9998769760131836,0.15268680453300476,0.12634867429733276,0.13255389034748077,-0.0012509715065571931,-0.682258944635924,-0.12515720334296956,0.12123058714271226,0.0022098719308459996,0.3869325947737937,0.4585664260514709,-0.8,0.0,0.0006906986236572266,0.0011780261993408203,0
1.0099036693572998,0.15268680453300476,0.12634867429733276,0.13255389034748077,-0.0012509715065571931,-0.6809700855217165,-0.1221727045245928,0.11602781048443984,0.0020160247105409927,0.38470579158412566,0.46043615618414596,-0.8,0.0,0.000732421875,0.0011680126190185547,0
1.019944429397583,0.15678134560585022,0.13245350122451782,0.10773778706789017,-0.0010015638059897316,-0.679621173916348,-0.11905909357270883,0.10772793570588614,0.0017868042891217672,0.38246681060540505,0.4622976733505471,-0.8,0.0,0.0007007122039794922,0.0011844635009765625,0
1.030193567276001,0.16082052886486053,0.13860969245433807,0.0832347422838211,-0.0008088027717682075,-0.6782500501639332,-0.11587587176427766,0.09732654170036338,0.001554064428960418,0.380172074267115,0.46418659389025785,-0.8,0.0,0.0008661746978759766,0.001363992691040039,0
1.0399425029754639,0.1628187894821167,0.14170539379119873,0.07116472721099854,-0.0006999095435831655,-0.6770135146466192,-0.11270263945897571,0.08871606053779828,0.001350311378541892,0.3779806731107916,0.46597275752420647,-0.8,0.0,0.0007531642913818359,0.0013055801391601562,0
1.0500054359436035,0.16480112075805664,0.14481139183044434,0.059217456728219986,-0.0006148517561428936,-0.6758934519128769,-0.10949244539204608,0.08130567311687581,0.0011757876032055642,0.37570988945356004,0.467805599546215,-0.8,0.0,0.0005738735198974609,0.0008699893951416016,0
1.059866189956665,0.16676640510559082,0.14792709052562714,0.047391507774591446,-0.000553885151055525,-0.6748725029695488,-0.10633368586136369,0.07479546180042705,0.0010307580765278647,0.3734761074543823,0.4695908827487205,-0.8,0.0,0.0005679130554199219,0.0008764266967773438,0
1.0700888633728027,0.16871348023414612,0.15105277299880981,0.035686932504177094,-0.0005003433984081968,-0.6739400400792741,-0.10325227591881013,0.06895934878022403,0.0009091595110900607,0.3711513837168324,0.47143043003722257,-0.8,0.0,0.0005578994750976562,0.0008578300476074219,0
1.0797579288482666,0.17255140841007233,0.15733179450035095,0.012645781971514225,-0.00035264697720547477,-0.6730056965989677,-0.10046063151886306,0.06101864275565655,0.0007686544362689242,0.3689442164534204,0.47315976704023727,-0.8,0.0,0.0005433559417724609,0.0008175373077392578,0
1.0899181365966797,0.17255140841007233,0.15733179450035095,0.012645781971514225,-0.00035264697720547477,-0.672243996639784,-0.09753308092586054,0.057020253605302315,0.0006703007153701644,0.366616254681953,0.47496581119379255,-0.8,0.0,0.0005459785461425781,0.0008530616760253906,0
1.099717378616333,0.1763218492269516,0.16364063322544098,-0.010007417760789394,-0.0002528829660130707,-0.6714668026497144,-0.09474695397999329,0.05065639564673942,0.000564041641374287,0.36436262350468057,0.47669684139166096,-0.8,0.0,0.0005147457122802734,0.0007898807525634766,0
1.1098840236663818,0.1763218492269516,0.16364063322544098,-0.010007417760789394,-0.0002528829660130707,-0.670833609779453,-0.09182343364354299,0.04774520907881491,0.0004896602456547742,0.3620158590127827,0.47848147072090164,-0.8,0.0,0.0005812644958496094,0.0008845329284667969,0
1.1198360919952393,0.18181611597537994,0.1731451451778412,-0.04319404065608978,-0.00012847588037517613,-0.6701526529638909,-0.0891497203375683,0.039680580044149774,0.0003909411932705394,0.359710158733747,0.4802172442798597,-0.8,0.0,0.0005297660827636719,0.0008168220520019531,0
1.1300292015075684,0.18360184133052826,0.1763225495815277,-0.0540020726621151,-0.00011213322329934605,-0.6695482225435961,-0.0865035034571156,0.033298854623227944,0.0003157089015963649,0.3573399871014992,0.4819835408168005,-0.8,0.0,0.0005402565002441406,0.0008382797241210938,0
1.1399338245391846,0.18547910451889038,0.1794164478778839,-0.06832010298967361,-9.434419519472206e-05,-0.6688815209894299,-0.08372229788349053,0.02809612198383578,0.000256375422218629,0.3550285875648555,0.48368864159881164,-0.8,0.0,0.0005505084991455078,0.0008406639099121094,0
1.1498000621795654,0.18547910451889038,0.1794164478778839,-0.06832010298967361,-9.434419519472206e-05,-0.6683390964442065,-0.08085745560136205,0.025961985542839405,0.00021484175035638354,0.3527180570210811,0.48537611421584537,-0.8,0.0,0.0005829334259033203,0.0008826255798339844,0
1.1597919464111328,0.19095395505428314,0.18871858716011047,-0.1100386455655098,-0.000187850954610019,-0.6674416233920357,-0.07806179175501526,0.019571337010321106,0.0002208330520807155,0.3503699276936704,0.4870738278412546,-0.8,0.0,0.0005331039428710938,0.0016350746154785156,0
1.169985294342041,0.19095395505428314,0.18871858716011047,-0.1100386455655098,-0.000187850954610019,-0.6667129374601434,-0.07520690400061276,0.016717711284675942,0.00022502720704592436,0.3479660338947452,0.4887940663055977,-0.8,0.0,0.0006513595581054688,0.0009391307830810547,0
1.1797304153442383,0.19446811079978943,0.19493529200553894,-0.13687118887901306,-0.000261476947851353,-0.6658662158847369,-0.07265508924594528,0.012351291143001195,0.00025557316957425843,0.3456599475735491,0.49042756921226527,-0.8,0.0,0.0005600452423095703,0.0008594989776611328,0
1.1897482872009277,0.19446811079978943,0.19493529200553894,-0.13687118887901306,-0.000261476947851353,-0.6651809771612386,-0.06999601490348255,0.010889877150477241,0.0002769551650045987,0.34328132478617596,0.49209545014463196,-0.8,0.0,0.0005280971527099609,0.0008428096771240234,0
1.1997990608215332,0.19953207671642303,0.2042675018310547,-0.17557217180728912,-0.0004104005921524202,-0.6643035601922522,-0.06756188164541926,0.00586507180397391,0.0003477686717979205,0.34088680251497805,0.49375721551296275,-0.8,0.0,0.0006289482116699219,0.0009694099426269531,0
1.2098560333251953,0.19953207671642303,0.2042675018310547,-0.17557217180728912,-0.0004104005921524202,-0.6635933408748409,-0.06500649103731372,0.0039712766003135854,0.00039733822854528747,0.3384827518020432,0.4954083434223897,-0.8,0.0,0.00051116943359375,0.0007977485656738281,0
1.2197811603546143,0.20276913046836853,0.21048396825790405,-0.2004438042640686,-0.0005063199330420128,-0.6628364952747209,-0.0625403901491675,0.0009014410112047539,0.00046800674174372783,0.3361023768874209,0.49702634965424725,-0.8,0.0,0.0005412101745605469,0.0008242130279541016,0
1.2297608852386475,0.20276913046836853,0.21048396825790405,-0.2004438042640686,-0.0005063199330420128,-0.6622249517584734,-0.05996503199560151,0.0003513808752779794,0.0005174746976168801,0.3337011095514492,0.49864172457199335,-0.8,0.0,0.0005781650543212891,0.0009632110595703125,0
1.2397639751434326,0.2074103206396103,0.21979209780693054,-0.2363879233598709,-0.0006580024629952269,-0.6615260303833895,-0.057888945549394534,-0.0034172136197737064,0.0006089832864250023,0.3312864293399023,0.5002492396148323,-0.8,0.0,0.0005695819854736328,0.000850677490234375,0
1.249875545501709,0.2074103206396103,0.21979209780693054,-0.2363879233598709,-0.0006580024629952269,-0.6609608378044383,-0.05558168242079218,-0.004433421774390783,0.0006730391453124858,0.3288376928234052,0.5018623036038669,-0.8,0.0,0.0006368160247802734,0.00092315673828125,0
1.2598044872283936,0.2103603333234787,0.22598618268966675,-0.259391188621521,-0.0007527641859185031,-0.6604039834517353,-0.053530338988778195,-0.006662542137708562,0.0007534138497885332,0.3264255409540099,0.5034345699421942,-0.8,0.0,0.0005295276641845703,0.0008134841918945312,0
1.26981782913208,0.2103603333234787,0.22598618268966675,-0.259391188621521,-0.0007527641859185031,-0.6599540964176812,-0.05123857592075632,-0.006632272950759091,0.0008096762835226564,0.32398527151144896,0.505008459180292,-0.8,0.0,0.0005640983581542969,0.0008702278137207031,0
1.2798094749450684,0.21456459164619446,0.23524263501167297,-0.2924937903881073,-0.0008865623897698144,-0.659497189954391,-0.049570935955911166,-0.009482896024879428,0.0008992341290410253,0.32154272555628916,0.5065671482062698,-0.8,0.0,0.0005509853363037109,0.0008907318115234375,0
1.28989839553833,0.21590650081634521,0.2383173257112503,-0.3032601475715637,-0.0009381066981462949,-0.6591057997455512,-0.047754545941559416,-0.011181887682387702,0.0009812537720332013,0.31906879156725343,0.5081290251971566,-0.8,0.0,0.0005891323089599609,0.0008776187896728516,0
1.29974365234375,0.21721942722797394,0.24138551950454712,-0.3138442933559418,-0.0009646111732844389,-0.6587756104754331,-0.04592838321206586,-0.012257885008641691,0.001048606921391298,0.3166472926890051,0.5096415328765146,-0.8,0.0,0.0005333423614501953,0.0008344650268554688,0
1.3098554611206055,0.21721942722797394,0.24138551950454712,-0.3138442933559418,-0.0009646111732844389,-0.6585085984373508,-0.043772365423323085,-0.01142663603205301,0.0010957539834690454,0.31415277078318343,0.5111829776207817,-0.8,0.0,0.0006003379821777344,0.0009162425994873047,0
1.319730520248413,0.2209719568490982,0.2505449652671814,-0.34451571106910706,-0.0010951611903730573,-0.658298335141887,-0.04244783457592079,-0.01339035904515014,0.0011777134748933715,0.3117094109803317,0.5126765482312358,-0.8,0.0,0.0005176067352294922,0.0007941722869873047,0
1.329808235168457,0.2209719568490982,0.2505449652671814,-0.34451571106910706,-0.0010951611903730573,-0.6581273289925341,-0.04063722540432045,-0.01319646423134321,0.0012350849587345945,0.30920858820128416,0.5141887289532596,-0.8,0.0,0.0005664825439453125,0.0008838176727294922,0
1.3397061824798584,0.2233262062072754,0.2566216289997101,-0.36407607793807983,-0.0011889896701810156,-0.6580236762571791,-0.039407935951306976,-0.014198230336271067,0.001310430451334877,0.30674523439697665,0.5156620610193694,-0.8,0.0,0.0005788803100585938,0.0008647441864013672,0
1.3498740196228027,0.2233262062072754,0.2566216289997101,-0.36407607793807983,-0.0011889896701810156,-0.6579388121249518,-0.037648980654476076,-0.013326324754853432,0.0013631724291179295,0.30420740244887107,0.517163278177512,-0.8,0.0,0.0005292892456054688,0.000820159912109375,0
1.3599984645843506,0.22663168609142303,0.26568344235420227,-0.39228254556655884,-0.0012976498802766284,-0.6579537254023019,-0.03677552645019026,-0.014887499790426091,0.0014408394938939468,0.30167310099350103,0.5186456787990862,-0.8,0.0,0.0005619525909423828,0.0008885860443115234,0
1.3700096607208252,0.2276756465435028,0.2686885893344879,-0.4013686180114746,-0.001325930008372005,-0.6580055374685498,-0.03568369570800782,-0.015651032867726344,0.0015058114254974146,0.299160044396312,0.5200992865182538,-0.8,0.0,0.0005221366882324219,0.0008091926574707031,0
1.3797271251678467,0.22868868708610535,0.27168604731559753,-0.41028597950935364,-0.0013648196480623243,-0.658088363813859,-0.03451433090273116,-0.015874350230864285,0.0015658754438488678,0.2967140223405347,0.5214985991798067,-0.8,0.0,0.0005950927734375,0.0009105205535888672,0
1.3909811973571777,0.2306286096572876,0.277656227350235,-0.4276202917098999,-0.0014478862239749226,-0.6582653978420894,-0.03359661429547152,-0.016649021743029634,0.001639070042630216,0.2938730387543156,0.5231048050757175,-0.8,0.0,0.0009982585906982422,0.0014748573303222656,0
1.399899959564209,0.23155386745929718,0.28062719106674194,-0.43604013323783875,-0.001483933715271931,-0.658466357917452,-0.03259615574596952,-0.01706936157915342,0.001703824292387491,0.2916154023287937,0.5243667200772908,-0.8,0.0,0.0008103847503662109,0.0013115406036376953,0
1.4101064205169678,0.23155386745929718,0.28062719106674194,-0.43604013323783875,-0.001483933715271931,-0.6586260300780172,-0.030974895991302414,-0.015809102795883937,0.0017491520794681605,0.28902516018293833,0.5257988748383043,-0.8,0.0,0.001207113265991211,0.0016369819641113281,0
1.4197566509246826,0.23331746459007263,0.2865407466888428,-0.45256325602531433,-0.0015399143590170046,-0.6588767566645638,-0.02984295812842155,-0.01575769295542466,0.001801874427029572,0.28656961092300687,0.527141212670226,-0.8,0.0,0.0008111000061035156,0.001356363296508789,0
1.4297735691070557,0.23331746459007263,0.2865407466888428,-0.45256325602531433,-0.0015399143590170046,-0.6590763270712469,-0.02815027669110983,-0.014197289874863824,0.0018387800463284883,0.2840141628626155,0.5285224264810792,-0.8,0.0,0.0005841255187988281,0.0009067058563232422,0
1.4397907257080078,0.23496507108211517,0.2924136221408844,-0.46844568848609924,-0.0015562696979950033,-0.6593709205961454,-0.02695033636032782,-0.013812483358000609,0.0018707472104194014,0.28145199671252397,0.5298912846485904,-0.8,0.0,0.0005657672882080078,0.00086212158203125,0
1.4498341083526611,0.23496507108211517,0.2924136221408844,-0.46844568848609924,-0.0015562696979950033,-0.6596056322616072,-0.02521400606543471,-0.012014833530635222,0.0018931241530603668,0.27887649935643577,0.5312512570401127,-0.8,0.0,0.0006194114685058594,0.0009303092956542969,0
1.4599428176879883,0.23722335696220398,0.30113646388053894,-0.4910980761051178,-0.001587079955151727,-0.6600493463376884,-0.02439442694194761,-0.012575026598658104,0.0019203418424264145,0.27627761449363447,0.5326074349177888,-0.8,0.0,0.0007104873657226562,0.0011701583862304688,0
1.469968557357788,0.23722335696220398,0.30113646388053894,-0.4910980761051178,-0.001587079955151727,-0.6604032111813877,-0.022907892532514705,-0.01145834016009657,0.0019393942888320628,0.2736935464917284,0.5339399241569974,-0.8,0.0,0.0007741451263427734,0.001280069351196289,0
1.4798595905303955,0.2392270267009735,0.3097516596317291,-0.5124676823616028,-0.0015770388545279963,-0.6609640126223993,-0.02235015744968662,-0.012636132218319081,0.0019489655898532877,0.27113790044221475,0.5352422245523868,-0.8,0.0,0.0006492137908935547,0.000997781753540039,0
1.4898910522460938,0.2392270267009735,0.3097516596317291,-0.5124676823616028,-0.0015770388545279963,-0.661411472008013,-0.021035142151798126,-0.011961797616167785,0.0019556654412519387,0.26853964165877914,0.5365505203219679,-0.8,0.0,0.0005500316619873047,0.0008721351623535156,0
1.4998383522033691,0.240422785282135,0.3154368996620178,-0.5261011123657227,-0.0016034826143484476,-0.6619549452849397,-0.01997783052398861,-0.012160338819834644,0.0019702717512246797,0.2659569481353266,0.5378353853536816,-0.8,0.0,0.0007641315460205078,0.001241445541381836,0
1.5098018646240234,0.240422785282135,0.3154368996620178,-0.5261011123657227,-0.0016034826143484476,-0.6623885494386905,-0.018338959160261396,-0.010802308695265153,0.0019804962170271835,0.2633638828062519,0.5391098823368152,-0.8,0.0,0.0005171298980712891,0.00080108642578125,0
1.5197982788085938,0.24201618134975433,0.3238706886768341,-0.54547119140625,-0.0016336619157983421,-0.6630416355328052,-0.017656108354655548,-0.011694521334533048,0.001998970568227463,0.2607561170149844,0.5403760241158629,-0.8,0.0,0.0005717277526855469,0.0008838176727294922,0
1.5300142765045166,0.2424945831298828,0.32665711641311646,-0.5516441464424133,-0.0016163944921598668,-0.6636741487834577,-0.016697738092467513,-0.01193720298679579,0.0020054272511622743,0.2580847799940561,0.5416569452480229,-0.8,0.0,0.0005505084991455078,0.0008451938629150391,0
1.5397958755493164,0.24343252182006836,0.32953712344169617,-0.5617426633834839,-0.0016049136453549168,-0.6641383395560744,-0.01562132586839943,-0.011400785957498546,0.002005641659835807,0.25552113465809323,0.542871024961768,-0.8,0.0,0.0005638599395751953,0.000835418701171875,0
1.5498640537261963,0.24343252182006836,0.32953712344169617,-0.5617426633834839,-0.0016049136453549168,-0.6645088703528711,-0.014014115458928566,-0.009490061620239944,0.0020057918120421105,0.2528764162705628,0.5441080022331568,-0.8,0.0,0.0005970001220703125,0.0009019374847412109,0
1.5599017143249512,0.24603067338466644,0.33808228373527527,-0.5907471776008606,-0.0018199822642228863,-0.6647040315673014,-0.013294033518293627,-0.008843159047071622,0.0020865476623700705,0.2502337533966267,0.5453284044142908,-0.8,0.0,0.0005049705505371094,0.0007801055908203125,0
1.569859504699707,0.24603067338466644,0.33808228373527527,-0.5907471776008606,-0.0018199822642228863,-0.6648597390815931,-0.012024258663268861,-0.006832341083031121,0.0021430765857759003,0.24760629872072226,0.5465264136652723,-0.8,0.0,0.0005660057067871094,0.0008757114410400391,0
1.5799000263214111,0.24758708477020264,0.3436925411224365,-0.6089907884597778,-0.001959010952077651,-0.6649442045970682,-0.011243037092719368,-0.005569038622950435,0.002234782739569171,0.24495120779209692,0.5477215586419736,-0.8,0.0,0.0005598068237304688,0.0008404254913330078,0
1.590092658996582,0.2483130544424057,0.34647324681282043,-0.6177865266799927,-0.002003960085764195,-0.66499706864047,-0.010457754196690521,-0.0038979997866983133,0.002315832967892719,0.24224999304483996,0.548921616325842,-0.8,0.0,0.0005137920379638672,0.0007901191711425781,0
1.5999045372009277,0.24900393187999725,0.3492373526096344,-0.6263706088066101,0.016769270815054624,-0.6650318646818378,-0.009256529716103572,-0.0015265598818020236,-0.004667390436281159,0.23964412995567136,0.5500642607712205,-0.8,0.0,0.0006096363067626953,0.00091552734375,0
1.6099627017974854,0.2502821087837219,0.3547095060348511,-0.6429163813591003,0.01667086241580637,-0.6650675882105667,-0.00839119450204395,-7.87203791349938e-05,-0.009518747903121766,0.2369672639690799,0.551222746090007,-0.8,0.0,0.0005254745483398438,0.0007901191711425781,0
1.619774580001831,0.25087010860443115,0.35741814970970154,-0.650884747505188,0.016593760528930995,-0.6651105446462292,-0.00752725691185183,0.0015494401293172874,-0.012885783863518824,0.23435054768468516,0.5523403124884948,-0.8,0.0,0.0005710124969482422,0.0017158985137939453,0
1.630112648010254,0.25194481015205383,0.36278414726257324,-0.6663601398468018,0.016429954721682637,-0.6651826174249967,-0.007065127874096862,0.002446988467454861,-0.01518128044271144,0.2315878017814022,0.5535043722194595,-0.8,0.0,0.0005466938018798828,0.0008327960968017578,0
1.6397991180419922,0.2524338662624359,0.3654404580593109,-0.6738061904907227,0.01636443478337179,-0.6652658286262292,-0.006452932659329003,0.003708674139065076,-0.016763558940945805,0.22899394094725548,0.5545825231734632,-0.8,0.0,0.0006136894226074219,0.0009136199951171875,0
1.6498908996582031,0.2524338662624359,0.3654404580593109,-0.6738061904907227,0.01636443478337179,-0.6653321223691764,-0.005321317053186981,0.006202875345308733,-0.017871154914180662,0.2262862073396015,0.5556928579420999,-0.8,0.0,0.00057220458984375,0.000873565673828125,0
1.659987211227417,0.25330308079719543,0.37070390582084656,-0.6881337761878967,0.016189770376628634,-0.6654462551716571,-0.004906108009549919,0.00761436677523067,-0.01858097204104758,0.22357187116594882,0.5567904618645657,-0.8,0.0,0.0005292892456054688,0.0008242130279541016,0
1.6700780391693115,0.25403091311454773,0.3759004771709442,-0.7017287611961365,0.015384095347382413,-0.6656256966029394,-0.0047791590876063396,0.007999656429719964,-0.018775716037576683,0.22085368984388412,0.5578742220988001,-0.8,0.0,0.0005474090576171875,0.0008289813995361328,0
1.6799571514129639,0.2543478012084961,0.3784717619419098,-0.7082595229148865,0.014975325960192371,-0.6658149807716455,-0.0044374409188668446,0.008722090341331212,-0.01875874878150856,0.21818744914921848,0.5589223890968738,-0.8,0.0,0.0005855560302734375,0.0009143352508544922,0
1.6897907257080078,0.2543478012084961,0.3784717619419098,-0.7082595229148865,0.014975325960192371,-0.6659660330442421,-0.0035218976520723557,0.010794427186703072,-0.01874687152527138,0.21552855842136928,0.5599530699128333,-0.8,0.0,0.0005543231964111328,0.0008428096771240234,0
1.699794054031372,0.2548900842666626,0.3835604786872864,-0.7208864092826843,0.014126822081562072,-0.6661992756113708,-0.0031308267962261186,0.011487522878887688,-0.018420368413554357,0.21281877307530947,0.5609885647914046,-0.8,0.0,0.0005283355712890625,0.0008208751678466797,0
1.7098731994628906,0.2551151514053345,0.3860795497894287,-0.7269828915596008,0.013715651744740964,-0.6664509191209494,-0.0026944425099438046,0.012295530018326449,-0.01803762732580311,0.21008341846950543,0.5620186449613275,-0.8,0.0,0.0005686283111572266,0.0008602142333984375,0
1.7197606563568115,0.255475252866745,0.39106953144073486,-0.738670289516449,0.0128655675454867,-0.6667925583555101,-0.002867971013617816,0.011972502455183817,-0.01745092730761913,0.2073952411389376,0.5630161755695141,-0.8,0.0,0.0005340576171875,0.0008108615875244141,0
1.7299015522003174,0.255475252866745,0.39106953144073486,-0.738670289516449,0.0128655675454867,-0.6670652394096114,-0.0022951411261098544,0.013351078889744515,-0.017040236955303534,0.20463324002796854,0.5640259187977585,-0.8,0.0,0.0005772113800048828,0.0008676052093505859,0
1.7397642135620117,0.2557145357131958,0.39599674940109253,-0.7496939301490784,0.012014734629428439,-0.667449772612665,-0.0023290296322038403,0.013506150341974329,-0.016433690794361026,0.20194230359807844,0.564994961054965,-0.8,0.0,0.0005552768707275391,0.0008399486541748047,0
1.7499980926513672,0.2557145357131958,0.39599674940109253,-0.7496939301490784,0.012014734629428439,-0.6677568507115198,-0.0016611273340478303,0.015232136607030319,-0.0160091090093188,0.19914523363984446,0.5659869043701733,-0.8,0.0,0.0007379055023193359,0.001191854476928711,0
1.7599964141845703,0.2558647096157074,0.4032610058784485,-0.7650354504585266,0.010733437324115651,-0.6682685445909043,-0.001953129976480352,0.01418677302553745,-0.015231415571469623,0.19640783927958358,0.5669426431919946,-0.8,0.0,0.0007355213165283203,0.0012254714965820312,0
1.7698547840118408,0.2558647096157074,0.4032610058784485,-0.7650354504585266,0.010733437324115651,-0.6686767881273316,-0.0014780805059191587,0.01499583554326562,-0.01468702970646961,0.19370427067009577,0.5678720415059771,-0.8,0.0,0.0006961822509765625,0.0011258125305175781,0
1.7798428535461426,0.2558249533176422,0.40801823139190674,-0.7746838927268982,0.009924205351530244,-0.6691900074946067,-0.0013290717029002992,0.014474286551439904,-0.014002497345794453,0.19096064854016212,0.5688005192588352,-0.8,0.0,0.0006153583526611328,0.0009577274322509766,0
1.789874792098999,0.2558249533176422,0.40801823139190674,-0.7746838927268982,0.009924205351530244,-0.6695993513204846,-0.0005525354992655758,0.015680538379043873,-0.013523325168174047,0.1882004965686698,0.5697197320536704,-0.8,0.0,0.0005705356597900391,0.0009243488311767578,0
1.799800157546997,0.25555717945098877,0.41502317786216736,-0.7880340814590454,0.008680619271228611,-0.6702334338970103,-0.0005443700209112914,0.01390054771595401,-0.012721560009116003,0.18546531228699145,0.5706159986701115,-0.8,0.0,0.0005278587341308594,0.0008118152618408203,0
1.8098573684692383,0.25555717945098877,0.41502317786216736,-0.7880340814590454,0.008680619271228611,-0.6707387235600002,0.0001425725896163515,0.014214629158572103,-0.012160324625251087,0.18268944149702376,0.5715107767710995,-0.8,0.0,0.0005555152893066406,0.0008296966552734375,0
1.8197381496429443,0.2552395462989807,0.4196052551269531,-0.7962146401405334,0.008086704783617631,-0.6713502968376875,0.0003440264466974415,0.013071692525960231,-0.01154474116147809,0.17995806268998457,0.5723767078357291,-0.8,0.0,0.0005114078521728516,0.0007932186126708984,0
1.8297734260559082,0.2552395462989807,0.4196052551269531,-0.7962146401405334,0.008086704783617631,-0.671837830809729,0.0011418479024300446,0.013833362472742514,-0.011113833210034856,0.1771797756201091,0.5732428168858357,-0.8,0.0,0.00052642822265625,0.0008103847503662109,0
1.839817762374878,0.2548135221004486,0.4241281747817993,-0.803844690322876,0.007513688331675783,-0.6724466981406747,0.0012466091974750013,0.012934306108780116,-0.010597316087992789,0.1743948065039359,0.5740962040150194,-0.8,0.0,0.0005614757537841797,0.0008499622344970703,0
1.849851131439209,0.2548135221004486,0.4241281747817993,-0.803844690322876,0.007513688331675783,-0.6729322665423414,0.0019571744836649686,0.013867560492830267,-0.010235754511040482,0.17160877489693957,0.5749351514548154,-0.8,0.0,0.0005507469177246094,0.0008366107940673828,0
1.8597910404205322,0.2539784014225006,0.43079206347465515,-0.8145113587379456,0.006699283918949277,-0.6736621925376401,0.001805728789868693,0.011512258734795357,-0.009677259481587427,0.16884471540349422,0.5757529522983907,-0.8,0.0,0.0005133152008056641,0.0007903575897216797,0
1.869894027709961,0.2539784014225006,0.43079206347465515,-0.8145113587379456,0.006699283918949277,-0.6742438225909554,0.0023470806848742737,0.011420628001845963,-0.00928631305772672,0.16603131457696502,0.5765705529940328,-0.8,0.0,0.0006024837493896484,0.000904083251953125,0
1.879887342453003,0.25328871607780457,0.43515220284461975,-0.8209697604179382,0.006232430173721102,-0.6749440712125947,0.002267089845410666,0.009743577442974476,-0.008837580220344055,0.16324455970824206,0.577365753855961,-0.8,0.0,0.0005266666412353516,0.0008139610290527344,0
1.8898704051971436,0.25328871607780457,0.43515220284461975,-0.8209697604179382,0.006232430173721102,-0.6755024048202309,0.002827460678071359,0.010113114979123957,-0.008523467457383587,0.16045686127741743,0.578146690441967,-0.8,0.0,0.0005574226379394531,0.0008466243743896484,0
1.899885892868042,0.25205329060554504,0.4415839612483978,-0.8297345042228699,0.005492855355956144,-0.6763094203186646,0.0022812367008202255,0.00728933963123967,-0.008026248151243531,0.1576563546900334,0.578916638062727,-0.8,0.0,0.0005321502685546875,0.000823974609375,0
1.9098563194274902,0.25205329060554504,0.4415839612483978,-0.8297345042228699,0.005492855355956144,-0.6769528271672139,0.0025176446040826323,0.006840613950068015,-0.007678194619168902,0.1548647785151318,0.5796696476230743,-0.8,0.0,0.0005230903625488281,0.0007944107055664062,0
1.9197649955749512,0.25058698654174805,0.4478682279586792,-0.8376138210296631,0.00487746322128943,-0.6778399175459252,0.001969150252965459,0.0030003086718926523,-0.007203785044917934,0.15208692850581426,0.5804046572673821,-0.8,0.0,0.0005443096160888672,0.0008265972137451172,0
1.929839849472046,0.25058698654174805,0.4478682279586792,-0.8376138210296631,0.00487746322128943,-0.678546865940483,0.002206551544539236,0.001848312990354248,-0.006871698362880993,0.14925891533243674,0.5811383451414857,-0.8,0.0,0.0006213188171386719,0.0009214878082275391,0
1.9397900104522705,0.24982880055904388,0.45223331451416016,-0.8465709686279297,0.004492168787131867,-0.6792102882716248,0.002147123931208161,-0.0007199237884145595,-0.006494751987686918,0.14646242956503952,0.5818494278813943,-0.8,0.0,0.0005869865417480469,0.00087738037109375,0
1.950540542602539,0.24982880055904388,0.45223331451416016,-0.8465709686279297,0.004492168787131867,-0.6797390126513022,0.002688801702469187,-0.0008401369657397942,-0.006230889538065164,0.14343719498869736,0.5826025841804809,-0.8,0.0,0.0006883144378662109,0.001079559326171875,0
1.9599950313568115,0.2489868551492691,0.45900025963783264,-0.8648867011070251,0.00402279513047975,-0.680109503592138,0.002252539129791683,-0.0035559957160806754,-0.005870170974467244,0.14077346813046504,0.5832519444206945,-0.8,0.0,0.0006906986236572266,0.0011401176452636719,0
1.970160722732544,0.2486419677734375,0.46121180057525635,-0.8705829381942749,0.0038503314976178105,-0.680392837436328,0.0019697846951680486,-0.005368335165885015,-0.005552994212743846,0.13790608769392118,0.5839365641719625,-0.8,0.0,0.0005879402160644531,0.000911712646484375,0
1.9796812534332275,0.24826478958129883,0.46340200304985046,-0.8761616349220276,0.0036977512957240203,-0.6806035751972445,0.0017799185929488223,-0.006559803449364091,-0.005273752719071345,0.13521766393485654,0.5845649522166037,-0.8,0.0,0.0005104541778564453,0.00079345703125,0
1.9900367259979248,0.2474154680967331,0.46771928668022156,-0.8867475390434265,0.003387702212783924,-0.68075683210738,0.0010584642875633714,-0.008643605648200705,-0.004962014998461447,0.1322902190702106,0.5852343957239319,-0.8,0.0,0.0005924701690673828,0.0008847713470458984,0
2.0000410079956055,0.24694350361824036,0.4698482155799866,-0.8917631506919861,0.0032484677718405378,-0.6808803836965239,0.0003982449850447066,-0.010003188040912207,-0.004691585934898544,0.1294589061602934,0.5858672132964775,-0.8,0.0,0.0006144046783447266,0.0009520053863525391,0
2.0100395679473877,0.24643854796886444,0.4719584286212921,-0.896598756313324,0.0031035322404066746,-0.6809838833612222,-0.0002445960108671838,-0.010961068260681118,-0.004447934658314802,0.12662618848489884,0.5864859831145045,-0.8,0.0,0.0005767345428466797,0.0008842945098876953,0
2.0197887420654297,0.2458999902009964,0.47404882311820984,-0.9012580513954163,0.0029586248340746006,-0.6810804455291082,-0.0007417585497313237,-0.011572560835499613,-0.004223038620276733,0.12386127700459999,0.5870761313993184,-0.8,0.0,0.0005443096160888672,0.0008945465087890625,0
2.0309641361236572,0.24533049762248993,0.4761187732219696,-0.9057443737983704,0.0028202451179917105,-0.6811705682491588,-0.0011150229173393189,-0.01163680994146432,-0.004013719094360623,0.12068850358692851,0.5877365779853657,-0.8,0.0,0.0009851455688476562,0.0014140605926513672,0
2.0397815704345703,0.24410380423069,0.48020076751708984,-0.9143723249435425,0.0025390321531626233,-0.6812809030725729,-0.0020123126263670724,-0.013048554664199017,-0.0037617403668249905,0.11818268203304408,0.5882455725863786,-0.8,0.0,0.0005822181701660156,0.0008792877197265625,0
2.0498805046081543,0.24410380423069,0.48020076751708984,-0.9143723249435425,0.0025390321531626233,-0.6813692065295123,-0.0022864587865630364,-0.01238955896388579,-0.003585355422270854,0.11531003748902069,0.5888154169638229,-0.8,0.0,0.0006136894226074219,0.0009217262268066406,0
2.060117244720459,0.24275663495063782,0.4842102527618408,-0.9223456978797913,0.002331552199094728,-0.6814923706339648,-0.0031264274666414813,-0.013237348561292621,-0.0033840808391648594,0.11239539063946989,0.5893787204870913,-0.8,0.0,0.0006101131439208984,0.000980377197265625,0
2.070185422897339,0.24203981459140778,0.48618870973587036,-0.9260953664779663,0.0022261002135075428,-0.6816250215884055,-0.003824948680203633,-0.013547491716771082,-0.003203644188032059,0.10952605330233862,0.5899186754528232,-0.8,0.0,0.0005822181701660156,0.0008676052093505859,0
2.0797905921936035,0.24129459261894226,0.48814868927001953,-0.9296908378601074,0.0021246396588333496,-0.6817707429717246,-0.004386690295106885,-0.01361520754844237,-0.0030392908680248265,0.10678625085877948,0.5904207792985658,-0.8,0.0,0.0006237030029296875,0.0017802715301513672,0
2.090118169784546,0.23971442878246307,0.49201029539108276,-0.9364332556724548,0.0019253165773777498,-0.6819731018649755,-0.005216139931289768,-0.014957371919671286,-0.002849497270052017,0.10383782094883832,0.5909464501463707,-0.8,0.0,0.0006330013275146484,0.0009112358093261719,0
2.099808931350708,0.2388797104358673,0.49391376972198486,-0.9395855665206909,0.001839904756819496,-0.6821873211013206,-0.005971590145710235,-0.015796893876568564,-0.0026846122059251574,0.10106884208242074,0.5914263176086424,-0.8,0.0,0.0005450248718261719,0.0008466243743896484,0
2.110037088394165,0.23801696300506592,0.4957994520664215,-0.9426565766334534,0.0017629377267805444,-0.68241087796794,-0.00655167693604726,-0.01608791948994276,-0.002540330301210225,0.09814390729983982,0.5919187220049054,-0.8,0.0,0.0005717277526855469,0.0008697509765625,0
2.119830369949341,0.2362118512392044,0.49951592087745667,-0.9483761787414551,0.001610202554103028,-0.6827057696604715,-0.007430762728222946,-0.017620368767066474,-0.0023820571813013944,0.09534108477909244,0.5923766348811759,-0.8,0.0,0.0005090236663818359,0.0007863044738769531,0
2.130061149597168,0.23526717722415924,0.5013492107391357,-0.9510304927825928,0.0015424793727177452,-0.6830021447053277,-0.008093563214651957,-0.018576776849368565,-0.0022458697691628087,0.09241077065416511,0.5928408297908497,-0.8,0.0,0.0005588531494140625,0.0008497238159179688,0
2.1397218704223633,0.2342948466539383,0.5031642317771912,-0.9535507559776306,0.0014715901370135319,-0.6833085672892993,-0.008504924509279664,-0.019169504357448984,-0.0021239551781228067,0.0896416581892478,0.5932658536584438,-0.8,0.0,0.0005407333374023438,0.0008296966552734375,0
2.1500306129455566,0.23329587280750275,0.5049617290496826,-0.9559385776519775,0.0014222377835685271,-0.6836258467114948,-0.00880766540858678,-0.019349322069461536,-0.0020201077922390523,0.08668464534439106,0.593705122313693,-0.8,0.0,0.0005238056182861328,0.0008106231689453125,0
2.160087823867798,0.23122292757034302,0.5085062980651855,-0.9603260159492493,0.0013169882739526002,-0.6840319227980625,-0.009317615238528136,-0.02043253095485761,-0.0019079460424057757,0.08379770874606385,0.5941194694747092,-0.8,0.0,0.0005815029144287109,0.0009191036224365234,0
2.1698319911956787,0.23122292757034302,0.5085062980651855,-0.9603260159492493,0.0013169882739526002,-0.6843570787902946,-0.009363472198334891,-0.019610653935429677,-0.0018294328535264333,0.08099874258912593,0.5945075303972024,-0.8,0.0,0.0005242824554443359,0.0008044242858886719,0
2.1798133850097656,0.22905206680297852,0.5119818449020386,-0.9643028974533081,0.0011775150545899568,-0.6847792395048858,-0.009535094305971955,-0.020236254292360426,-0.0017221710851150153,0.07812977207219679,0.5948913671553375,-0.8,0.0,0.0007300376892089844,0.001283884048461914,0
2.1898536682128906,0.22905206680297852,0.5119818449020386,-0.9643028974533081,0.0011775150545899568,-0.6851170299492029,-0.00934992472742323,-0.019045671474962392,-0.001647087846263573,0.07524204055462319,0.5952635007567458,-0.8,0.0,0.0006122589111328125,0.0009114742279052734,0
2.199747323989868,0.22561019659042358,0.5170605182647705,-0.9694886803627014,0.0010667877309003583,-0.68564072096138,-0.009493168617593487,-0.02100078914908134,-0.0015530069025597943,0.0723947476780929,0.5956164877743272,-0.8,0.0,0.0005249977111816406,0.0008270740509033203,0
2.20997953414917,0.22441329061985016,0.5187193155288696,-0.970983624458313,0.0010180651210169559,-0.686148698622288,-0.009534554215815795,-0.022115115184625004,-0.0014688792365185434,0.0694482817979936,0.595967227417168,-0.8,0.0,0.0005638599395751953,0.00084686279296875,0
2.219724178314209,0.22319337725639343,0.5203632116317749,-0.9723659157752991,0.0009686039877945679,-0.6866419308306049,-0.009535128938714377,-0.022686614358228746,-0.0013914419620608665,0.0666406352392381,0.5962877038266937,-0.8,0.0,0.0004990100860595703,0.0007655620574951172,0
2.23005747795105,0.22068583965301514,0.5236048102378845,-0.9748011231422424,0.00090923511999633,-0.6872211777780546,-0.009642226752152042,-0.02422883428259848,-0.001314972545692725,0.06366177056991201,0.5966130898395574,-0.8,0.0,0.0005211830139160156,0.0008063316345214844,0
2.2397685050964355,0.21939702332019806,0.5252028107643127,-0.9758570790290833,0.0008794491215397708,-0.6877859153962775,-0.009691710931442818,-0.02510541285352475,-0.001250274214504565,0.06086084475016669,0.5969053170950114,-0.8,0.0,0.0005898475646972656,0.0008754730224609375,0
2.2498743534088135,0.2180856168270111,0.5267854928970337,-0.9769142866134644,0.0008402547000728794,-0.6883391474580594,-0.009601801555638202,-0.02550404604806861,-0.0011902874703970951,0.057944618995331446,0.5971954630851493,-0.8,0.0,0.0005412101745605469,0.000812530517578125,0
2.2599003314971924,0.21675127744674683,0.5283516645431519,-0.9778645038604736,0.0007943906179272277,-0.6888788586666865,-0.009372631023607724,-0.025514147373403424,-0.0011310977233835015,0.05505007501488671,0.5974692370665249,-0.8,0.0,0.0005331039428710938,0.0008137226104736328,0
2.2698960304260254,0.21675127744674683,0.5283516645431519,-0.9778645038604736,0.0007943906179272277,-0.6893105858580969,-0.008947596099999528,-0.023901955368572887,-0.001089664889765595,0.05216298588496735,0.5977282182594065,-0.8,0.0,0.0005648136138916016,0.0009253025054931641,0
2.279714584350586,0.21261097490787506,0.5329618453979492,-0.9801033735275269,0.0007184516688554305,-0.6899554476094912,-0.008912107449303068,-0.025484242610481614,-0.0010321847815162272,0.049325876411271126,0.5979690275559931,-0.8,0.0,0.0005159378051757812,0.0008060932159423828,0
2.2898268699645996,0.21261097490787506,0.5329618453979492,-0.9801033735275269,0.0007184516688554305,-0.6904714391988828,-0.008614911842928908,-0.02495758269127343,-0.0009919487817814023,0.04640273152611877,0.5982029643080307,-0.8,0.0,0.0005691051483154297,0.0008633136749267578,0
2.299800157546997,0.2097395658493042,0.5359602570533752,-0.9811103343963623,0.0007065178642805529,-0.6910773892139986,-0.008502400661337898,-0.025759717048163103,-0.0009593083136152362,0.04351868060657584,0.5984196892134005,-0.8,0.0,0.0005173683166503906,0.0007994174957275391,0
2.3099894523620605,0.20827125012874603,0.5374366044998169,-0.9814755320549011,0.0007257234304709056,-0.6916623733498386,-0.008264415943176475,-0.026116209696395328,-0.0009436621502589408,0.04057112148442949,0.5986267485683342,-0.8,0.0,0.0005159378051757812,0.0007998943328857422,0
2.319779396057129,0.20526960492134094,0.5403397083282471,-0.9820386171340942,0.0007375318393502194,-0.6923378021132406,-0.007899793904023433,-0.02754630832405345,-0.0009371380232153788,0.037738158902232664,0.5988120167153209,-0.8,0.0,0.0005965232849121094,0.00089263916015625,0
2.329796552658081,0.20526960492134094,0.5403397083282471,-0.9820386171340942,0.0007375318393502194,-0.6928781383152662,-0.00739936445836567,-0.02692762477639556,-0.000932571050818021,0.034838572591164844,0.5989877076032614,-0.8,0.0,0.0005190372467041016,0.0007975101470947266,0
2.3398027420043945,0.2028743475675583,0.5433943867683411,-0.9865682721138,0.0007323915495001996,-0.6933613511078229,-0.007135952516557297,-0.02703727619615449,-0.0009274465603968093,0.03194134557682706,0.59914918880254,-0.8,0.0,0.0005669593811035156,0.0008590221405029297,0
2.350264072418213,0.20197463035583496,0.545002818107605,-0.9907113909721375,0.0008060106697231542,-0.693699650885448,-0.006934712463460746,-0.026254537835416782,-0.0009514666030771318,0.02891153770939196,0.5993030310179304,-0.8,0.0,0.0007605552673339844,0.001233816146850586,0
2.359931707382202,0.20007577538490295,0.5481568574905396,-0.9984458684921265,0.0009494939633385538,-0.6938975102474892,-0.006755316477457167,-0.025812937038648155,-0.0010220868582193439,0.0261109408398016,0.5994315797223736,-0.8,0.0,0.0007407665252685547,0.0012350082397460938,0
2.369973659515381,0.20007577538490295,0.5481568574905396,-0.9984458684921265,0.0009494939633385538,-0.6940560437219948,-0.006519592077109496,-0.02387764456300557,-0.0010715210476653974,0.023201306035707588,0.5995512483501618,-0.8,0.0,0.0007636547088623047,0.0012450218200683594,0
2.379805564880371,0.19804851710796356,0.5512258410453796,-1.0054750442504883,0.0010750605094629767,-0.6941223231010805,-0.006321479364398437,-0.022739620303000824,-0.0011532124470127999,0.020352001873628008,0.5996547306740236,-0.8,0.0,0.000720977783203125,0.0012259483337402344,0
