time,x,y,z,yaw,throttle,roll_rate,pitch_rate,yaw_rate,x_ref,y_ref,z_ref,yaw_ref,pred_time,nr_time,metadata
1.1920928955078125e-06,0.07438984513282776,-0.05018509179353714,1.0302919149398804,-0.20531912910498526,-0.7638285043887387,0.24,-0.2320438953467119,0.07699467341429246,0.5557046590133411,0.2262572251904151,-0.8,0.0,0.0003447532653808594,0.0005824565887451172,Sim
0.009951114654541016,0.0744088664650917,-0.05019254982471466,1.0303019285202026,-0.20534158551381937,-0.8100132590007861,0.40800000000000003,-0.4024307267426983,0.10395123026265767,0.5546101628274658,0.22892699117511658,-0.8,0.0,0.00019741058349609375,0.0003871917724609375,Nonlinear
0.019887208938598633,0.07445310056209564,-0.05021708458662033,1.0303823947906494,-0.20535159424987554,-0.8453378701858024,0.5256000000000001,-0.519996990792282,0.14033791413059948,0.553504388231383,0.2315877635122426,-0.8,0.0,0.00019478797912597656,0.0003829002380371094,1stOrderHold
0.029950618743896484,0.07451999932527542,-0.050260283052921295,1.0305330753326416,-0.20536360522747296,-0.872674320935629,0.5883063347525116,-0.5476654149736031,0.16251255249792018,0.5523714334651461,0.23427718517102716,-0.8,0.0,0.0001983642578125,0.0003979206085205078,QuatYawError
0.03989243507385254,0.07471909373998642,-0.0503963865339756,1.0310598611831665,-0.2053816408019918,-0.894002339659074,0.5620465523842476,-0.5307427054717934,0.1830157786207083,0.5512393361273242,0.23692866923592615,-0.8,0.0,0.0002009868621826172,0.00038433074951171875,NoPyJoules
0.049935102462768555,0.07484989613294601,-0.05048825219273567,1.0314180850982666,-0.2053742347857691,-0.9107407702075812,0.4955364352427063,-0.48186012789318294,0.19795025393616844,0.5500828328978824,0.23960149613689902,-0.8,0.0,0.00021004676818847656,0.00041556358337402344,0
0.06000709533691406,0.0750056579709053,-0.05059361457824707,1.0318347215652466,-0.20537907904367098,-0.923934522911253,0.4196630833515391,-0.4208771312428119,0.21035526603627105,0.5489099359778277,0.24227645817292504,-0.8,0.0,0.00018858909606933594,0.0003693103790283203,0
0.06994366645812988,0.07519590854644775,-0.05070871859788895,1.0322598218917847,-0.2053651988915005,-0.9343683624943485,0.34799362851662985,-0.355181110012848,0.21991888157465694,0.5477400623368268,0.24490982853133722,-0.8,0.0,0.00018453598022460938,0.0003685951232910156,0
0.08011889457702637,0.07519590854644775,-0.05070871859788895,1.0322598218917847,-0.2053651988915005,-0.9426402596413759,0.2920250269463843,-0.293597066026744,0.2276079012481298,0.5465289986709033,0.2476005929148388,-0.8,0.0,0.0003383159637451172,0.0007114410400390625,0
0.09011459350585938,0.07614853978157043,-0.051019337028265,1.0327883958816528,-0.2050180289352785,-0.9487980624838972,0.23075264929719702,-0.22713614611589703,0.23351613483869887,0.5453264320717895,0.25023805163054613,-0.8,0.0,0.00038313865661621094,0.0008046627044677734,0
0.10022687911987305,0.07659991830587387,-0.05110498145222664,1.0325729846954346,-0.2047628050643751,-0.9522115643065904,0.18625540684227554,-0.16734334517089505,0.23817946452952604,0.5440968878295833,0.2529003294860682,-0.8,0.0,0.0003516674041748047,0.0007035732269287109,0
0.11002874374389648,0.07710865139961243,-0.051187530159950256,1.0320900678634644,-0.2044462917052959,-0.9533747780417796,0.1506677940307764,-0.11289391597032183,0.2417608191683611,0.5428926823484703,0.25547511709065307,-0.8,0.0,0.0003628730773925781,0.00066375732421875,0
0.11992979049682617,0.07830453664064407,-0.05134179815649986,1.0302246809005737,-0.20353344407124283,-0.9520104340058433,0.10927326171350554,-0.05621515170110601,0.24430414082097401,0.5416639220226235,0.25807013693775044,-0.8,0.0,0.00033855438232421875,0.0006825923919677734,0
0.13074135780334473,0.078996442258358,-0.051412321627140045,1.0287901163101196,-0.2029231386803778,-0.9492804016798532,0.08298402039641058,-0.007458813568047035,0.24621891300140705,0.5403079957910667,0.2608970480558196,-0.8,0.0,0.00025272369384765625,0.0004868507385253906,0
0.13988351821899414,0.07975051552057266,-0.05147520825266838,1.0270096063613892,-0.20222745196776387,-0.9457544759427943,0.06401452522842642,0.035350522806897,0.24751836332573451,0.5391499235784467,0.2632819019707869,-0.8,0.0,0.00022840499877929688,0.0004239082336425781,0
0.15013980865478516,0.08056741952896118,-0.051528312265872955,1.0248873233795166,-0.20139003158017102,-0.9417487051872185,0.051427953246948405,0.07291344330137314,0.24832930855706287,0.5378381925888158,0.26595127108700917,-0.8,0.0,0.0003516674041748047,0.000713348388671875,0
0.16032052040100098,0.08144932240247726,-0.05157046392560005,1.0224285125732422,-0.20045654526420117,-0.9374446555421575,0.04331898087300867,0.10609374797690058,0.24871788963305413,0.5365230572696599,0.26859450667878015,-0.8,0.0,0.00036144256591796875,0.0007140636444091797,0
0.17007017135620117,0.08341847360134125,-0.05160894617438316,1.0165034532546997,-0.19820444630734582,-0.932016012624284,0.02702523673528403,0.14218354495778335,0.24829318673179607,0.535251428730841,0.2711197300854244,-0.8,0.0,0.0003399848937988281,0.0006821155548095703,0
0.1801307201385498,0.08450962603092194,-0.051599957048892975,1.013022780418396,-0.19690961064348947,-0.9264169917070691,0.02164622984343268,0.17136757817186835,0.24779498071900663,0.5339267909068703,0.27371916621218023,-0.8,0.0,0.0003407001495361328,0.0007243156433105469,0
0.19000768661499023,0.0856742337346077,-0.05157112702727318,1.0091980695724487,-0.19556386318234584,-0.9208615253492499,0.019423275427915006,0.19653910266788643,0.24696730730116145,0.5326140439770132,0.2762648731895755,-0.8,0.0,0.00031113624572753906,0.0005559921264648438,0
0.19988107681274414,0.08822951465845108,-0.05143959820270538,1.0005062818527222,-0.19261716836224269,-0.9143692706826596,0.011197211849892495,0.2232099993656071,0.24539823894290141,0.5312896413813785,0.27880336612179973,-0.8,0.0,0.00019288063049316406,0.0003745555877685547,0
0.20997834205627441,0.08962548524141312,-0.051334280520677567,0.9956430792808533,-0.19106136106264288,-0.9079452546283014,0.011297324270211942,0.2439587881223152,0.2439759515839145,0.5299226955049001,0.28139285134633557,-0.8,0.0,0.00020766258239746094,0.0004279613494873047,0
0.219879150390625,0.09110072255134583,-0.05120180919766426,0.990441083908081,-0.1894128735604987,-0.9017791140241647,0.01351335723584882,0.26140257507660647,0.24231079426957425,0.528570090326939,0.28392544727757574,-0.8,0.0,0.00018835067749023438,0.0003685951232910156,0
0.23010945320129395,0.09138332307338715,-0.050241950899362564,0.9814112186431885,-0.18770581985064239,-0.8957733223623766,0.017844867034157094,0.2752716854399921,0.24059004349271368,0.5271597568655866,0.28653549647716536,-0.8,0.0,0.0002880096435546875,0.0013041496276855469,0
0.24007558822631836,0.09177513420581818,-0.049269530922174454,0.9721468091011047,-0.18595532614805274,-0.8898871465684738,0.022671591470351377,0.2866150986222642,0.2387485405223224,0.5257734476015593,0.28907141297120736,-0.8,0.0,0.00024008750915527344,0.00045680999755859375,0
0.24999666213989258,0.09226971864700317,-0.04828329011797905,0.9626539945602417,-0.18417087203593355,-0.8841048401516232,0.02766542758243931,0.29578654823907446,0.2368325814187396,0.5243812899860939,0.2915892019820352,-0.8,0.0,0.00020575523376464844,0.0004189014434814453,0
0.26090359687805176,0.09355371445417404,-0.04626360908150673,0.9430150985717773,-0.18046579941781626,-0.8773486110324047,0.02729225306700429,0.3052161818095783,0.2341280674610555,0.5228368807685998,0.29434944557134973,-0.8,0.0,0.0002269744873046875,0.0004470348358154297,0
0.27004313468933105,0.09433665126562119,-0.04523034393787384,0.9328806400299072,-0.17853781142827022,-0.8706986181760366,0.030523643652328923,0.311112412896208,0.23178790639353195,0.5215315426308641,0.2966561141137514,-0.8,0.0,0.00022721290588378906,0.00043511390686035156,0
0.2799642086029053,0.09521113336086273,-0.044182188808918,0.9225454330444336,-0.17661455094504783,-0.8643652568831828,0.03436495853280076,0.3153924784304739,0.22930104745350102,0.5201030647273276,0.29915347576326323,-0.8,0.0,0.00019073486328125,0.0003674030303955078,0
0.2900993824005127,0.09722501784563065,-0.04204033315181732,0.9012988805770874,-0.17265189145976784,-0.8573274741625799,0.03514603109222102,0.31878427009214694,0.22612559314387765,0.5186314116169414,0.3016976282376424,-0.8,0.0,0.0002219676971435547,0.0004246234893798828,0
0.29988670349121094,0.09835632890462875,-0.04094487428665161,0.8904016613960266,-0.17063853225721157,-0.8505695125049729,0.03850153726440129,0.31959144329154654,0.2233887738055396,0.5171984556268706,0.30414759163468624,-0.8,0.0,0.00019884109497070312,0.0003848075866699219,0
0.3099217414855957,0.09956372529268265,-0.03983072191476822,0.8793340921401978,-0.16860495220682156,-0.8442555170170892,0.042526676480273036,0.3191698295849031,0.22055688550985694,0.515717215447342,0.30665249663298016,-0.8,0.0,0.00019693374633789062,0.0003952980041503906,0
0.31990647315979004,0.10084407031536102,-0.03870117664337158,0.8681039214134216,-0.16656451448301826,-0.8383446560211918,0.04707761152847627,0.31741396910474673,0.21784267369152335,0.5142313601341225,0.30913768494735544,-0.8,0.0,0.0001976490020751953,0.00038242340087890625,0
0.33003926277160645,0.10360874235630035,-0.036394473165273666,0.8451381921768188,-0.1624330176747757,-0.8318398253222116,0.04909643389665033,0.31438778935744427,0.21435222734852746,0.5127112286266782,0.3116523640855658,-0.8,0.0,0.0003345012664794922,0.0006856918334960938,0
0.3400537967681885,0.10508660227060318,-0.03521556034684181,0.8334421515464783,-0.1603920746491252,-0.825616503327402,0.051871762603651575,0.309897979277969,0.21141524335746306,0.5111967551326214,0.3141303511949756,-0.8,0.0,0.00033783912658691406,0.0006814002990722656,0
0.350114107131958,0.10662432760000229,-0.03401756286621094,0.8216131925582886,-0.15833420533384915,-0.8198126253021418,0.05461457597338291,0.3050909289396567,0.20839394174730363,0.5096633005298029,0.3166122551214146,-0.8,0.0,0.0003681182861328125,0.0007257461547851562,0
0.36017918586730957,0.10987232625484467,-0.03156663849949837,0.7975915670394897,-0.15425577274520488,-0.8135509825042826,0.055585384327228676,0.2985608598806375,0.2047791295661238,0.5081170607825543,0.31908784455334244,-0.8,0.0,0.0003509521484375,0.0007085800170898438,0
0.3700547218322754,0.1115734651684761,-0.030312037095427513,0.7854121327400208,-0.15221315373582042,-0.8076184192349942,0.05674434054185731,0.2913971828922183,0.20169050761063534,0.5065882521113874,0.32150947547891867,-0.8,0.0,0.000354766845703125,0.0007064342498779297,0
0.3798801898956299,0.11332669854164124,-0.0290376003831625,0.7731284499168396,-0.15020551160053702,-0.8021279564527205,0.058032261594081605,0.284235176272682,0.19859143986207017,0.5050557407576226,0.32391156004034344,-0.8,0.0,0.00019598007202148438,0.0003826618194580078,0
0.389967679977417,0.11512476205825806,-0.027745908126235008,0.7607463002204895,-0.14820666731701015,-0.7970310730291106,0.05944154878438971,0.27679230954806816,0.19567618185932864,0.5034705117572144,0.32637010247712434,-0.8,0.0,0.00020456314086914062,0.0004162788391113281,0
0.39998579025268555,0.1188412681221962,-0.02510794997215271,0.7356942296028137,-0.1442089474582867,-0.7914981927973671,0.05930639059971929,0.2676159373358836,0.1920720228993507,0.5018843410056821,0.3288040575377563,-0.8,0.0,0.00021338462829589844,0.0004334449768066406,0
0.40993237495422363,0.1207517683506012,-0.02375958114862442,0.7230514287948608,-0.14224788460715704,-0.7862406962374222,0.058744462872778506,0.25839173146001987,0.18905482839322466,0.500297854042955,0.33121300886289784,-0.8,0.0,0.00019693374633789062,0.00040340423583984375,0
0.42044806480407715,0.12269210070371628,-0.022393686696887016,0.7103391885757446,-0.1403222410986892,-0.7813746669920378,0.05852038172148735,0.24948473268886542,0.18601523836441286,0.49860802150698147,0.3337514657479327,-0.8,0.0,0.00024318695068359375,0.00047397613525390625,0
0.42998170852661133,0.12465842068195343,-0.021011237055063248,0.6975648403167725,-0.13840236707701026,-0.7768645847676185,0.05839713844833209,0.24047669282945733,0.18317541101905482,0.4970648673097232,0.3360454101551861,-0.8,0.0,0.00022363662719726562,0.0004582405090332031,0
0.43988800048828125,0.12866373360157013,-0.01818852312862873,0.6718568801879883,-0.13455906494534595,-0.7719720010986527,0.05681062580612028,0.2295961109443576,0.17967637663870978,0.49545021471186057,0.338421460226699,-0.8,0.0,0.00021004676818847656,0.0004062652587890625,0
0.4499702453613281,0.13070692121982574,-0.016747035086154938,0.6589356660842896,-0.13265017260460552,-0.7673308430918057,0.05459005077022528,0.21918026913044666,0.1767419404069476,0.49379522111242563,0.3408317467703538,-0.8,0.0,0.00020837783813476562,0.00041413307189941406,0
0.4599318504333496,0.13276730477809906,-0.015286826528608799,0.6459767818450928,-0.13079134281173063,-0.7630406676396183,0.05245572184300138,0.20939975075028153,0.17379316452038202,0.49214851435562706,0.343205244449366,-0.8,0.0,0.00021195411682128906,0.0004076957702636719,0
0.4707019329071045,0.13484282791614532,-0.013806658796966076,0.6329749226570129,-0.1289431351302846,-0.7590731887043337,0.05037067128209181,0.19993673839830065,0.17104096239842484,0.4903553282279908,0.34576242143763886,-0.8,0.0,0.0002551078796386719,0.0004923343658447266,0
0.4800291061401367,0.13693146407604218,-0.012305877171456814,0.6199487447738647,-0.12710618962241726,-0.7553728552488898,0.04801948714551125,0.19080862209542993,0.16835676552999154,0.4887916444261252,0.3479694359267841,-0.8,0.0,0.00025773048400878906,0.0004680156707763672,0
0.4898843765258789,0.14113855361938477,-0.009241915307939053,0.5938405394554138,-0.12353745582027519,-0.7513053272331423,0.04466858433984195,0.17961723564661614,0.16511575070755216,0.4871286338322579,0.3502937254658125,-0.8,0.0,0.00020813941955566406,0.0004115104675292969,0
0.500478982925415,0.14325198531150818,-0.007681288290768862,0.5807676911354065,-0.1217971517255667,-0.7474240578983925,0.040524119308775655,0.1692878924467806,0.16238931258023054,0.48532853920282026,0.3527835158213271,-0.8,0.0,0.00027108192443847656,0.0005164146423339844,0
0.510068416595459,0.1453694850206375,-0.006099952384829521,0.5676880478858948,-0.12005940725148599,-0.743824704664334,0.03651340025334706,0.15968754998175114,0.15964904987003392,0.48368825703526885,0.3550291114911334,-0.8,0.0,0.0003743171691894531,0.0007884502410888672,0
0.519986629486084,0.14961987733840942,-0.0028672064654529095,0.5415308475494385,-0.11666181068002729,-0.7399700841878245,0.03130354132142498,0.14835766314773358,0.15646160586260596,0.4819808066276904,0.3573436749720372,-0.8,0.0,0.0003437995910644531,0.0006892681121826172,0
0.5301222801208496,0.1517484337091446,-0.0012179936747998,0.5284661054611206,-0.11502229778429597,-0.7363577738238019,0.02570336880933073,0.13802549304664155,0.15377209117553764,0.48022448143231256,0.3597004968485121,-0.8,0.0,0.0004429817199707031,0.0008618831634521484,0
0.5400712490081787,0.15387338399887085,0.00045274090371094644,0.5154135823249817,-0.11340614876651818,-0.7330549229299206,0.020473084617263906,0.12855439783451206,0.15110909975079725,0.4784892965586101,0.3620055152602601,-0.8,0.0,0.0003533363342285156,0.0007009506225585938,0
0.5500469207763672,0.15599295496940613,0.002144679194316268,0.5023784637451172,-0.11179089209820486,-0.7300264714794515,0.015537565448733654,0.11959210907870696,0.1486300013610465,0.47673834622478267,0.3643083161813071,-0.8,0.0,0.0003514289855957031,0.0007202625274658203,0
0.5603747367858887,0.15810668468475342,0.0038573185447603464,0.48936477303504944,-0.11020268530527436,-0.7272245667109185,0.010590134641276335,0.11127003833447456,0.1462346923786256,0.47491391112252956,0.36668348343264945,-0.8,0.0,0.0003402233123779297,0.00069427490234375,0
0.570091724395752,0.1623125672340393,0.00734448479488492,0.4634109139442444,-0.10708304311723782,-0.724146592055073,0.004745414633447983,0.10140780585127439,0.1433587839778523,0.47318657544965526,0.36890983290531537,-0.8,0.0,0.0003418922424316406,0.0007023811340332031,0
0.5800859928131104,0.16440090537071228,0.009119234047830105,0.45047685503959656,-0.10555321589718208,-0.7212304040040234,-0.0014603727246186842,0.09246594229647676,0.14094017268621295,0.471399061670273,0.3711912238407397,-0.8,0.0,0.0003533363342285156,0.0007004737854003906,0
0.5900230407714844,0.16647806763648987,0.01091569010168314,0.43757742643356323,-0.10406468047243309,-0.7185477375841615,-0.007400310283447768,0.08444174174001101,0.13852889000958765,0.4696108769483015,0.3734509663287099,-0.8,0.0,0.0003895759582519531,0.0008082389831542969,0
0.6002359390258789,0.17061308026313782,0.014570466242730618,0.41189563274383545,-0.10118105990421483,-0.7156924102208467,-0.013851024521619367,0.07499283566625181,0.13575706940761353,0.46776176536335506,0.37576446194944724,-0.8,0.0,0.0003376007080078125,0.0006887912750244141,0
0.6101548671722412,0.17265881597995758,0.016428157687187195,0.3990806043148041,-0.09975720577098258,-0.7130336346787044,-0.020529902493098183,0.06663590678202648,0.13340903796014122,0.46595496881086124,0.3780026018964278,-0.8,0.0,0.00037789344787597656,0.0007519721984863281,0
0.6204147338867188,0.1746896207332611,0.018306255340576172,0.3863151967525482,-0.09836978133471011,-0.7106206814109205,-0.02668841042043279,0.059286249545037355,0.13109680557923276,0.46407480122436484,0.38030853115407,-0.8,0.0,0.00041937828063964844,0.0008690357208251953,0
0.6301460266113281,0.1739874631166458,0.020794354379177094,0.3709093928337097,-0.09702383732814837,-0.7083249616756842,-0.03069867702217095,0.05030773569018548,0.12896098423683866,0.46228095169908123,0.38248702160490583,-0.8,0.0,0.00032067298889160156,0.0007026195526123047,0
0.6402807235717773,0.1726938933134079,0.025794344022870064,0.34046676754951477,-0.09422580199510902,-0.7056639113005606,-0.034102818156077866,0.037280343578209786,0.12635490218379347,0.4604018689333237,0.3847468246557762,-0.8,0.0,0.00036835670471191406,0.000774383544921875,0
0.6500780582427979,0.17209738492965698,0.02830878272652626,0.32543089985847473,-0.09283961200110397,-0.7030743510817477,-0.038912008426707945,0.025047417560533983,0.12417541474763741,0.4585748351225335,0.3869226286899503,-0.8,0.0,0.00023555755615234375,0.0004565715789794922,0
0.660010814666748,0.1715308278799057,0.030832285061478615,0.31052058935165405,-0.09150120741847431,-0.7006587230525765,-0.043409174443191055,0.013234406072294602,0.12199856370792707,0.45671205102117096,0.389119650560127,-0.8,0.0,0.00021576881408691406,0.00042128562927246094,0
0.670034646987915,0.17099778354167938,0.03336869925260544,0.295737087726593,-0.09015535872967345,-0.6984074483418571,-0.048026947646082264,0.001681815802806923,0.11996915198307714,0.4548215157343224,0.39132772560238244,-0.8,0.0,0.00024366378784179688,0.0004658699035644531,0
0.6800971031188965,0.17000749707221985,0.03847397491335869,0.26653823256492615,-0.08759181207648574,-0.6959156479593582,-0.05242514562519247,-0.012591387398832851,0.11753563002052339,0.4529129588012458,0.39353507054632497,-0.8,0.0,0.0003662109375,0.0007691383361816406,0
0.6901559829711914,0.16954709589481354,0.04104131832718849,0.25212615728378296,-0.08631995235119093,-0.693568369617413,-0.05826855418857803,-0.025301409136452048,0.11549665583295882,0.4509943732889487,0.3957323277945692,-0.8,0.0,0.0003998279571533203,0.0008313655853271484,0
0.7001821994781494,0.16910775005817413,0.04361850023269653,0.23784306645393372,-0.08507473831716729,-0.6914287340077672,-0.06386744695944775,-0.03705256926153091,0.11346432691765854,0.449071410012136,0.3979131421676243,-0.8,0.0,0.0003769397735595703,0.0007815361022949219,0
0.7100837230682373,0.1686861217021942,0.04620673134922981,0.22368836402893066,-0.08385731588546926,-0.6894781027542138,-0.06916455530724899,-0.04833094860049248,0.11158283741976892,0.4471620123837899,0.40005766419464994,-0.8,0.0,0.0003643035888671875,0.0006227493286132812,0
0.7200875282287598,0.16827897727489471,0.04880548268556595,0.20966288447380066,-0.08265337759947085,-0.6876874453205442,-0.07435806817103505,-0.05897769387402933,0.10976152411789668,0.44522249085681254,0.4022150340741324,-0.8,0.0,0.0002181529998779297,0.00042319297790527344,0
0.7299792766571045,0.16750863194465637,0.054032012820243835,0.18199990689754486,-0.08033488514333369,-0.6857297908231248,-0.0793264074674989,-0.07140585331942816,0.1075961084669315,0.44329446047045246,0.4043389930691949,-0.8,0.0,0.0002167224884033203,0.00044846534729003906,0
0.7402195930480957,0.16714677214622498,0.05666355788707733,0.16836440563201904,-0.07919333567703193,-0.6839018099068253,-0.08529468258435517,-0.08232847249968236,0.1057726722835755,0.4412878159819547,0.4065280598751782,-0.8,0.0,0.00020051002502441406,0.0003905296325683594,0
0.7499372959136963,0.1667957454919815,0.05930464342236519,0.1548595130443573,-0.07806774816652243,-0.6822520442649648,-0.09092074272016634,-0.09218480755284282,0.10395447882512202,0.4393735831835332,0.40859619968920763,-0.8,0.0,0.00022554397583007812,0.0004749298095703125,0
0.7602417469024658,0.1667957454919815,0.05930464342236519,0.1548595130443573,-0.07806774816652243,-0.681030978316425,-0.09641548247971872,-0.09902345812034537,0.1026799084504891,0.4373331833266956,0.4107793650627291,-0.8,0.0,0.0002148151397705078,0.00041103363037109375,0
0.7700273990631104,0.1657947599887848,0.06727369874715805,0.11511348932981491,-0.07479790565389535,-0.6794477536757342,-0.1002930025168575,-0.10987534862284372,0.10037125016667295,0.4353854686721194,0.41284318290261124,-0.8,0.0,0.0002415180206298828,0.0004456043243408203,0
0.7801785469055176,0.1657947599887848,0.06727369874715805,0.11511348932981491,-0.07479790565389535,-0.6781667019580541,-0.10609404491661521,-0.11713019735960367,0.09911712013621655,0.43335471544581744,0.41497432523094074,-0.8,0.0,0.0003631114959716797,0.0007355213165283203,0
0.7901201248168945,0.16516344249248505,0.07262139022350311,0.08928636461496353,-0.07274401309511679,-0.6768345389688416,-0.11035074541400679,-0.12547139879991095,0.09709993451667864,0.4313557760208689,0.41705178874263804,-0.8,0.0,0.00021648406982421875,0.0004153251647949219,0
0.8001997470855713,0.16516344249248505,0.07262139022350311,0.08928636461496353,-0.07274401309511679,-0.6758164320699178,-0.11524841636470325,-0.1312309145794223,0.09595497403918327,0.4293189129721338,0.4191482684736099,-0.8,0.0,0.00020241737365722656,0.00039076805114746094,0
0.8100502490997314,0.16425859928131104,0.0806967169046402,0.05155669525265694,-0.06979077190993564,-0.6745543732487977,-0.11967014269357784,-0.13886949863729023,0.09374075746077976,0.4273185051451702,0.42118748219824514,-0.8,0.0,0.00019359588623046875,0.0003914833068847656,0
0.8202018737792969,0.16425859928131104,0.0806967169046402,0.05155669525265694,-0.06979077190993564,-0.6735573444744997,-0.12464034173192531,-0.1441145812277968,0.0925650454912141,0.4252468122170868,0.4232790435388996,-0.8,0.0,0.00020265579223632812,0.00039839744567871094,0
0.8302445411682129,0.16369105875492096,0.0861155241727829,0.02709254063665867,-0.06794892851333614,-0.6725484605967751,-0.1294453201411806,-0.14892496565086785,0.09068787922569425,0.4231872815242362,0.4253381299109296,-0.8,0.0,0.00034356117248535156,0.0007126331329345703,0
0.8403027057647705,0.16369105875492096,0.0861155241727829,0.02709254063665867,-0.06794892851333614,-0.6717974533766236,-0.13354582851064353,-0.15228156553490982,0.08961937184341819,0.42111457945064984,0.427390349650179,-0.8,0.0,0.0001964569091796875,0.0003821849822998047,0
0.8500349521636963,0.16286888718605042,0.09428314119577408,-0.00857098400592804,-0.06530088873300814,-0.6708900205778504,-0.13747553159962783,-0.15627208289196573,0.08759537114906943,0.4190995658581553,0.4293664564186469,-0.8,0.0,0.00037026405334472656,0.0007753372192382812,0
0.8602709770202637,0.16286888718605042,0.09428314119577408,-0.00857098400592804,-0.06530088873300814,-0.6701879346816932,-0.14105832203484348,-0.15893603906727835,0.08651299332224792,0.4169702429288309,0.4314346028216463,-0.8,0.0,0.0003371238708496094,0.0006814002990722656,0
0.8699846267700195,0.16233064234256744,0.0997450053691864,-0.03167911246418953,-0.06361900632106118,-0.6694845584049475,-0.14459368697479155,-0.16081001381327178,0.08479505493535179,0.4149401472394593,0.43338744122193457,-0.8,0.0,0.00020694732666015625,0.0004124641418457031,0
0.8802344799041748,0.16233064234256744,0.0997450053691864,-0.03167911246418953,-0.06361900632106118,-0.6689700121445603,-0.1471399832187755,-0.16195285519624442,0.08381494426055883,0.41278807205057383,0.43543771951080473,-0.8,0.0,0.00035691261291503906,0.0007319450378417969,0
0.8899626731872559,0.16154925525188446,0.10796931385993958,-0.06533586233854294,-0.0612720365281591,-0.6683701047967207,-0.15081434567563512,-0.1621656397148912,0.08199051341662704,0.41073615422635484,0.4373737664873649,-0.8,0.0,0.00021076202392578125,0.0004324913024902344,0
0.9000957012176514,0.16154925525188446,0.10796931385993958,-0.06533586233854294,-0.0612720365281591,-0.6679206288896706,-0.15296550445536666,-0.16219299599485196,0.08100892388507229,0.408589192402876,0.43938009951699625,-0.8,0.0,0.000232696533203125,0.0004317760467529297,0
0.9100167751312256,0.1610415279865265,0.11346466094255447,-0.08716633915901184,-0.059790530896412404,-0.6674875884580844,-0.15539525050476166,-0.16091291666679197,0.07947125214174829,0.4064776436512929,0.4413342556517594,-0.8,0.0,0.00039124488830566406,0.0007717609405517578,0
0.9202859401702881,0.1610415279865265,0.11346466094255447,-0.08716633915901184,-0.059790530896412404,-0.6671802809516509,-0.15637112636439576,-0.1597034058164122,0.07858951069554197,0.4042821659967709,0.4433462870679751,-0.8,0.0,0.0002429485321044922,0.00047326087951660156,0
0.929898738861084,0.16029340028762817,0.12170757353305817,-0.11891104280948639,-0.05764119354286891,-0.6668552519774106,-0.15877548489438653,-0.15655622496442717,0.07693671457162908,0.4022179891925446,0.4452198211781525,-0.8,0.0,0.0002002716064453125,0.0004105567932128906,0
0.9400553703308105,0.16029340028762817,0.12170757353305817,-0.11891104280948639,-0.05764119354286891,-0.6666239625177534,-0.1590930835430812,-0.15416113848150284,0.07604962642208428,0.4000276019781587,0.4471889060068506,-0.8,0.0,0.00021958351135253906,0.00042629241943359375,0
0.9499340057373047,0.159809410572052,0.1272045522928238,-0.1394144892692566,-0.05623208015271918,-0.6664145822689165,-0.16035764880933967,-0.1498497732747059,0.0746322494050708,0.3978879196549315,0.44909375790882555,-0.8,0.0,0.00023031234741210938,0.0004496574401855469,0
0.9601314067840576,0.159809410572052,0.1272045522928238,-0.1394144892692566,-0.05623208015271918,-0.6662734531616518,-0.15967931642075478,-0.14642577758533162,0.07382568659677478,0.3956696800577972,0.4510493368612356,-0.8,0.0,0.0002300739288330078,0.0004286766052246094,0
0.9699304103851318,0.15913304686546326,0.13545045256614685,-0.16923944652080536,-0.054244813995201695,-0.6661432520525641,-0.16095324544638365,-0.14010839463034044,0.07230208284884679,0.3935290477292051,0.4529181919434734,-0.8,0.0,0.00020265579223632812,0.0004203319549560547,0
0.9800815582275391,0.15913304686546326,0.13545045256614685,-0.16923944652080536,-0.054244813995201695,-0.6660586232618435,-0.159537378485507,-0.13544108420919893,0.071486524554169,0.39130218014808565,0.45484349375511035,-0.8,0.0,0.00023365020751953125,0.00046181678771972656,0
0.9899692535400391,0.15870238840579987,0.14093275368213654,-0.1885303556919098,-0.05295156523662758,-0.6660157366774159,-0.15917582245702286,-0.1286190685619794,0.0701828495547899,0.38912405026532765,0.45670830242629346,-0.8,0.0,0.0002357959747314453,0.0004572868347167969,0
1.0002458095550537,0.15870238840579987,0.14093275368213654,-0.1885303556919098,-0.05295156523662758,-0.6659955895415741,-0.1567368371881726,-0.12330212866510795,0.06944111790187105,0.3868508421237918,0.4586353954375012,-0.8,0.0,0.00039577484130859375,0.0007917881011962891,0
1.0099139213562012,0.15809661149978638,0.14911313354969025,-0.2165161818265915,-0.05105910149734516,-0.6660421931391266,-0.15591093696038374,-0.11457958751290093,0.06801555167133595,0.3847035101108514,0.4604380624018718,-0.8,0.0,0.0002193450927734375,0.00043702125549316406,0
1.0199875831604004,0.15809661149978638,0.14911313354969025,-0.2165161818265915,-0.05105910149734516,-0.6660895956125547,-0.1524319366005624,-0.10816746670848507,0.06725699741212567,0.3824571683053728,0.462305650421705,-0.8,0.0,0.0002002716064453125,0.0004811286926269531,0
1.0299184322357178,0.15545566380023956,0.15509554743766785,-0.23805291950702667,-0.0498676875604296,-0.6660328480415493,-0.14904428371466175,-0.10106391875055937,0.06604577501437388,0.3802337978833255,0.4641360349587418,-0.8,0.0,0.00021839141845703125,0.0004596710205078125,0
1.0401010513305664,0.15545566380023956,0.15509554743766785,-0.23805291950702667,-0.0498676875604296,-0.6659532427779649,-0.14483911121173335,-0.09524479632864369,0.06535635318443483,0.3779449645554067,0.4660017207770936,-0.8,0.0,0.0002732276916503906,0.0004820823669433594,0
1.0501251220703125,0.14843934774398804,0.16477862000465393,-0.2742239236831665,-0.04797480239208394,-0.6655863675901499,-0.1385941540604521,-0.09050961503320108,0.06398129576661232,0.37568282770637085,0.4678273324278363,-0.8,0.0,0.0003838539123535156,0.0007784366607666016,0
1.0603790283203125,0.14843934774398804,0.16477862000465393,-0.2742239236831665,-0.04797480239208394,-0.6652083877672372,-0.13352015296837236,-0.08631166061116087,0.06325872802989745,0.37335970035206917,0.46968344036490484,-0.8,0.0,0.0003707408905029297,0.0007674694061279297,0
1.0699810981750488,0.14401963353157043,0.17112812399864197,-0.2973438501358032,-0.046724824239240695,-0.6647413158301264,-0.12688181259497272,-0.08280708120794925,0.062055817418492795,0.37117593780176145,0.4714110978721045,-0.8,0.0,0.0002262592315673828,0.0004696846008300781,0
1.0800528526306152,0.14401963353157043,0.17112812399864197,-0.2973438501358032,-0.046724824239240695,-0.6643240790704188,-0.12159085002761248,-0.07959367271455285,0.06138189999665135,0.3688767670281301,0.4732123526989491,-0.8,0.0,0.00020456314086914062,0.00042939186096191406,0
1.090195655822754,0.13775114715099335,0.18047881126403809,-0.3305722177028656,-0.04491934545358076,-0.6638183404932034,-0.11375282455538037,-0.07689608532850443,0.06004795564039457,0.3665525436820189,0.47501498157452005,-0.8,0.0,0.0003249645233154297,0.0005371570587158203,0
1.1000723838806152,0.13775114715099335,0.18047881126403809,-0.3305722177028656,-0.04491934545358076,-0.6633619257882727,-0.10795431744493006,-0.0744199856061887,0.05934520401805956,0.36428082562261793,0.47675935238199973,-0.8,0.0,0.0002474784851074219,0.0004703998565673828,0
1.1098930835723877,0.13381950557231903,0.18659955263137817,-0.35178709030151367,-0.04371825650531407,-0.6629119301060011,-0.10075695237618516,-0.0719573612234609,0.05818195206995086,0.3620137638100503,0.47848305592996826,-0.8,0.0,0.0002307891845703125,0.0004642009735107422,0
1.1202092170715332,0.13381950557231903,0.18659955263137817,-0.35178709030151367,-0.04371825650531407,-0.662527225265072,-0.09526824464190438,-0.06954582999822863,0.05752885082029707,0.35962355072881885,0.4802821064345377,-0.8,0.0,0.0003731250762939453,0.0007872581481933594,0
1.1300480365753174,0.1282510906457901,0.19559644162654877,-0.3823271095752716,-0.04195528413566537,-0.6621477367250322,-0.0873677590266473,-0.06732081109270888,0.05623201256246146,0.3573355993969507,0.4819867938062431,-0.8,0.0,0.0003669261932373047,0.0007257461547851562,0
1.1401937007904053,0.1282510906457901,0.19559644162654877,-0.3823271095752716,-0.04195528413566537,-0.6618129695291901,-0.08167506052804696,-0.06513392759363112,0.05554953373483949,0.3549678315868267,0.4837332307569392,-0.8,0.0,0.000335693359375,0.0006856918334960938,0
1.1504943370819092,0.12474694103002548,0.20147500932216644,-0.4018068015575409,-0.04080177041972303,-0.6615258719805313,-0.07516464251097921,-0.06254126132884776,0.054424205111451615,0.3525551651837615,0.48549444435776046,-0.8,0.0,0.0003635883331298828,0.0007598400115966797,0
1.16035795211792,0.12474694103002548,0.20147500932216644,-0.4018068015575409,-0.04080177041972303,-0.6612833715133418,-0.07009786635289195,-0.06004934126483625,0.053791472503598656,0.3502366692172181,0.4871696578560994,-0.8,0.0,0.00033783912658691406,0.0007812976837158203,0
1.170323371887207,0.12305695563554764,0.20437921583652496,-0.4112890660762787,-0.04022513072351307,-0.6610935743543073,-0.06493799102498411,-0.05709224481536718,0.05295991118658511,0.34788616015407686,0.48885091753340504,-0.8,0.0,0.00035309791564941406,0.0007112026214599609,0
1.180154800415039,0.11980827152729034,0.21011608839035034,-0.4297502934932709,-0.039106232564610766,-0.6609494867504534,-0.05897821084165162,-0.05421061177549397,0.05202782150329348,0.34555934643915426,0.49049845880343446,-0.8,0.0,0.00038123130798339844,0.0007863044738769531,0
1.1902132034301758,0.11824765056371689,0.21294789016246796,-0.43873411417007446,-0.03854129494682563,-0.6608403678406414,-0.053277368630841655,-0.05131776106492727,0.051198692046517946,0.34317074019782695,0.4921725744818331,-0.8,0.0,0.0003497600555419922,0.0007085800170898438,0
1.2002232074737549,0.11672426760196686,0.21575243771076202,-0.44756072759628296,-0.03798173299609156,-0.6607733669373855,-0.0478680739326587,-0.04818552681528872,0.05037242961596916,0.3407855754270102,0.49382708672255055,-0.8,0.0,0.00035572052001953125,0.0007188320159912109,0
1.2101540565490723,0.1137908548116684,0.22128218412399292,-0.46472400426864624,-0.036922898706620154,-0.660785046729354,-0.041898802671932425,-0.04491498690644806,0.04939597959685317,0.3384113890960916,0.4954570937327002,-0.8,0.0,0.00023508071899414062,0.0004410743713378906,0
1.2200946807861328,0.11237965524196625,0.22400832176208496,-0.47306543588638306,-0.03639392483433507,-0.660832250615086,-0.036429580953586824,-0.041600501670416054,0.048566665037364294,0.3360270579774336,0.4970772739796404,-0.8,0.0,0.0002129077911376953,0.0004189014434814453,0
1.2301814556121826,0.11100483685731888,0.2267066389322281,-0.48124873638153076,-0.03585736997238484,-0.6609125104747042,-0.03130389655910727,-0.03793677822848007,0.047733439361620535,0.3335997433100653,0.4987095459919115,-0.8,0.0,0.0003941059112548828,0.0007829666137695312,0
1.2401220798492432,0.10966738313436508,0.22937707602977753,-0.48927509784698486,-0.035321056613095744,-0.6610209782434816,-0.02640989408723348,-0.034090898703675244,0.0469504327695557,0.3311998413080936,0.5003065711316349,-0.8,0.0,0.0003390312194824219,0.0006954669952392578,0
1.250274419784546,0.10836607217788696,0.23202025890350342,-0.4971481263637543,-0.034794918471356524,-0.6611479898504977,-0.021726115743184032,-0.03008730716145307,0.046187449672669814,0.3287409353421558,0.5019256891516557,-0.8,0.0,0.0002193450927734375,0.0004355907440185547,0
1.2600266933441162,0.10588894039392471,0.237233504652977,-0.5124417543411255,-0.03380382273481117,-0.6613537527352435,-0.016530217088073337,-0.02589579799678738,0.045274692380332444,0.32637147166255964,0.503469624192776,-0.8,0.0,0.0002181529998779297,0.0004169940948486328,0
1.2701849937438965,0.10470250248908997,0.2397967427968979,-0.5198827981948853,-0.03331463915504027,-0.6615884880857237,-0.011659970301823912,-0.021679793890216383,0.04450473940169166,0.32389564825831046,0.5050659452381726,-0.8,0.0,0.0003619194030761719,0.0007419586181640625,0
1.2801547050476074,0.10355021059513092,0.24233123660087585,-0.5271750688552856,-0.032823118800198406,-0.6618352138933911,-0.007145537692424924,-0.017187003985238147,0.04373147067378294,0.3214581966614573,0.5066207929005321,-0.8,0.0,0.0003452301025390625,0.0006959438323974609,0
1.2901852130889893,0.10134728252887726,0.24731633067131042,-0.5413215756416321,-0.03185321926155661,-0.662176232967998,-0.0022106161366241732,-0.012448693545069684,0.04282763074949996,0.31899834900536594,0.5081732512951176,-0.8,0.0,0.0003726482391357422,0.0007312297821044922,0
1.3001861572265625,0.10029767453670502,0.24976390600204468,-0.5481775999069214,-0.03137297905282114,-0.6625359743318248,0.002359561657415095,-0.0076436491075412205,0.04206055264295704,0.3165382872301837,0.509709243311696,-0.8,0.0,0.00035071372985839844,0.0007011890411376953,0
1.3099939823150635,0.09928106516599655,0.25218144059181213,-0.5548915863037109,-0.030908349468432687,-0.6628938342853369,0.006770341497578073,-0.0027198887636586348,0.041301495238021645,0.3141185462083757,0.5112040091078478,-0.8,0.0,0.00021338462829589844,0.0004291534423828125,0
1.320190668106079,0.09829658269882202,0.25456950068473816,-0.561466634273529,-0.030476657368356554,-0.6632485716354612,0.010893788658976096,0.0023234657713564625,0.040605463271476336,0.31159538423455646,0.512745859587105,-0.8,0.0,0.00022649765014648438,0.0004208087921142578,0
1.3301844596862793,0.09643383324146271,0.25927722454071045,-0.574201226234436,-0.029584612996775197,-0.6636829788139125,0.015032078649646096,0.007619047985355517,0.0397616653521151,0.3091150842627051,0.5142449461893239,-0.8,0.0,0.00034046173095703125,0.0006911754608154297,0
1.3401243686676025,0.09555025398731232,0.2615879476070404,-0.5803924202919006,-0.029161878326115512,-0.6641224817660586,0.019034026865392368,0.012804688890879153,0.03906419939055072,0.30664100325769184,0.5157240493918391,-0.8,0.0,0.00036072731018066406,0.0007174015045166016,0
1.350048303604126,0.09469752013683319,0.2638684809207916,-0.5864496827125549,-0.028739822898051944,-0.6645559009222043,0.022730951500894554,0.018180991700325052,0.03836648624670321,0.3041638379796668,0.5171889013363289,-0.8,0.0,0.00037980079650878906,0.0007646083831787109,0
1.36033296585083,0.09387645870447159,0.2661198675632477,-0.5923747420310974,-0.02834730340122314,-0.6649872913354935,0.02628954601400745,0.02366065207653314,0.03773097874849791,0.3015892466691747,0.5186944440549943,-0.8,0.0,0.00035452842712402344,0.0007219314575195312,0
1.3700339794158936,0.09232591092586517,0.27053308486938477,-0.6038365364074707,-0.027545500619316717,-0.6655059014797634,0.03012008157013825,0.029029016794797448,0.036963675480564596,0.299153931253956,0.5201028027374044,-0.8,0.0,0.00022149085998535156,0.00042176246643066406,0
1.3800101280212402,0.09159442782402039,0.27269789576530457,-0.6093763113021851,-0.02717721595423775,-0.666025514020678,0.03351548133733328,0.03438674318951512,0.03633458496301112,0.29664268820967754,0.5215391792873628,-0.8,0.0,0.00021982192993164062,0.0004298686981201172,0
1.3901371955871582,0.09089231491088867,0.27483391761779785,-0.6147906184196472,-0.02680416017602576,-0.6665311815343513,0.03674747197777525,0.039837212728535,0.03570595122126097,0.294086401604926,0.5229848835206101,-0.8,0.0,0.00042629241943359375,0.0007128715515136719,0
1.4000558853149414,0.09021881222724915,0.27694153785705566,-0.6200816631317139,0.08280364557442996,-0.6668519992391901,0.03264731014184307,0.08400191139657612,-0.0058371794258744655,0.2915758839990466,0.5243886954065414,-0.8,0.0,0.0002033710479736328,0.00039005279541015625,0
1.4100472927093506,0.08896472305059433,0.2810741066932678,-0.6303178071975708,0.0835381206180382,-0.6672073780242883,0.046783466004147053,0.08519222338564915,-0.020872725103390093,0.2890401862226916,0.5257906149298899,-0.8,0.0,0.00024271011352539062,0.00044846534729003906,0
1.420039415359497,0.08838417381048203,0.2830991744995117,-0.6352657079696655,0.08391095503237198,-0.667548020930241,0.049113558841927495,0.09803927688724404,-0.04081507472237944,0.2864975658305099,0.5271803721433421,-0.8,0.0,0.0001995563507080078,0.00038933753967285156,0
1.4300134181976318,0.08783399313688278,0.2850963771343231,-0.6400956511497498,0.08428329494655981,-0.6679285090568224,0.0567504358863742,0.09955169492161146,-0.053196965543977626,0.2839528923465493,0.5285553470811065,-0.8,0.0,0.00026917457580566406,0.0004878044128417969,0
1.4401593208312988,0.08476915210485458,0.288453072309494,-0.648350715637207,0.08463065269931556,-0.6681715195020371,0.06029419034238329,0.10080770379530285,-0.0646407088554668,0.2813575920547455,0.5299414169445105,-0.8,0.0,0.0002040863037109375,0.0003981590270996094,0
1.450044870376587,0.08178798109292984,0.2917548418045044,-0.6564021110534668,0.08493011012809577,-0.6682914867131653,0.06327244636351413,0.09838590921588257,-0.07309197733784034,0.2788223815159877,0.531279662292613,-0.8,0.0,0.00021576881408691406,0.0004153251647949219,0
1.4602158069610596,0.07606841623783112,0.2982001304626465,-0.6719154715538025,0.08546158541015293,-0.6682787314205596,0.06454439371851171,0.09342754411039643,-0.08025453469645769,0.2762073389549674,0.5326438828217365,-0.8,0.0,0.00020074844360351562,0.0003905296325683594,0
1.4701900482177734,0.07330497354269028,0.3013494312763214,-0.6793636083602905,0.08567570881055525,-0.6682228524169297,0.06379347021801024,0.08811119034942996,-0.0857996700159666,0.27363638591058004,0.5339692203730436,-0.8,0.0,0.0003571510314941406,0.0007197856903076172,0
1.4802427291870117,0.07061845064163208,0.3044477701187134,-0.6866267323493958,0.08662162020735033,-0.6681635872155093,0.061971070878470966,0.08293372334531991,-0.09060207922710006,0.27103878000202136,0.535292424507405,-0.8,0.0,0.00033593177795410156,0.0006802082061767578,0
1.4902088642120361,0.06800679862499237,0.3074953556060791,-0.6937063932418823,0.08754095185133716,-0.6681177736004122,0.0593943616718431,0.07770651730621243,-0.09456846917932768,0.2684572213811424,0.5365917631573525,-0.8,0.0,0.000209808349609375,0.0004062652587890625,0
1.5001661777496338,0.06300601363182068,0.3134443759918213,-0.707333505153656,0.0892040591247492,-0.6680730220192626,0.05686707625656901,0.07079330049476364,-0.09826121411403337,0.2658717273183989,0.5378775182257861,-0.8,0.0,0.0003533363342285156,0.0007417201995849609,0
1.510265588760376,0.0606103390455246,0.31634804606437683,-0.7138843536376953,0.08996484221558267,-0.6680645413743344,0.05321762615644986,0.06445857957894442,-0.1012272049835169,0.2632430465445213,0.5391688960297681,-0.8,0.0,0.00039076805114746094,0.0008149147033691406,0
1.5202696323394775,0.05828141048550606,0.3192051351070404,-0.7202645540237427,0.09069166383546243,-0.6681005689569881,0.04927631507117642,0.058649927720448566,-0.10383032062244743,0.2606330042120041,0.5404354143793922,-0.8,0.0,0.0004868507385253906,0.0007131099700927734,0
1.5302257537841797,0.05382009223103523,0.32478398084640503,-0.7325213551521301,0.09206076856530188,-0.6681867878216778,0.04590862953056109,0.051288773173424694,-0.10629292217407753,0.25802941501731175,0.5416833216795804,-0.8,0.0,0.0003523826599121094,0.0007112026214599609,0
1.5401434898376465,0.05168028175830841,0.32751014828681946,-0.7383964657783508,0.09266801576875527,-0.6683163372825713,0.041340812644293214,0.04501754763221082,-0.10829364089206496,0.2554299235005473,0.5429139473070337,-0.8,0.0,0.0003418922424316406,0.0006935596466064453,0
1.5500764846801758,0.049603696912527084,0.3301942050457001,-0.7441117763519287,0.09320689733815936,-0.6684893702539505,0.03649705914008679,0.039655431854772744,-0.11005788357496399,0.2528205499859631,0.5441339628297384,-0.8,0.0,0.0003561973571777344,0.0006079673767089844,0
1.560147762298584,0.04758927971124649,0.3328375816345215,-0.7496901750564575,0.0937167678632257,-0.6686996114349475,0.03164622605734625,0.034913863207247785,-0.11156682151217087,0.2501689009632383,0.5453581584526314,-0.8,0.0,0.0002033710479736328,0.00040078163146972656,0
1.5701167583465576,0.04373645782470703,0.3380027115345001,-0.7603839039802551,0.09461730854994743,-0.6689596528108227,0.02768962917306419,0.028702718580762926,-0.11305013748672857,0.24753834371658198,0.546557195899982,-0.8,0.0,0.00023436546325683594,0.00043702125549316406,0
1.5800652503967285,0.041892845183610916,0.3405265808105469,-0.7655071020126343,0.09501631918017027,-0.669244169569463,0.022820667648734815,0.023599332406187813,-0.11424705534217745,0.24490746792733578,0.5477411178224809,-0.8,0.0,0.00021386146545410156,0.000415802001953125,0
1.5901386737823486,0.04010063782334328,0.3430127799510956,-0.7704830765724182,0.09537632135547876,-0.6695615968509074,0.01811520497194026,0.01923615701171262,-0.11532013799842056,0.2422377849924272,0.5489270038192351,-0.8,0.0,0.0003750324249267578,0.0007519721984863281,0
1.6001977920532227,0.03835918381810188,0.34546083211898804,-0.7753128409385681,0.09568533567050864,-0.6699099672561661,0.013495358090860696,0.01556643032677289,-0.11623051854564913,0.23956616336235056,0.5500982215676066,-0.8,0.0,0.0003819465637207031,0.0007643699645996094,0
1.6100795269012451,0.036669544875621796,0.34787067770957947,-0.7799981832504272,0.09596147715107804,-0.670287179607061,0.009023928543521508,0.012602401833650124,-0.11702828372207924,0.23693613927492946,0.5512361253632523,-0.8,0.0,0.0003859996795654297,0.0008101463317871094,0
1.6201467514038086,0.03502969443798065,0.3502439856529236,-0.7845406532287598,0.09618316604215046,-0.6706830467302783,0.0047453176346231064,0.010222329933917494,-0.11770926805951067,0.2342511896881302,0.5523824582023723,-0.8,0.0,0.00036454200744628906,0.0007288455963134766,0
1.630183219909668,0.03189767524600029,0.35488253831863403,-0.7932162880897522,0.09660193286090335,-0.6711563878554317,0.0015135334052303034,0.006643474257440578,-0.11838386794639572,0.23156892219494563,0.5535122711137227,-0.8,0.0,0.0003986358642578125,0.0007932186126708984,0
1.6402792930603027,0.030403155833482742,0.3571498990058899,-0.7973519563674927,0.09675198098189933,-0.6716528444183567,-0.002709871592021275,0.00432961231776486,-0.11891459047027987,0.22886522775501977,0.5546356529512351,-0.8,0.0,0.00035881996154785156,0.0007157325744628906,0
1.6503894329071045,0.02895505167543888,0.3593834340572357,-0.8013527393341064,0.09686745322497882,-0.672164912567244,-0.006604875495278171,0.0027129242094818696,-0.11937975540520386,0.2261523054330001,0.5557473659382822,-0.8,0.0,0.00039505958557128906,0.0007836818695068359,0
1.6601524353027344,0.026191262528300285,0.3637467324733734,-0.8089645504951477,0.0969550197518646,-0.6727489197464178,-0.009685300059887703,0.00020519476479700493,-0.11976115346336881,0.22352740715919667,0.5568083137388367,-0.8,0.0,0.0003719329833984375,0.0007641315460205078,0
1.6702373027801514,0.024873264133930206,0.3658769130706787,-0.8125799894332886,0.09695175536953408,-0.6733413455480367,-0.013347750945905922,-0.001072654556719644,-0.12005622636757644,0.2208107464875257,0.5578912207909547,-0.8,0.0,0.0004277229309082031,0.0008265972137451172,0
1.6801989078521729,0.02359611727297306,0.3679741621017456,-0.8160697817802429,0.0969026994398394,-0.6739369028925096,-0.016704630833660913,-0.0017573252936154563,-0.12027459523077039,0.2181221397066551,0.5589478796540787,-0.8,0.0,0.00037741661071777344,0.0007863044738769531,0
1.6901092529296875,0.021156100556254387,0.37207266688346863,-0.8226765990257263,0.09664330990422472,-0.6746138811230453,-0.019227251005279417,-0.0031281776644550233,-0.12035702877350557,0.21544235042229262,0.5599862441565132,-0.8,0.0,0.0002980232238769531,0.0005376338958740234,0
1.7002232074737549,0.019991975277662277,0.37407222390174866,-0.8258083462715149,0.09643106321581732,-0.6752867856319142,-0.022161919840133396,-0.00340239637837316,-0.1203827171074281,0.21270240865548762,0.5610326954395385,-0.8,0.0,0.0005326271057128906,0.0008437633514404297,0
1.7100350856781006,0.018864227458834648,0.3760398328304291,-0.8288246989250183,0.09621568584957725,-0.6759413240868196,-0.02479322975940073,-0.003090210199120846,-0.12033979325191821,0.2100394437113429,0.5620350808316413,-0.8,0.0,0.00039386749267578125,0.0008907318115234375,0
1.720217227935791,0.01777143031358719,0.3779769837856293,-0.8317266702651978,0.09596900697598403,-0.6765799939768949,-0.02724862602136016,-0.0021562760886442763,-0.12024125624176497,0.20727099471159924,0.56306192798951,-0.8,0.0,0.0003592967987060547,0.0007462501525878906,0
1.7302424907684326,0.0167146734893322,0.37988412380218506,-0.8345167636871338,0.09569978636196172,-0.6772047878228936,-0.029491096411970882,-0.0005966482006282297,-0.12009078720852491,0.2045402953150174,0.5640596312380859,-0.8,0.0,0.0003750324249267578,0.0007793903350830078,0
1.7400500774383545,0.014708864502608776,0.3836097717285156,-0.8397678136825562,0.09501302076600261,-0.6779193231987161,-0.03083728751964583,0.0004581191974373266,-0.11974609799485218,0.20186423954591146,0.5650228568762071,-0.8,0.0,0.00036025047302246094,0.0007162094116210938,0
1.7501904964447021,0.013757923617959023,0.3854270875453949,-0.8422331213951111,0.09461923650913405,-0.6786313987140961,-0.032463732911463164,0.002455849530728388,-0.11942512351210702,0.1990925999722618,0.5660054210308281,-0.8,0.0,0.0003838539123535156,0.0007939338684082031,0
1.7602596282958984,0.01284089032560587,0.38721486926078796,-0.8445923924446106,0.094201982576085,-0.6793267544387241,-0.033700524133126374,0.004905223852055685,-0.11903567099346798,0.19633571285935386,0.5669676250510335,-0.8,0.0,0.00023818016052246094,0.0004444122314453125,0
1.7701683044433594,0.011956080794334412,0.38897234201431274,-0.8468481302261353,0.0937448327529544,-0.6800013937589494,-0.03455599602787235,0.0076979329296594425,-0.11861559035930956,0.19361821805484267,0.5679013872471764,-0.8,0.0,0.00035858154296875,0.0007283687591552734,0
1.780236005783081,0.010280551388859749,0.3924003839492798,-0.8511515855789185,0.09273679006235189,-0.6807504222189654,-0.034484716776010484,0.009877675048904614,-0.11795423774685247,0.19085256212796584,0.5688367951611348,-0.8,0.0,0.00034165382385253906,0.0007014274597167969,0
1.790123462677002,0.009487215429544449,0.39407268166542053,-0.8531574606895447,0.09218021593754817,-0.681474762251277,-0.034675150754614754,0.01272480567516667,-0.11736702081373786,0.18813202176409852,0.5697423473702413,-0.8,0.0,0.0003840923309326172,0.0007550716400146484,0
1.800156831741333,0.008722282946109772,0.39571744203567505,-0.8550681471824646,0.09158897272622998,-0.682165117595032,-0.034574309341829146,0.015834961706586635,-0.11670830526854238,0.1853669419150145,0.5706479622719034,-0.8,0.0,0.0003743171691894531,0.0007867813110351562,0
1.8103110790252686,0.0072755697183310986,0.3989279568195343,-0.8586103916168213,0.09031550754264864,-0.6829276533363503,-0.03375219804230847,0.01847366378643004,-0.11579467945729065,0.18256411149644633,0.5715508246809842,-0.8,0.0,0.000347137451171875,0.0006968975067138672,0
1.8201417922973633,0.006593537982553244,0.4004932940006256,-0.860247015953064,0.08964254509442979,-0.6836616270587874,-0.0332685925613169,0.021892641870734808,-0.11499199906445214,0.17984639466420957,0.5724118048453275,-0.8,0.0,0.00035309791564941406,0.0007240772247314453,0
1.8300504684448242,0.00593878049403429,0.40203285217285156,-0.8617950081825256,0.0889515175061455,-0.6843571279717199,-0.0326536059713923,0.02560753703277292,-0.11413215654741539,0.1771030164365962,0.5732665362369049,-0.8,0.0,0.0002505779266357422,0.00045013427734375,0
1.8402118682861328,0.0030137188732624054,0.40493273735046387,-0.8668978810310364,0.08824686600799439,-0.684865126528492,-0.0314034912315563,0.027947631448868412,-0.11328602921715236,0.17428544947510108,0.5741294123290166,-0.8,0.0,0.00021719932556152344,0.0004169940948486328,0
1.850151538848877,-0.0026178976986557245,0.4105696976184845,-0.8766003847122192,0.08637411163130565,-0.685154832498376,-0.029280128684190103,0.026952207410192597,-0.11198665687933962,0.17152529624488821,0.5749600618722167,-0.8,0.0,0.00022983551025390625,0.0004284381866455078,0
1.860267162322998,-0.005328536964952946,0.41331005096435547,-0.8811971545219421,0.08540879634941978,-0.6853101146772966,-0.028834796076207547,0.026584032571920702,-0.11087373876480572,0.1687122185698039,0.5757917916271946,-0.8,0.0,0.0002276897430419922,0.0004298686981201172,0
1.8701889514923096,-0.007971826940774918,0.4159999489784241,-0.8856302499771118,0.0844293920289432,-0.6853918747832521,-0.028416847527125595,0.02580893449929384,-0.10966216048630577,0.16594912671538248,0.5765942137607712,-0.8,0.0,0.0003819465637207031,0.0007548332214355469,0
1.88014554977417,-0.010548206977546215,0.4186389744281769,-0.8899030089378357,0.08344585382261849,-0.6854293219511965,-0.02825254378634756,0.02500012166237988,-0.10847975992136803,0.16317250477015927,0.5773861218344551,-0.8,0.0,0.00035643577575683594,0.0007166862487792969,0
1.8900256156921387,-0.013061278499662876,0.421227365732193,-0.8940213918685913,0.08244240236843045,-0.68543508048762,-0.02805947424277954,0.023893060648657174,-0.10726557303084425,0.16041349020464385,0.5781587257495684,-0.8,0.0,0.00034737586975097656,0.0005590915679931641,0
1.900007724761963,-0.01791071891784668,0.42625588178634644,-0.9018079042434692,0.08039492788993204,-0.6854087822343076,-0.02645365541570204,0.020133767153126397,-0.10565896449199484,0.15762226547312302,0.5789259205003006,-0.8,0.0,0.00019812583923339844,0.0003902912139892578,0
1.9100732803344727,-0.02024959772825241,0.4286973178386688,-0.90548175573349,0.079397365818047,-0.6853840275761103,-0.026536113159856694,0.017625054080424404,-0.1042976003147603,0.15480399236379985,0.5796858838614484,-0.8,0.0,0.00022029876708984375,0.00045943260192871094,0
1.9201178550720215,-0.022531576454639435,0.4310908019542694,-0.909035325050354,0.07840214391413895,-0.6853794036606979,-0.02659857603477567,0.015300234799161885,-0.10288560165016782,0.15198794133372143,0.5804305864521073,-0.8,0.0,0.0002086162567138672,0.00040793418884277344,0
1.9300169944763184,-0.02692580223083496,0.43573620915412903,-0.9157251715660095,0.07641979593686701,-0.6854043072720841,-0.025816825999791997,0.011381965246474095,-0.10117154416405168,0.1492091588428954,0.5811511222714756,-0.8,0.0,0.00020384788513183594,0.00047016143798828125,0
1.9400923252105713,-0.029040757566690445,0.4379913806915283,-0.9188677072525024,0.07539752484303919,-0.6854472830201024,-0.026541625109347666,0.008850922130556764,-0.09969407285111544,0.1463774108647117,0.5818708220804196,-0.8,0.0,0.00028204917907714844,0.0004987716674804688,0
1.9500956535339355,-0.031105494126677513,0.4402025043964386,-0.9218805432319641,0.07437511633689806,-0.6855166573085547,-0.02708319119781776,0.006551124862919122,-0.09819363458164417,0.14356246558894328,0.5825717281794779,-0.8,0.0,0.00026035308837890625,0.0005044937133789062,0
1.9601948261260986,-0.033121250569820404,0.44237062335014343,-0.9247660636901855,0.07336858997680784,-0.6856083334363465,-0.02805040713061161,0.004880613821867279,-0.0967739188427653,0.14071714563539112,0.5832655355189676,-0.8,0.0,0.00022912025451660156,0.0004482269287109375,0
1.9701282978057861,-0.03508717566728592,0.44449758529663086,-0.9275263547897339,0.07235291275574308,-0.6857242237854352,-0.029025768722695033,0.003582897064002738,-0.09537098598194593,0.13791523894321386,0.5839344028803545,-0.8,0.0,0.00026297569274902344,0.0005097389221191406,0
1.9799926280975342,-0.03700681030750275,0.4465821087360382,-0.9301638603210449,0.071320012743222,-0.6858620592600211,-0.029663928658118958,0.002468805918455612,-0.09399572146735617,0.13512968876391052,0.5845852950721294,-0.8,0.0,0.00019478797912597656,0.00038552284240722656,0
1.9900379180908203,-0.04071255773305893,0.4506256878376007,-0.9350924491882324,0.06922576487946616,-0.686054174144755,-0.02888388609944356,-0.00034695750491482496,-0.09223800943705425,0.13228988187881266,0.5852344719447837,-0.8,0.0,0.00022935867309570312,0.000453948974609375,0
2.000251293182373,-0.04249977320432663,0.4525853395462036,-0.9373862147331238,0.06816586097641011,-0.6862671585016347,-0.029359887960733803,-0.001818857963532537,-0.09074400368269633,0.12939936061633417,0.5858803678841644,-0.8,0.0,0.00020885467529296875,0.0004105567932128906,0
2.0100643634796143,-0.04424549639225006,0.4545046091079712,-0.9395657777786255,0.06711265918327534,-0.6864995774063385,-0.02972674985682682,-0.002911450735155421,-0.08921095178564249,0.1266191598958804,0.5864875005891101,-0.8,0.0,0.00020694732666015625,0.0004200935363769531,0
2.020094156265259,-0.04760944843292236,0.4582253396511078,-0.9435908198356628,0.06504420425638426,-0.6867984739626096,-0.028926070738649907,-0.005138355099773109,-0.08737581101006452,0.12377461536009535,0.5870944085855871,-0.8,0.0,0.00020194053649902344,0.00040531158447265625,0
2.0300512313842773,-0.049231722950935364,0.4600259065628052,-0.9454387426376343,0.06403730720730073,-0.6871181621509991,-0.029244775031460026,-0.005953194206277151,-0.08581935718123408,0.12094781701647389,0.5876832697626754,-0.8,0.0,0.00025200843811035156,0.0004928112030029297,0
2.040064811706543,-0.050814028829336166,0.4617859125137329,-0.9471798539161682,0.06303977351374317,-0.6874481932185404,-0.029475482733727257,-0.006237641018273574,-0.08425822393460976,0.11810215203470051,0.588261745896138,-0.8,0.0,0.00020766258239746094,0.0003955364227294922,0
2.050201892852783,-0.053870148956775665,0.46519070863723755,-0.9503523111343384,0.06100836958867793,-0.6878426580459333,-0.02837384924782157,-0.007680919043600686,-0.0824052919862982,0.1152185730489577,0.5888333214285364,-0.8,0.0,0.0002498626708984375,0.0004723072052001953,0
2.0601401329040527,-0.05534345656633377,0.4668358266353607,-0.951808750629425,0.05997336219440613,-0.6882389890191055,-0.028455785605793434,-0.007695109690893204,-0.08082224139521892,0.11238887071215518,0.5893799638094651,-0.8,0.0,0.00032901763916015625,0.0006692409515380859,0
2.070162534713745,-0.056779224425554276,0.4684428572654724,-0.9531673789024353,0.05894975286725174,-0.6886324292829935,-0.02847292446798456,-0.00714256982964368,-0.07923579400874922,0.10953257918925143,0.5899174637999374,-0.8,0.0,0.0004889965057373047,0.0008745193481445312,0
2.0800960063934326,-0.05817822739481926,0.47001317143440247,-0.9544302821159363,0.05794398885727677,-0.6890195414616654,-0.028628170069426005,-0.005954737451786319,-0.07774930821286784,0.10669909568550662,0.5904365359459856,-0.8,0.0,0.0002162456512451172,0.00042319297790527344,0
2.0899720191955566,-0.06087585911154747,0.4730439782142639,-0.9566767811775208,0.05600050166791194,-0.689477429511634,-0.02694001848670428,-0.006100783809586617,-0.07594497390303319,0.10387956383932576,0.5909391137981572,-0.8,0.0,0.00020265579223632812,0.00042319297790527344,0
2.100067377090454,-0.06217707693576813,0.47450438141822815,-0.9576622247695923,0.05505397486593606,-0.6899307106683016,-0.026482242243624426,-0.004932584674826968,-0.07443823931529157,0.1009949647553714,0.5914389377560978,-0.8,0.0,0.00021696090698242188,0.00041961669921875,0
2.1100568771362305,-0.06344641745090485,0.475929856300354,-0.9585583806037903,0.05411477068077765,-0.6903786993046177,-0.025841816470804784,-0.0034360111800706443,-0.07292716363170548,0.09813824598738473,0.5919196606588766,-0.8,0.0,0.0002613067626953125,0.0005719661712646484,0
2.1201486587524414,-0.06468594074249268,0.47732123732566833,-0.9593658447265625,0.05317069870851864,-0.6908187380433735,-0.025191821435525157,-0.0015516642504737953,-0.07151690304714364,0.09524995482066835,0.5923912947593513,-0.8,0.0,0.00020575523376464844,0.00040221214294433594,0
2.1302480697631836,-0.06589625030755997,0.47867831587791443,-0.9600868821144104,0.052240857204408735,-0.6912539200332525,-0.024565808796586305,0.0006815217420673586,-0.07014574478924827,0.09235721148419213,0.5928491760025176,-0.8,0.0,0.0004138946533203125,0.0008106231689453125,0
2.1400563716888428,-0.06822635978460312,0.481296569108963,-0.9613279700279236,0.05045517667566872,-0.6917659690592456,-0.022717885310717827,0.001969070090265532,-0.06850261799611174,0.08954574265775743,0.5932803384335863,-0.8,0.0,0.0003409385681152344,0.0006928443908691406,0
2.1501386165618896,-0.0693492591381073,0.4825547933578491,-0.9618251323699951,0.04955711648860394,-0.6922765657933735,-0.021569198099519307,0.004201379277799557,-0.06711084565810146,0.08665365351132004,0.5937096464881971,-0.8,0.0,0.0003960132598876953,0.000759124755859375,0
