time,x,y,z,yaw,throttle,roll_rate,pitch_rate,yaw_rate,x_ref,y_ref,z_ref,yaw_ref,pred_time,nr_time,ctrl_callback_time,metadata
1.430511474609375e-06,0.044388189911842346,-0.09321218729019165,1.2765733003616333,-0.2473471212464982,-0.7233722316545713,2.716510639839846,0.0,0.0,0.0,0.8,-0.8,0.0,0.0013527870178222656,0.004331350326538086,0.0054776668548583984,Sim
0.009677410125732422,0.04413376376032829,-0.09225078672170639,1.2730320692062378,-0.2473801317746187,-0.7495517831098972,2.153454482337248,0.0,0.0,0.0,0.8,-0.8,0.0,0.0006091594696044922,0.0023603439331054688,0.003033876419067383,Flatness
0.019423484802246094,0.044019557535648346,-0.09182669967412949,1.2714712619781494,-0.2473907207955779,-0.7725845796340309,1.7403357809766202,0.0,0.0,0.0,0.8,-0.8,0.0,0.0005574226379394531,0.002132415771484375,0.0026547908782958984,1x Speed
0.029380321502685547,0.043913569301366806,-0.0914396420121193,1.2700440883636475,-0.24741629717432467,-0.7928962426545834,1.4275246216533184,0.0,0.0,0.0,0.8,-0.8,0.0,0.00044798851013183594,0.0017733573913574219,0.0022399425506591797,1stOrderHold
0.03964686393737793,0.04381409287452698,-0.09108743816614151,1.2687479257583618,-0.24744548126752036,-0.81084855928695,1.1852712469944564,0.0,0.0,0.0,0.8,-0.8,0.0,0.0004763603210449219,0.0018124580383300781,0.0024187564849853516,QuatYawError
0.049347639083862305,0.043637774884700775,-0.09048298001289368,1.2665094137191772,-0.24751041546215172,-0.8267310819234499,0.9935259902358113,0.0,0.0,0.0,0.8,-0.8,0.0,0.0003762245178222656,0.0015702247619628906,0.0019495487213134766,NoPyJoules
0.05944323539733887,0.04356086999177933,-0.09022872149944305,1.2655742168426514,-0.2475355545823841,-0.8408219391119773,0.8409485034705627,0.0,0.0,0.0,0.8,-0.8,0.0,0.0004425048828125,0.0017287731170654297,0.0022382736206054688,0
0.06958127021789551,0.04351013898849487,-0.09000211954116821,1.2647418975830078,-0.24756263436060638,-0.8532999987014627,0.7159139651538052,0.0,0.0,0.0,0.8,-0.8,0.0,0.0004372596740722656,0.0017473697662353516,0.0022895336151123047,0
0.07930445671081543,0.04347558319568634,-0.08978138118982315,1.2639456987380981,-0.24757924382369464,-0.8642774916038684,0.6098861756514516,0.0,0.0,0.0,0.8,-0.8,0.0,0.0004355907440185547,0.0017800331115722656,0.0022058486938476562,0
0.08971858024597168,0.04348251596093178,-0.08927051723003387,1.2622206211090088,-0.24759912252682573,-0.8736611081698389,0.5112597097460777,0.0,0.0,0.0,0.8,-0.8,0.0,0.00112152099609375,0.0033502578735351562,0.00413203239440918,0
0.09947538375854492,0.043531205505132675,-0.0889613926410675,1.261227011680603,-0.24757429869778083,-0.8818109579205673,0.4375161170861865,0.0,0.0,0.0,0.8,-0.8,0.0,0.001142263412475586,0.004457950592041016,0.005296468734741211,0
0.10960817337036133,0.04360951483249664,-0.08862509578466415,1.2601264715194702,-0.24759876342285067,-0.8888629354515697,0.3784898299180351,0.0,0.0,0.0,0.8,-0.8,0.0,0.0007402896881103516,0.0028417110443115234,0.003507852554321289,0
0.11959147453308105,0.04371294006705284,-0.08827441930770874,1.2588874101638794,-0.24763078810085812,-0.8949374699607384,0.3310215889414196,0.0,0.0,0.0,0.8,-0.8,0.0,0.0005438327789306641,0.0026161670684814453,0.003259420394897461,0
0.1297919750213623,0.04383805766701698,-0.08791684359312057,1.2575217485427856,-0.24765615109750658,-0.9001262760351589,0.29183285455089547,0.0,0.0,0.0,0.8,-0.8,0.0,0.0009837150573730469,0.0037097930908203125,0.004617452621459961,0
0.13966131210327148,0.043984752148389816,-0.08755190670490265,1.2560093402862549,-0.2476806035213907,-0.9045076971930217,0.2583179815618859,0.0,0.0,0.0,0.8,-0.8,0.0,0.0006470680236816406,0.002452373504638672,0.003087759017944336,0
0.14964985847473145,0.044377900660037994,-0.08679799735546112,1.2524703741073608,-0.2477526033875307,-0.9078543054515745,0.23183346517028797,0.0,0.0,0.0,0.8,-0.8,0.0,0.000560760498046875,0.002190113067626953,0.0028076171875,0
0.15939044952392578,0.04461139813065529,-0.08640507608652115,1.2504148483276367,-0.24779261709864941,-0.9105493874744495,0.20761319349188248,0.0,0.0,0.0,0.8,-0.8,0.0,0.0005254745483398438,0.0020821094512939453,0.0025615692138671875,0
0.1696312427520752,0.045160405337810516,-0.08556044846773148,1.2456761598587036,-0.24780226890075216,-0.912322620748947,0.1853164687424334,0.0,0.0,0.0,0.8,-0.8,0.0,0.0005061626434326172,0.002209186553955078,0.002730846405029297,0
0.17934155464172363,0.045478567481040955,-0.08509697020053864,1.242976427078247,-0.24782101727184586,-0.9135804467125054,0.16465563566448996,0.0,0.0,0.0,0.8,-0.8,0.0,0.0006577968597412109,0.0032541751861572266,0.0038733482360839844,0
0.1895616054534912,0.04582739621400833,-0.08459877967834473,1.240036129951477,-0.24784912299553688,-0.9143654222946263,0.1462798118276349,0.0,0.0,0.0,0.8,-0.8,0.0,0.0006771087646484375,0.0028226375579833984,0.0034284591674804688,0
0.1995542049407959,0.0462091900408268,-0.08406203985214233,1.2368558645248413,-0.24789209749974203,-0.9147184490634387,0.12924633089996393,0.0,0.0,0.0,0.8,-0.8,0.0,0.0005724430084228516,0.0026772022247314453,0.003329753875732422,0
0.20962762832641602,0.047101762145757675,-0.08285307884216309,1.2297487258911133,-0.2480197774254322,-0.9143063298004425,0.1097929899357864,0.0,0.0,0.0,0.8,-0.8,0.0,0.0009636878967285156,0.003759622573852539,0.004534006118774414,0
0.21961379051208496,0.04761181026697159,-0.08217064291238785,1.225813388824463,-0.2480811428124925,-0.9135647172382902,0.09483161035633869,0.0,0.0,0.0,0.8,-0.8,0.0,0.0007228851318359375,0.0026235580444335938,0.003337860107421875,0
0.229689359664917,0.048157770186662674,-0.08143045753240585,1.2216206789016724,-0.24813221998140422,-0.9125220142442464,0.08076967403618909,0.0,0.0,0.0,0.8,-0.8,0.0,0.0006542205810546875,0.0031621456146240234,0.0038652420043945312,0
0.23940014839172363,0.04874253273010254,-0.08062972873449326,1.2171684503555298,-0.24819784837211042,-0.9112050530542583,0.06796544459570396,0.0,0.0,0.0,0.8,-0.8,0.0,0.0006232261657714844,0.0024085044860839844,0.00292205810546875,0
0.2495403289794922,0.05002543702721596,-0.07884099334478378,1.2074780464172363,-0.24830841803301193,-0.9092523662056445,0.050862304047797895,0.0,0.0,0.0,0.8,-0.8,0.0,0.0006732940673828125,0.002355813980102539,0.002961397171020508,0
0.25943565368652344,0.050726667046546936,-0.07784949243068695,1.2022035121917725,-0.2483661474670999,-0.9071064597119524,0.0398751202104905,0.0,0.0,0.0,0.8,-0.8,0.0,0.0006563663482666016,0.0026350021362304688,0.0032978057861328125,0
0.2695925235748291,0.05146707966923714,-0.07679016888141632,1.196667194366455,-0.24841872219017594,-0.90478259891458,0.029858641986377197,0.0,0.0,0.0,0.8,-0.8,0.0,0.0005288124084472656,0.0020744800567626953,0.0025942325592041016,0
0.2794065475463867,0.052246708422899246,-0.07566174864768982,1.190868854522705,-0.24846389039681374,-0.9022972935192276,0.020335760825846056,0.0,0.0,0.0,0.8,-0.8,0.0,0.0005331039428710938,0.002137422561645508,0.0026922225952148438,0
0.28943562507629395,0.053963299840688705,-0.07319725304841995,1.1784929037094116,-0.24855373701116756,-0.8992746686016418,0.004440930699724075,0.0,0.0,0.0,0.8,-0.8,0.0,0.0005357265472412109,0.0021758079528808594,0.0026967525482177734,0
0.29954075813293457,0.05488228052854538,-0.07185740768909454,1.171917200088501,-0.2486027354577022,-0.8961543046621311,-0.0038565411451772216,0.0,0.0,0.0,0.8,-0.8,0.0,0.0005581378936767578,0.0021812915802001953,0.002716541290283203,0
0.30957555770874023,0.055841051042079926,-0.07044283300638199,1.1650850772857666,-0.2486452401379007,-0.8929456323956622,-0.01186945798340099,0.0,0.0,0.0,0.8,-0.8,0.0,0.0006070137023925781,0.002923250198364258,0.0035669803619384766,0
0.3195962905883789,0.05684015527367592,-0.06895291060209274,1.1579997539520264,-0.2487090283915931,-0.8896575141378569,-0.019383339809603817,0.0,0.0,0.0,0.8,-0.8,0.0,0.0005650520324707031,0.0025892257690429688,0.003191232681274414,0
0.3298146724700928,0.05895943194627762,-0.06574761867523193,1.1430364847183228,-0.24885760461894982,-0.8859043898844423,-0.03558993644920823,0.0,0.0,0.0,0.8,-0.8,0.0,0.0008635520935058594,0.0031964778900146484,0.004012346267700195,0
0.33954572677612305,0.060078538954257965,-0.06403030455112457,1.135166883468628,-0.2489190183297192,-0.8821260122977176,-0.042015200969769816,0.0,0.0,0.0,0.8,-0.8,0.0,0.0006299018859863281,0.0023949146270751953,0.003010988235473633,0
0.34944939613342285,0.06123578920960426,-0.062236394733190536,1.1270593404769897,-0.24897250554441896,-0.8783283631537699,-0.0483384422001069,0.0,0.0,0.0,0.8,-0.8,0.0,0.0005171298980712891,0.002053976058959961,0.0025980472564697266,0
0.35968995094299316,0.06244976818561554,-0.060366228222846985,1.1187187433242798,-0.24899078392334076,-0.8745149235954602,-0.054337590445083364,0.0,0.0,0.0,0.8,-0.8,0.0,0.0005602836608886719,0.0020918846130371094,0.0027244091033935547,0
0.369426965713501,0.0649929866194725,-0.05639920011162758,1.1013576984405518,-0.24909011002650286,-0.8703114941922665,-0.07061443210306047,0.0,0.0,0.0,0.8,-0.8,0.0,0.0005002021789550781,0.001973867416381836,0.002450704574584961,0
0.3796069622039795,0.0653519332408905,-0.05397752299904823,1.0891433954238892,-0.24913896622549642,-0.866098069621827,-0.07484424170008114,0.0,0.0,0.0,0.8,-0.8,0.0,0.0005357265472412109,0.002061128616333008,0.0026350021362304688,0
0.3894522190093994,0.06576856970787048,-0.05149043723940849,1.076797604560852,-0.24920138311035467,-0.8618807691690271,-0.07879439634507665,0.0,0.0,0.0,0.8,-0.8,0.0,0.0005450248718261719,0.0026204586029052734,0.0032279491424560547,0
0.39966344833374023,0.06624176353216171,-0.04893791303038597,1.0643229484558105,-0.24925335643858024,-0.8576612345082716,-0.08299044062133464,0.0,0.0,0.0,0.8,-0.8,0.0,0.0007715225219726562,0.0030355453491210938,0.003749847412109375,0
0.4096708297729492,0.06735320389270782,-0.043638408184051514,1.0389565229415894,-0.24934868210123065,-0.8530450844067956,-0.09834807691948648,0.0,0.0,0.0,0.8,-0.8,0.0,0.0006132125854492188,0.002413511276245117,0.0030608177185058594,0
0.4194653034210205,0.06799263507127762,-0.04089141637086868,1.0260930061340332,-0.24940017464530773,-0.8484779663007357,-0.10154740899855381,0.0,0.0,0.0,0.8,-0.8,0.0,0.0005941390991210938,0.0022361278533935547,0.0027980804443359375,0
0.42946743965148926,0.06869667768478394,-0.03808281570672989,1.0131134986877441,-0.2494528626745858,-0.8439590944153369,-0.1048069654942409,0.0,0.0,0.0,0.8,-0.8,0.0,0.0005261898040771484,0.0021049976348876953,0.002617359161376953,0
0.43966054916381836,0.06945444643497467,-0.0352105051279068,1.0000207424163818,-0.24952914225452857,-0.8394866624358835,-0.10837061171606839,0.0,0.0,0.0,0.8,-0.8,0.0,0.0005500316619873047,0.0021049976348876953,0.002698659896850586,0
0.4493992328643799,0.0711159035563469,-0.029276445508003235,0.9735123515129089,-0.2496716164120471,-0.8346870438077054,-0.12476164840157473,0.0,0.0,0.0,0.8,-0.8,0.0,0.0004894733428955078,0.0019915103912353516,0.0024628639221191406,0
0.45940232276916504,0.07202020287513733,-0.026216913014650345,0.9601060748100281,-0.24972992900868798,-0.8299783867787388,-0.127354945214087,0.0,0.0,0.0,0.8,-0.8,0.0,0.0003993511199951172,0.0017025470733642578,0.0022068023681640625,0
0.46975207328796387,0.0729731097817421,-0.023097539320588112,0.9466041922569275,-0.24978005935662784,-0.8253555126814909,-0.1299167054346648,0.0,0.0,0.0,0.8,-0.8,0.0,0.0008039474487304688,0.003226041793823242,0.003943204879760742,0
0.4795684814453125,0.07397382706403732,-0.019918987527489662,0.9329784512519836,-0.24982980325628215,-0.8208138344874064,-0.1324628107245131,0.0,0.0,0.0,0.8,-0.8,0.0,0.0007009506225585938,0.0032279491424560547,0.003918170928955078,0
0.48972105979919434,0.07611221075057983,-0.013389230705797672,0.9054654240608215,-0.2499402904888688,-0.815999433865731,-0.14880304053466686,0.0,0.0,0.0,0.8,-0.8,0.0,0.0006208419799804688,0.0025207996368408203,0.003176450729370117,0
0.4993715286254883,0.07726482301950455,-0.01004241406917572,0.891586184501648,-0.24999954498563695,-0.8113004124193774,-0.15062004944608173,0.0,0.0,0.0,0.8,-0.8,0.0,0.0005121231079101562,0.002279996871948242,0.0028846263885498047,0
0.5096685886383057,0.0784628614783287,-0.006640174426138401,0.8776310086250305,-0.2500788384741531,-0.8067117080967091,-0.15239681853504963,0.0,0.0,0.0,0.8,-0.8,0.0,0.0007822513580322266,0.003026723861694336,0.003765106201171875,0
0.5197813510894775,0.07970328629016876,-0.0031839851289987564,0.8636056780815125,-0.25015675069434995,-0.8022313075457025,-0.1541953309509145,0.0,0.0,0.0,0.8,-0.8,0.0,0.0006580352783203125,0.002377748489379883,0.0030975341796875,0
0.5293385982513428,0.08230391144752502,0.003882743651047349,0.8353609442710876,-0.2503153309834374,-0.7975280888488503,-0.17016403086817689,0.0,0.0,0.0,0.8,-0.8,0.0,0.000431060791015625,0.0017180442810058594,0.0021762847900390625,0
0.5394840240478516,0.08366306126117706,0.0074905529618263245,0.8211479783058167,-0.25037891843312626,-0.7929569011681132,-0.17045049766459214,0.0,0.0,0.0,0.8,-0.8,0.0,0.0005435943603515625,0.002443075180053711,0.003032684326171875,0
0.5496084690093994,0.08506017923355103,0.011146360076963902,0.8068355321884155,-0.25043511458857526,-0.7885145883785885,-0.1713112158722183,0.0,0.0,0.0,0.8,-0.8,0.0,0.0008149147033691406,0.0030210018157958984,0.0038254261016845703,0
0.5595033168792725,0.08649397641420364,0.014849266968667507,0.7924766540527344,-0.2505271394327542,-0.7841925251965234,-0.17209729537873292,0.0,0.0,0.0,0.8,-0.8,0.0,0.0006489753723144531,0.003047943115234375,0.003728151321411133,0
0.5699458122253418,0.0894775316119194,0.022392580285668373,0.7636339068412781,-0.2506626910441618,-0.7796912454696696,-0.1887876990011913,0.0,0.0,0.0,0.8,-0.8,0.0,0.0008137226104736328,0.0030493736267089844,0.0038242340087890625,0
0.5793924331665039,0.0910249799489975,0.02622920460999012,0.7491605281829834,-0.25072917459213184,-0.77533664547554,-0.1884777926458546,0.0,0.0,0.0,0.8,-0.8,0.0,0.0005822181701660156,0.002248048782348633,0.0028715133666992188,0
0.5895137786865234,0.09260503202676773,0.030107397586107254,0.7346588373184204,-0.25080367611498744,-0.7711190525328661,-0.18834944597622433,0.0,0.0,0.0,0.8,-0.8,0.0,0.0005831718444824219,0.0022122859954833984,0.0027930736541748047,0
0.599534273147583,0.09421857446432114,0.034026581794023514,0.7201322913169861,-0.25088058621608417,-0.7670320058655985,-0.18839870050661559,0.0,0.0,0.0,0.8,-0.8,0.0,0.0005290508270263672,0.002040386199951172,0.0026013851165771484,0
0.6093840599060059,0.09754105657339096,0.0419829823076725,0.6910223960876465,-0.2510210249649312,-0.7628038108864194,-0.20478827411983247,0.0,0.0,0.0,0.8,-0.8,0.0,0.00045228004455566406,0.00182342529296875,0.002275228500366211,0
0.6195235252380371,0.09924720227718353,0.046019285917282104,0.6764073967933655,-0.251091459765217,-0.7587251340732477,-0.20393924944004646,0.0,0.0,0.0,0.8,-0.8,0.0,0.0004730224609375,0.0018601417541503906,0.0023975372314453125,0
0.6295607089996338,0.10098470002412796,0.050091128796339035,0.6617857217788696,-0.2511599195840752,-0.7547868992270712,-0.2027925517777962,0.0,0.0,0.0,0.8,-0.8,0.0,0.0004630088806152344,0.0020966529846191406,0.0026345252990722656,0
0.6394252777099609,0.10275226831436157,0.05419693514704704,0.647159993648529,-0.2512520033746832,-0.7509813860010834,-0.2015406376541077,0.0,0.0,0.0,0.8,-0.8,0.0,0.0005536079406738281,0.002573728561401367,0.0031423568725585938,0
0.6498386859893799,0.10640086233615875,0.06249015033245087,0.6179184317588806,-0.25143783660824237,-0.7470721884512084,-0.21598802266935693,0.0,0.0,0.0,0.8,-0.8,0.0,0.0009753704071044922,0.003365039825439453,0.004232645034790039,0
0.659374475479126,0.10826479643583298,0.06668075174093246,0.6033118367195129,-0.2515279891065919,-0.7433149827836774,-0.2140893150672749,0.0,0.0,0.0,0.8,-0.8,0.0,0.0005230903625488281,0.0019998550415039062,0.002542734146118164,0
0.6695258617401123,0.11015354841947556,0.07090150564908981,0.5887202620506287,-0.2516070505263106,-0.7397002656116499,-0.21261382673763216,0.0,0.0,0.0,0.8,-0.8,0.0,0.00046324729919433594,0.0019364356994628906,0.0024149417877197266,0
0.6795384883880615,0.1120661199092865,0.07515083253383636,0.5741463303565979,-0.25169034943740737,-0.7362197548307937,-0.21107746804882122,0.0,0.0,0.0,0.8,-0.8,0.0,0.00036144256591796875,0.0015168190002441406,0.0020051002502441406,0
0.6892926692962646,0.11595728248357773,0.08372807502746582,0.5450133681297302,-0.25186308028669185,-0.7326610560554989,-0.22538024069089874,0.0,0.0,0.0,0.8,-0.8,0.0,0.00034427642822265625,0.0015759468078613281,0.0019655227661132812,0
0.6993725299835205,0.11793550848960876,0.0880512222647667,0.5304635167121887,-0.2519301825168651,-0.7292507697258476,-0.2218413781234597,0.0,0.0,0.0,0.8,-0.8,0.0,0.0003960132598876953,0.0014967918395996094,0.0019447803497314453,0
0.7095067501068115,0.11993531137704849,0.09239572286605835,0.515948474407196,-0.2519987146512863,-0.7259795255678114,-0.21902516265719868,0.0,0.0,0.0,0.8,-0.8,0.0,0.0004489421844482422,0.0020384788513183594,0.0026161670684814453,0
0.7194664478302002,0.12197118997573853,0.09675954282283783,0.5014688372612,-0.2520841972119135,-0.7228363403801277,-0.21609081062745494,0.0,0.0,0.0,0.8,-0.8,0.0,0.0006084442138671875,0.002375364303588867,0.003023386001586914,0
0.7295281887054443,0.12610115110874176,0.10554386675357819,0.4726306200027466,-0.25225960938291475,-0.7196416200126888,-0.22950057631735032,0.0,0.0,0.0,0.8,-0.8,0.0,0.0003266334533691406,0.0014505386352539062,0.0019118785858154297,0
0.7393412590026855,0.12819260358810425,0.10996201634407043,0.45827943086624146,-0.2523566310608934,-0.7165859618560639,-0.22527010931128633,0.0,0.0,0.0,0.8,-0.8,0.0,0.00033473968505859375,0.001481771469116211,0.0019423961639404297,0
0.7493774890899658,0.13030138611793518,0.11439583450555801,0.44397714734077454,-0.2524362603186428,-0.7136634967884602,-0.2215783994732101,0.0,0.0,0.0,0.8,-0.8,0.0,0.00037550926208496094,0.0015034675598144531,0.0019488334655761719,0
0.7594645023345947,0.1324262022972107,0.1188439279794693,0.4297276437282562,-0.25252137028444915,-0.7108675069965793,-0.21770027442735101,0.0,0.0,0.0,0.8,-0.8,0.0,0.0003724098205566406,0.0015287399291992188,0.0019881725311279297,0
0.7694284915924072,0.1367199718952179,0.1277768611907959,0.4013240933418274,-0.2526723451739824,-0.7080417364353179,-0.22976003955885774,0.0,0.0,0.0,0.8,-0.8,0.0,0.00047898292541503906,0.0020384788513183594,0.00249481201171875,0
0.7794589996337891,0.13611964881420135,0.1322804093360901,0.38366931676864624,-0.2527553843338829,-0.7052950777459889,-0.22397583464260634,0.0,0.0,0.0,0.8,-0.8,0.0,0.0005354881286621094,0.002084016799926758,0.002697467803955078,0
0.7895922660827637,0.13560009002685547,0.1367894411087036,0.3661724328994751,-0.25270464283270644,-0.7026253636526238,-0.21810056075932155,0.0,0.0,0.0,0.8,-0.8,0.0,0.0005292892456054688,0.002072572708129883,0.00266265869140625,0
0.7994201183319092,0.13514715433120728,0.14130495488643646,0.3488309383392334,-0.25268199140137493,-0.7000270215409559,-0.21243488663144441,0.0,0.0,0.0,0.8,-0.8,0.0,0.0004930496215820312,0.002110004425048828,0.0026640892028808594,0
0.8096497058868408,0.13443206250667572,0.15035133063793182,0.3146135210990906,-0.2526049070294311,-0.6973268878531824,-0.22081767936709373,0.0,0.0,0.0,0.8,-0.8,0.0,0.0005855560302734375,0.0023069381713867188,0.0029144287109375,0
0.8194291591644287,0.13416427373886108,0.15487952530384064,0.29773902893066406,-0.2525508986826622,-0.6947220261529001,-0.21426068814758154,0.0,0.0,0.0,0.8,-0.8,0.0,0.0005443096160888672,0.0021212100982666016,0.0026731491088867188,0
0.8295612335205078,0.13395573198795319,0.15940798819065094,0.281021386384964,-0.25251379537364377,-0.6922115295068872,-0.20801602308858252,0.0,0.0,0.0,0.8,-0.8,0.0,0.0005500316619873047,0.0021059513092041016,0.0026340484619140625,0
0.8395156860351562,0.13380423188209534,0.16393756866455078,0.2644194960594177,-0.2524667745771344,-0.6897909566350129,-0.20299603380553644,0.0,0.0,0.0,0.8,-0.8,0.0,0.0005180835723876953,0.002014636993408203,0.0025758743286132812,0
0.8492825031280518,0.1336648166179657,0.17299646139144897,0.23168818652629852,-0.25237505612964906,-0.6873091221644948,-0.2105266014780097,0.0,0.0,0.0,0.8,-0.8,0.0,0.0003452301025390625,0.0016238689422607422,0.0020346641540527344,0
0.8594529628753662,0.13368307054042816,0.17752131819725037,0.21555928885936737,-0.25231962579539696,-0.6849333625131253,-0.20429503253868309,0.0,0.0,0.0,0.8,-0.8,0.0,0.00038623809814453125,0.0015537738800048828,0.001991748809814453,0
0.8695549964904785,0.13374947011470795,0.18204346299171448,0.19958972930908203,-0.25227456869646087,-0.6826566921855418,-0.19884545749873112,0.0,0.0,0.0,0.8,-0.8,0.0,0.0004961490631103516,0.0022726058959960938,0.002827882766723633,0
0.8795828819274902,0.1338634192943573,0.18656231462955475,0.1837775856256485,-0.2522338498710292,-0.680474146069376,-0.19345391347788665,0.0,0.0,0.0,0.8,-0.8,0.0,0.0006368160247802734,0.0024602413177490234,0.0030477046966552734,0
0.8895974159240723,0.13402381539344788,0.19107671082019806,0.1681216061115265,-0.2521934565660454,-0.678379686377377,-0.1885467280950297,0.0,0.0,0.0,0.8,-0.8,0.0,0.0005879402160644531,0.0022449493408203125,0.0028378963470458984,0
0.8993625640869141,0.13447566330432892,0.20008806884288788,0.1372814178466797,-0.252097043411549,-0.67626307668606,-0.1949222995078992,0.0,0.0,0.0,0.8,-0.8,0.0,0.0004782676696777344,0.0022182464599609375,0.0027709007263183594,0
0.90970778465271,0.1347649246454239,0.20458118617534637,0.12207020819187164,-0.2520393664299187,-0.6742465907411713,-0.18900368128027734,0.0,0.0,0.0,0.8,-0.8,0.0,0.0007574558258056641,0.002889394760131836,0.0036706924438476562,0
0.9196417331695557,0.1350950449705124,0.2090657502412796,0.10701692849397659,-0.25197124717175207,-0.6723254554002788,-0.18325373022836164,0.0,0.0,0.0,0.8,-0.8,0.0,0.0006077289581298828,0.0023353099822998047,0.0029709339141845703,0
0.9294843673706055,0.1358891874551773,0.21800287067890167,0.07738415896892548,-0.2518874721902282,-0.6704010317482071,-0.18865511214725292,0.0,0.0,0.0,0.8,-0.8,0.0,0.0005803108215332031,0.0022373199462890625,0.0027587413787841797,0
0.9396121501922607,0.13635006546974182,0.2224522978067398,0.06280428916215897,-0.25184772927435245,-0.6685792494292055,-0.18213083604291358,0.0,0.0,0.0,0.8,-0.8,0.0,0.0010366439819335938,0.002577543258666992,0.0031213760375976562,0
0.9495368003845215,0.136846125125885,0.22688938677310944,0.04838373884558678,-0.2518036797410883,-0.6668553639030662,-0.17569136058449975,0.0,0.0,0.0,0.8,-0.8,0.0,0.0005297660827636719,0.0020318031311035156,0.002608060836791992,0
0.9595174789428711,0.13737694919109344,0.231312558054924,0.034121669828891754,-0.2517926969075944,-0.6652233911367871,-0.1698017525400952,0.0,0.0,0.0,0.8,-0.8,0.0,0.0004906654357910156,0.0019135475158691406,0.002404451370239258,0
0.9696509838104248,0.1379413604736328,0.23572231829166412,0.020019399002194405,-0.2517771098717825,-0.663682165947386,-0.16433353599039882,0.0,0.0,0.0,0.8,-0.8,0.0,0.0005006790161132812,0.0019495487213134766,0.0024857521057128906,0
0.9794321060180664,0.13916055858135223,0.24449662864208221,-0.007747361436486244,-0.2517195438207947,-0.6621627515330081,-0.16853964464557863,0.0,0.0,0.0,0.8,-0.8,0.0,0.0005090236663818359,0.0019681453704833984,0.002471446990966797,0
0.98944091796875,0.13981303572654724,0.24885916709899902,-0.021409444510936737,-0.25170195447079674,-0.660736694806736,-0.16179482142289306,0.0,0.0,0.0,0.8,-0.8,0.0,0.0005526542663574219,0.002055644989013672,0.002593517303466797,0
0.999553918838501,0.14049257338047028,0.2532033920288086,-0.03490995615720749,-0.25167869344780214,-0.6593972447657047,-0.155405658297819,0.0,0.0,0.0,0.8,-0.8,0.0,0.0004868507385253906,0.001875162124633789,0.002412080764770508,0
1.0094819068908691,0.1419650763273239,0.26182886958122253,-0.06142934039235115,-0.2516327618789631,-0.6580950260446249,-0.15733443584750487,0.0,0.0,0.0,0.8,-0.8,0.0,0.0005209445953369141,0.0019981861114501953,0.0024633407592773438,0
1.0196013450622559,0.1427396833896637,0.2661108076572418,-0.07444703578948975,-0.2516251545090201,-0.6568806686467824,-0.15011501231770857,0.0,0.0,0.0,0.8,-0.8,0.0,0.0005221366882324219,0.002034425735473633,0.0025854110717773438,0
1.0295488834381104,0.14353753626346588,0.2703714072704315,-0.08730340749025345,-0.2516061508329222,-0.6557510715639158,-0.14389260857412495,0.0,0.0,0.0,0.8,-0.8,0.0,0.00044417381286621094,0.001766204833984375,0.002320528030395508,0
1.0394697189331055,0.14435650408267975,0.2746102809906006,-0.0999976322054863,-0.25158544937898636,-0.6547021033476831,-0.13731506800945154,0.0,0.0,0.0,0.8,-0.8,0.0,0.00045037269592285156,0.0017828941345214844,0.0022656917572021484,0
1.0495402812957764,0.14606361091136932,0.28301742672920227,-0.12495219707489014,-0.251521841705665,-0.6537087166802982,-0.13799537902546366,0.0,0.0,0.0,0.8,-0.8,0.0,0.0004277229309082031,0.0017070770263671875,0.0022215843200683594,0
1.0592963695526123,0.146950826048851,0.2871852517127991,-0.13721050322055817,-0.2515092504268951,-0.6527956210123836,-0.13120403053836022,0.0,0.0,0.0,0.8,-0.8,0.0,0.0004177093505859375,0.0016262531280517578,0.002073049545288086,0
1.0695526599884033,0.14785847067832947,0.2913282513618469,-0.149305060505867,-0.2514960954316031,-0.6519581163910064,-0.1251285119489067,0.0,0.0,0.0,0.8,-0.8,0.0,0.0004279613494873047,0.0016422271728515625,0.0020830631256103516,0
1.0795607566833496,0.1488015502691269,0.29544365406036377,-0.16123570501804352,-0.2514638338737526,-0.651194582046634,-0.11973883124463187,0.0,0.0,0.0,0.8,-0.8,0.0,0.00040721893310546875,0.0016214847564697266,0.0021126270294189453,0
1.0893864631652832,0.15074101090431213,0.30359911918640137,-0.1846044808626175,-0.251467989479586,-0.6504978573270299,-0.11973086996900195,0.0,0.0,0.0,0.8,-0.8,0.0,0.00043272972106933594,0.0017352104187011719,0.0021505355834960938,0
1.0995540618896484,0.1517358273267746,0.3076375126838684,-0.1960441917181015,-0.25146591401935503,-0.6498695200596257,-0.11352673834837956,0.0,0.0,0.0,0.8,-0.8,0.0,0.0005071163177490234,0.0019507408142089844,0.0024557113647460938,0
1.1095311641693115,0.15274420380592346,0.31164878606796265,-0.207322895526886,-0.2514586556549578,-0.6493036357445705,-0.10737028324674254,0.0,0.0,0.0,0.8,-0.8,0.0,0.0005373954772949219,0.0020744800567626953,0.002612590789794922,0
1.1195015907287598,0.15376539528369904,0.31563183665275574,-0.21844209730625153,-0.2514361898359709,-0.6487979005432548,-0.10142766340922381,0.0,0.0,0.0,0.8,-0.8,0.0,0.0004987716674804688,0.0019478797912597656,0.002439260482788086,0
1.129493236541748,0.15584944188594818,0.3235122263431549,-0.24031338095664978,-0.2514526293692935,-0.6483611649634308,-0.10050739080689267,0.0,0.0,0.0,0.8,-0.8,0.0,0.0005183219909667969,0.001974344253540039,0.0025348663330078125,0
1.1393406391143799,0.15691420435905457,0.3274102210998535,-0.2510067820549011,-0.251458401057312,-0.6479846973653536,-0.09492286782589053,0.0,0.0,0.0,0.8,-0.8,0.0,0.00046539306640625,0.00197601318359375,0.0024788379669189453,0
1.1497435569763184,0.1580159068107605,0.3312785029411316,-0.26153692603111267,-0.25146378940762754,-0.6476659879322166,-0.09002903402885827,0.0,0.0,0.0,0.8,-0.8,0.0,0.0008251667022705078,0.0032896995544433594,0.0040435791015625,0
1.1595864295959473,0.1591280847787857,0.3351184129714966,-0.2719052731990814,-0.251499266157647,-0.6474010065055249,-0.08486523064181302,0.0,0.0,0.0,0.8,-0.8,0.0,0.0006284713745117188,0.002379894256591797,0.0030412673950195312,0
1.1694769859313965,0.161381334066391,0.3427022099494934,-0.29216110706329346,-0.2515650890715157,-0.6472131004977894,-0.08147213912088874,0.0,0.0,0.0,0.8,-0.8,0.0,0.0005578994750976562,0.0022242069244384766,0.002744913101196289,0
1.1796090602874756,0.16020631790161133,0.34841662645339966,-0.30644381046295166,-0.251585533053932,-0.6469979282354089,-0.08510145755106466,0.0,0.0,0.0,0.8,-0.8,0.0,0.0005674362182617188,0.0021283626556396484,0.0027604103088378906,0
1.1895806789398193,0.15908704698085785,0.35405871272087097,-0.3204571008682251,-0.2514580137202947,-0.64676107503639,-0.08872504741943199,0.0,0.0,0.0,0.8,-0.8,0.0,0.0005447864532470703,0.0020813941955566406,0.002668142318725586,0
1.1994917392730713,0.15802176296710968,0.3596315085887909,-0.3342340886592865,-0.2513555147373736,-0.6465113791116994,-0.09208739652168982,0.0,0.0,0.0,0.8,-0.8,0.0,0.0004315376281738281,0.0019059181213378906,0.0024161338806152344,0
1.2097368240356445,0.15700963139533997,0.3651346266269684,-0.34774619340896606,-0.25126637397696266,-0.6462566054677229,-0.09350271666801024,0.0,0.0,0.0,0.8,-0.8,0.0,0.0009152889251708984,0.0036454200744628906,0.0044558048248291016,0
1.2194573879241943,0.15516263246536255,0.37593144178390503,-0.37399348616600037,-0.251053557622522,-0.645975841225313,-0.10570586287463425,0.0,0.0,0.0,0.8,-0.8,0.0,0.0006535053253173828,0.002415180206298828,0.0030548572540283203,0
1.229609489440918,0.15432430803775787,0.3812272250652313,-0.3867356479167938,-0.25096173590736626,-0.6457045177819459,-0.10412924406567232,0.0,0.0,0.0,0.8,-0.8,0.0,0.0005745887756347656,0.0022187232971191406,0.002772092819213867,0
1.239445686340332,0.15353398025035858,0.3864533007144928,-0.3992297947406769,-0.2508798217450182,-0.6454424360752156,-0.10248060938965713,0.0,0.0,0.0,0.8,-0.8,0.0,0.00041961669921875,0.0016524791717529297,0.002142667770385742,0
1.249305248260498,0.1520891636610031,0.39670467376708984,-0.42348524928092957,-0.2507170133199584,-0.6451868315209643,-0.1094777726926006,0.0,0.0,0.0,0.8,-0.8,0.0,0.0004448890686035156,0.0017282962799072266,0.0021560192108154297,0
1.2594313621520996,0.1514284908771515,0.4017317593097687,-0.435252845287323,-0.2506197171993111,-0.6449519541209783,-0.1069747294299551,0.0,0.0,0.0,0.8,-0.8,0.0,0.00048279762268066406,0.0018727779388427734,0.002413034439086914,0
1.2695565223693848,0.15080583095550537,0.40669429302215576,-0.446804016828537,-0.25052298390960315,-0.6447386100094741,-0.10395425418628454,0.0,0.0,0.0,0.8,-0.8,0.0,0.0004515647888183594,0.0018048286437988281,0.0022993087768554688,0
1.2793819904327393,0.15022160112857819,0.4115927517414093,-0.4581220746040344,-0.2503987581904849,-0.6445496084315594,-0.10109960685549171,0.0,0.0,0.0,0.8,-0.8,0.0,0.0004699230194091797,0.0017926692962646484,0.0022764205932617188,0
1.2894246578216553,0.14967580139636993,0.4164271056652069,-0.46921002864837646,-0.2502591502596857,-0.6443850932790792,-0.09756587900475507,0.0,0.0,0.0,0.8,-0.8,0.0,0.0004551410675048828,0.0017580986022949219,0.002265453338623047,0
1.2995805740356445,0.14870022237300873,0.4259057939052582,-0.4907119572162628,-0.0295529096473661,-0.6442574562760381,-0.10040557386462447,0.0,0.0,0.0,0.8,-0.8,0.0,0.00046825408935546875,0.002153635025024414,0.002872943878173828,0
1.3096580505371094,0.14827634394168854,0.4305514395236969,-0.5011316537857056,-0.02944835840847754,-0.6441561198436211,-0.09610870408657313,0.0,0.0,0.0,0.8,-0.8,0.0,0.0006577968597412109,0.0025420188903808594,0.003238201141357422,0
1.3197531700134277,0.14789429306983948,0.43513432145118713,-0.5113356113433838,-0.029348352463149437,-0.6440824044905434,-0.09110593690730685,0.0,0.0,0.0,0.8,-0.8,0.0,0.0009088516235351562,0.0037682056427001953,0.004670619964599609,0
1.329540491104126,0.1472516804933548,0.44410720467567444,-0.531105637550354,-0.0291231241565205,-0.6440599620929981,-0.08928609307534754,0.0,0.0,0.0,0.8,-0.8,0.0,0.0006988048553466797,0.002665996551513672,0.003316164016723633,0
1.3395302295684814,0.14699023962020874,0.4484984874725342,-0.5407177805900574,-0.029016817390781265,-0.6440694492863861,-0.08401500533561114,0.0,0.0,0.0,0.8,-0.8,0.0,0.0006227493286132812,0.002409696578979492,0.003040790557861328,0
1.349782943725586,0.14676669239997864,0.45282894372940063,-0.5501207709312439,-0.02892601454377352,-0.6441077961642651,-0.07976579342659156,0.0,0.0,0.0,0.8,-0.8,0.0,0.0008494853973388672,0.0031824111938476562,0.0040128231048583984,0
1.3594892024993896,0.14658039808273315,0.4570980668067932,-0.5593180656433105,-0.028821861219040585,-0.6441762695523676,-0.07450626202017713,0.0,0.0,0.0,0.8,-0.8,0.0,0.0006136894226074219,0.0023522377014160156,0.0029549598693847656,0
1.3696584701538086,0.146280437707901,0.4654518961906433,-0.5770643949508667,-0.029227775051430253,-0.6443127998339853,-0.07187546236765559,0.0,0.0,0.0,0.8,-0.8,0.0,0.00054931640625,0.0021212100982666016,0.0026788711547851562,0
1.3793864250183105,0.14618785679340363,0.4695354700088501,-0.5856386423110962,-0.02975596060540779,-0.6444780730252061,-0.06638981278014908,0.0,0.0,0.0,0.8,-0.8,0.0,0.0005438327789306641,0.0020973682403564453,0.002638101577758789,0
1.389568567276001,0.1461329460144043,0.4735570251941681,-0.5940158367156982,-0.030325137916332682,-0.6446723872865231,-0.06083666369570394,0.0,0.0,0.0,0.8,-0.8,0.0,0.0005159378051757812,0.0020406246185302734,0.002582073211669922,0
1.3995046615600586,0.14611485600471497,0.47751638293266296,-0.6021980047225952,-0.030866014182309144,-0.6448949145854824,-0.0558050660104932,0.0,0.0,0.0,0.8,-0.8,0.0,0.0005176067352294922,0.0020055770874023438,0.0025739669799804688,0
1.4094195365905762,0.14618568122386932,0.48525023460388184,-0.6180461049079895,-0.03196091687135152,-0.645192309896242,-0.05076041114662293,0.0,0.0,0.0,0.8,-0.8,0.0,0.0005002021789550781,0.001974821090698242,0.002461671829223633,0
1.419579267501831,0.14627419412136078,0.4890235364437103,-0.6257149577140808,-0.03251077168360114,-0.6455129495922874,-0.045243580936540996,0.0,0.0,0.0,0.8,-0.8,0.0,0.0005128383636474609,0.0019922256469726562,0.0025293827056884766,0
1.4295740127563477,0.14639657735824585,0.49273449182510376,-0.6331968307495117,-0.03306434804934475,-0.6458563251579379,-0.03990471602718788,0.0,0.0,0.0,0.8,-0.8,0.0,0.0005083084106445312,0.001990795135498047,0.0025446414947509766,0
1.4394688606262207,0.14655017852783203,0.4963853061199188,-0.6404887437820435,-0.03360241905546845,-0.6462241815675318,-0.035667193416619024,0.0,0.0,0.0,0.8,-0.8,0.0,0.0004940032958984375,0.0019757747650146484,0.002481222152709961,0
1.4495539665222168,0.14696307480335236,0.5035040378570557,-0.6545270681381226,-0.03447261162718558,-0.6466723110383618,-0.0292899051242234,0.0,0.0,0.0,0.8,-0.8,0.0,0.00045108795166015625,0.0017747879028320312,0.0022728443145751953,0
1.4594817161560059,0.14722080528736115,0.5069718360900879,-0.6612801551818848,-0.03490104184998294,-0.6471361036834355,-0.02472477829552456,0.0,0.0,0.0,0.8,-0.8,0.0,0.00047779083251953125,0.0018944740295410156,0.002443552017211914,0
1.4694621562957764,0.14751093089580536,0.5103785395622253,-0.6678580045700073,-0.03535017291085737,-0.6476169605377372,-0.019827944374241683,0.0,0.0,0.0,0.8,-0.8,0.0,0.00048089027404785156,0.001878499984741211,0.0023212432861328125,0
1.4796082973480225,0.14783261716365814,0.5137245655059814,-0.6742618680000305,-0.03578387121077154,-0.6481168495784628,-0.01591694294626327,0.0,0.0,0.0,0.8,-0.8,0.0,0.0005137920379638672,0.002020597457885742,0.0025870800018310547,0
1.489379644393921,0.14857007563114166,0.5202380418777466,-0.6866523623466492,-0.03667369185476894,-0.6487023119050377,-0.008613330068616172,0.0,0.0,0.0,0.8,-0.8,0.0,0.0005292892456054688,0.002059459686279297,0.002488374710083008,0
1.4993269443511963,0.14898239076137543,0.5234037637710571,-0.6925936937332153,-0.03711891325262252,-0.6492986607214728,-0.004308941281516662,0.0,0.0,0.0,0.8,-0.8,0.0,0.00047135353088378906,0.0018491744995117188,0.0023431777954101562,0
1.5096096992492676,0.14942146837711334,0.5265093445777893,-0.6983663439750671,-0.03756677163407196,-0.6499067429301961,-0.00018319437610587346,0.0,0.0,0.0,0.8,-0.8,0.0,0.0005097389221191406,0.001986265182495117,0.0025696754455566406,0
1.51945161819458,0.14988838136196136,0.5295554399490356,-0.7039733529090881,-0.03802616004657226,-0.650527604324819,0.0031909222685468966,0.0,0.0,0.0,0.8,-0.8,0.0,0.0004935264587402344,0.0019526481628417969,0.002407073974609375,0
1.5296084880828857,0.1508987545967102,0.5354740023612976,-0.7146996259689331,-0.03893058322563277,-0.6512354801945152,0.010063257592477505,0.0,0.0,0.0,0.8,-0.8,0.0,0.0005369186401367188,0.0020644664764404297,0.002615213394165039,0
1.5393929481506348,0.15144391357898712,0.5383467674255371,-0.7198237180709839,-0.03938626629611347,-0.6519485497161757,0.013464462265563436,0.0,0.0,0.0,0.8,-0.8,0.0,0.0003399848937988281,0.0014045238494873047,0.00189971923828125,0
1.549394130706787,0.1520143747329712,0.541161060333252,-0.7247913479804993,-0.03981102053128193,-0.65266746117654,0.016482433725932548,0.0,0.0,0.0,0.8,-0.8,0.0,0.0003440380096435547,0.0014374256134033203,0.0018346309661865234,0
1.5596122741699219,0.1526077389717102,0.5439186692237854,-0.7296556830406189,-0.04023552536107236,-0.6533921948412182,0.019058623898484298,0.0,0.0,0.0,0.8,-0.8,0.0,0.0004258155822753906,0.0017504692077636719,0.0023126602172851562,0
1.5693378448486328,0.15386512875556946,0.5492635369300842,-0.7389253973960876,-0.0410085169365407,-0.6542025588649011,0.027083773259602578,0.0,0.0,0.0,0.8,-0.8,0.0,0.0005049705505371094,0.0018951892852783203,0.0023169517517089844,0
1.5795679092407227,0.1531359851360321,0.553978681564331,-0.7480833530426025,-0.04137134518913118,-0.6549367672800236,0.018900988588784525,0.0,0.0,0.0,0.8,-0.8,0.0,0.0004994869232177734,0.0019648075103759766,0.002486705780029297,0
1.5896391868591309,0.15245580673217773,0.5585941076278687,-0.7569723129272461,-0.041918463321906026,-0.6556036458369233,0.012106506854168185,0.0,0.0,0.0,0.8,-0.8,0.0,0.0005409717559814453,0.002091646194458008,0.002680540084838867,0
1.5993964672088623,0.15182286500930786,0.5631111264228821,-0.765597939491272,-0.04246518041620205,-0.6562135871073593,0.006328840915378466,0.0,0.0,0.0,0.8,-0.8,0.0,0.0004963874816894531,0.001972198486328125,0.0024034976959228516,0
1.6096389293670654,0.15069280564785004,0.5718582272529602,-0.7820808291435242,-0.04349223779400864,-0.6567894268638617,-0.002215506214938436,0.0,0.0,0.0,0.8,-0.8,0.0,0.0005505084991455078,0.0021491050720214844,0.0027320384979248047,0
1.6194391250610352,0.1501951515674591,0.5760905146598816,-0.7899481654167175,-0.04398878247462524,-0.6573251761032828,-0.005087229980942294,0.0,0.0,0.0,0.8,-0.8,0.0,0.0005340576171875,0.002084016799926758,0.0025985240936279297,0
1.6295597553253174,0.14974141120910645,0.5802306532859802,-0.7976086139678955,-0.04446329256949436,-0.6578280412854146,-0.007764549387868494,0.0,0.0,0.0,0.8,-0.8,0.0,0.0005438327789306641,0.002110004425048828,0.002650022506713867,0
1.6396102905273438,0.14932988584041595,0.5842816233634949,-0.805029571056366,-0.04494638541153458,-0.6583028200734635,-0.009845051208262496,0.0,0.0,0.0,0.8,-0.8,0.0,0.0005316734313964844,0.002094745635986328,0.002661466598510742,0
1.6493778228759766,0.1486237496137619,0.5921168923377991,-0.8191758990287781,-0.04588954703938024,-0.6587778755317386,-0.012620539238451056,0.0,0.0,0.0,0.8,-0.8,0.0,0.000476837158203125,0.0018246173858642578,0.002203226089477539,0
1.6595914363861084,0.1483258754014969,0.5959041118621826,-0.8259109854698181,-0.04632909406959521,-0.6592319279935416,-0.012595808957593217,0.0,0.0,0.0,0.8,-0.8,0.0,0.0005261898040771484,0.0019948482513427734,0.0025336742401123047,0
1.6695704460144043,0.14806397259235382,0.5996060967445374,-0.8324270844459534,-0.04674715375330392,-0.659669413477439,-0.0128108526428042,0.0,0.0,0.0,0.8,-0.8,0.0,0.0003733634948730469,0.0015745162963867188,0.0020623207092285156,0
1.6794555187225342,0.14783740043640137,0.6032257676124573,-0.8387289047241211,-0.04714037443309766,-0.6600925893392615,-0.01270722988672887,0.0,0.0,0.0,0.8,-0.8,0.0,0.00034046173095703125,0.0014421939849853516,0.0018570423126220703,0
1.689537525177002,0.14748327434062958,0.6102219223976135,-0.8507053256034851,-0.04790240995483526,-0.6605421747413859,-0.012809555052930537,0.0,0.0,0.0,0.8,-0.8,0.0,0.0004143714904785156,0.0016274452209472656,0.002105236053466797,0
1.6993513107299805,0.14735302329063416,0.6136007905006409,-0.8564385771751404,-0.048244275055289505,-0.660981016008677,-0.01179824185291015,0.0,0.0,0.0,0.8,-0.8,0.0,0.00045180320739746094,0.0018303394317626953,0.0022759437561035156,0
1.7095284461975098,0.1472533494234085,0.6169020533561707,-0.8619722127914429,-0.04857291725862655,-0.661414880315609,-0.010717357926698446,0.0,0.0,0.0,0.8,-0.8,0.0,0.0004878044128417969,0.0019118785858154297,0.002408266067504883,0
1.7195887565612793,0.1471836119890213,0.6201270222663879,-0.8673096895217896,-0.048915479985018974,-0.6618439687726646,-0.00933608857556509,0.0,0.0,0.0,0.8,-0.8,0.0,0.0004909038543701172,0.0020139217376708984,0.0025482177734375,0
1.7294046878814697,0.14712855219841003,0.6263500452041626,-0.8774106502532959,-0.04956579785194059,-0.662314972511084,-0.006337384680213636,0.0,0.0,0.0,0.8,-0.8,0.0,0.0005321502685546875,0.002027273178100586,0.002454996109008789,0
1.739574670791626,0.14714160561561584,0.6293490529060364,-0.8821821808815002,-0.04986892072893586,-0.6627825420864635,-0.004023629042865658,0.0,0.0,0.0,0.8,-0.8,0.0,0.0005526542663574219,0.002126455307006836,0.002698183059692383,0
1.7495958805084229,0.14718003571033478,0.6322745084762573,-0.8867711424827576,-0.05018099684984123,-0.6632513249268204,-0.0023366053118998227,0.0,0.0,0.0,0.8,-0.8,0.0,0.00046896934509277344,0.0018658638000488281,0.0024261474609375,0
1.75942063331604,0.1472441852092743,0.6351281404495239,-0.8911803960800171,-0.050457731190981715,-0.663722117251227,-0.0002035648117856721,0.0,0.0,0.0,0.8,-0.8,0.0,0.00047588348388671875,0.0018808841705322266,0.002320528030395508,0
1.769669532775879,0.1474502980709076,0.6406190395355225,-0.8995095491409302,-0.05095306582663782,-0.6642484939218141,0.004587890210546363,0.0,0.0,0.0,0.8,-0.8,0.0,0.0005528926849365234,0.002535581588745117,0.0031270980834960938,0
1.7795770168304443,0.14759191870689392,0.6432581543922424,-0.903436541557312,-0.051184956415679495,-0.6647728523495295,0.006785782818224704,0.0,0.0,0.0,0.8,-0.8,0.0,0.0004897117614746094,0.0019176006317138672,0.002477884292602539,0
1.7894186973571777,0.14775699377059937,0.645828366279602,-0.9071968197822571,-0.051421024208341944,-0.66529644159726,0.008459350104148338,0.0,0.0,0.0,0.8,-0.8,0.0,0.00037670135498046875,0.0014781951904296875,0.0018801689147949219,0
1.7994122505187988,0.14794443547725677,0.6483309268951416,-0.910793125629425,-0.051621153321857925,-0.6658222205556676,0.010163943855059261,0.0,0.0,0.0,0.8,-0.8,0.0,0.0003414154052734375,0.0014111995697021484,0.0018606185913085938,0
1.8092689514160156,0.14838223159313202,0.6531366109848022,-0.9175015091896057,-0.05198201079685739,-0.6664099724439678,0.015213995054190101,0.0,0.0,0.0,0.8,-0.8,0.0,0.00036263465881347656,0.0017178058624267578,0.0022165775299072266,0
1.8196895122528076,0.1486346572637558,0.6554399132728577,-0.9206187725067139,-0.052155391022222435,-0.6669978519684376,0.017368725654127788,0.0,0.0,0.0,0.8,-0.8,0.0,0.0007152557373046875,0.003273487091064453,0.004044532775878906,0
1.829681634902954,0.14890654385089874,0.6576769948005676,-0.9235817193984985,-0.05233597573872704,-0.667586510632318,0.019573122393258115,0.0,0.0,0.0,0.8,-0.8,0.0,0.0005967617034912109,0.0022923946380615234,0.0029802322387695312,0
1.8394548892974854,0.14919736981391907,0.6598492860794067,-0.9263931512832642,-0.05248994501377203,-0.6681773177850385,0.021396881845759295,0.0,0.0,0.0,0.8,-0.8,0.0,0.0004887580871582031,0.0019404888153076172,0.002383708953857422,0
1.849588394165039,0.14983703196048737,0.6640028953552246,-0.931626558303833,-0.05277389831983065,-0.6688338694963349,0.027703919874443508,0.0,0.0,0.0,0.8,-0.8,0.0,0.0005323886871337891,0.002031564712524414,0.002574443817138672,0
1.859342336654663,0.150185689330101,0.6659843921661377,-0.9340246915817261,-0.052886467197711076,-0.6694897394341783,0.0297998015273005,0.0,0.0,0.0,0.8,-0.8,0.0,0.0005078315734863281,0.0020110607147216797,0.002552509307861328,0
1.8695189952850342,0.15055324137210846,0.6679027080535889,-0.9362801909446716,-0.053012163251509765,-0.6701443335956767,0.03194218605111245,0.0,0.0,0.0,0.8,-0.8,0.0,0.0004622936248779297,0.0018672943115234375,0.002360105514526367,0
1.879472017288208,0.1509379744529724,0.6697576642036438,-0.938396155834198,-0.05308025561585451,-0.6707998700780015,0.03417067688843317,0.0,0.0,0.0,0.8,-0.8,0.0,0.00046944618225097656,0.0018432140350341797,0.002382040023803711,0
1.889430284500122,0.1517558991909027,0.6732836365699768,-0.9422207474708557,-0.05319800934511529,-0.6715211212985783,0.04086444463876816,0.0,0.0,0.0,0.8,-0.8,0.0,0.0004665851593017578,0.0018718242645263672,0.002326488494873047,0
1.8996000289916992,0.15218912065029144,0.674958348274231,-0.9439345002174377,-0.05323888868370834,-0.6722386022762532,0.041883770301060746,0.0,0.0,0.0,0.8,-0.8,0.0,0.0005083084106445312,0.0020241737365722656,0.002556324005126953,0
1.9095568656921387,0.15263953804969788,0.6765742897987366,-0.9455175995826721,-0.05325073983535636,-0.672954500560328,0.043171835075796874,0.0,0.0,0.0,0.8,-0.8,0.0,0.0004928112030029297,0.0018930435180664062,0.002451658248901367,0
1.919508457183838,0.15310700237751007,0.6781315803527832,-0.9470130801200867,-0.05327877540105482,-0.673664679104849,0.044659157585042464,0.0,0.0,0.0,0.8,-0.8,0.0,0.0004928112030029297,0.0019600391387939453,0.0024633407592773438,0
1.9295926094055176,0.15409216284751892,0.6810729503631592,-0.9496329426765442,-0.05333890796643222,-0.6744407853412205,0.05185011886775142,0.0,0.0,0.0,0.8,-0.8,0.0,0.0005033016204833984,0.00199127197265625,0.0025501251220703125,0
1.939298152923584,0.15460994839668274,0.6824598908424377,-0.9507609009742737,-0.053333501130611055,-0.6752091350772916,0.05226504810449158,0.0,0.0,0.0,0.8,-0.8,0.0,0.00044989585876464844,0.0016765594482421875,0.002160787582397461,0
1.949430227279663,0.1551419347524643,0.6837911009788513,-0.9517703652381897,-0.05332430430345158,-0.6759694001464499,0.05341182071297074,0.0,0.0,0.0,0.8,-0.8,0.0,0.0004177093505859375,0.0016493797302246094,0.0020749568939208984,0
1.959613561630249,0.1556890606880188,0.6850672960281372,-0.952664315700531,-0.05331388350402416,-0.6767234510371156,0.053986813925461445,0.0,0.0,0.0,0.8,-0.8,0.0,0.0003314018249511719,0.0013663768768310547,0.0019180774688720703,0
1.9692835807800293,0.1568274050951004,0.687459409236908,-0.9541112184524536,-0.053280095860164405,-0.6775454122729724,0.060683801208482574,0.0,0.0,0.0,0.8,-0.8,0.0,0.0003676414489746094,0.001504659652709961,0.0018162727355957031,0
1.9795284271240234,0.15651558339595795,0.690505862236023,-0.9593986868858337,-0.053256240253514796,-0.6782831434014697,0.05235993310357768,0.0,0.0,0.0,0.8,-0.8,0.0,0.0004839897155761719,0.0018157958984375,0.0023031234741210938,0
1.989572286605835,0.15623514354228973,0.6934581995010376,-0.9644593000411987,-0.05352480849923563,-0.6789456609236831,0.045823354145713674,0.0,0.0,0.0,0.8,-0.8,0.0,0.00047016143798828125,0.0018830299377441406,0.0024118423461914062,0
1.9993784427642822,0.15598534047603607,0.6963181495666504,-0.9693000316619873,-0.05378194143474859,-0.6795401521185881,0.039979932626586945,0.0,0.0,0.0,0.8,-0.8,0.0,0.0005357265472412109,0.002256155014038086,0.002772092819213867,0
2.009693145751953,0.1557653844356537,0.6990888118743896,-0.9739274382591248,-0.05405139423212822,-0.680074242263981,0.034362347443110425,0.0,0.0,0.0,0.8,-0.8,0.0,0.0008358955383300781,0.003378152847290039,0.0041697025299072266,0
2.019512176513672,0.15557372570037842,0.7017735838890076,-0.9783465266227722,-0.0543184712688073,-0.6805576395843872,0.029418213031706504,0.0,0.0,0.0,0.8,-0.8,0.0,0.000759124755859375,0.0026907920837402344,0.003325223922729492,0
2.0295796394348145,0.15527111291885376,0.7068880796432495,-0.9865801930427551,-0.05484872097972903,-0.6810022804063633,0.02603465733188851,0.0,0.0,0.0,0.8,-0.8,0.0,0.0005452632904052734,0.0021698474884033203,0.002716064453125,0
2.039642572402954,0.15515875816345215,0.7093186974525452,-0.9904040694236755,-0.05513987191080925,-0.6814119220089816,0.023729317691683252,0.0,0.0,0.0,0.8,-0.8,0.0,0.000804901123046875,0.002449512481689453,0.0030908584594726562,0
2.0493829250335693,0.15501320362091064,0.7139379978179932,-0.9974875450134277,-0.055675916919506116,-0.6818046381851389,0.021863324612253057,0.0,0.0,0.0,0.8,-0.8,0.0,0.00040912628173828125,0.0016202926635742188,0.001996278762817383,0
2.059565544128418,0.15497736632823944,0.7161303758621216,-1.0007907152175903,-0.05593729481677583,-0.6821714400820579,0.019906185442814486,0.0,0.0,0.0,0.8,-0.8,0.0,0.00048661231994628906,0.0018677711486816406,0.002396106719970703,0
2.06960391998291,0.15496405959129333,0.7182472944259644,-1.0039180517196655,-0.05618802279508347,-0.6825138495840164,0.018699445301192427,0.0,0.0,0.0,0.8,-0.8,0.0,0.0004639625549316406,0.0018579959869384766,0.0023696422576904297,0
2.079509973526001,0.1549716591835022,0.7202897071838379,-1.006874680519104,-0.05642300337658912,-0.6828361628652708,0.01771153595799824,0.0,0.0,0.0,0.8,-0.8,0.0,0.0005023479461669922,0.00196075439453125,0.0024881362915039062,0
2.0896167755126953,0.15500052273273468,0.722259521484375,-1.009664535522461,-0.05664363991688245,-0.6831423544878605,0.016770154949838224,0.0,0.0,0.0,0.8,-0.8,0.0,0.0005359649658203125,0.002036571502685547,0.00260162353515625,0
2.0995092391967773,0.15512189269065857,0.7259870171546936,-1.0147536993026733,-0.05711736492486734,-0.6834610126177086,0.018003155285752317,0.0,0.0,0.0,0.8,-0.8,0.0,0.0005316734313964844,0.002088785171508789,0.002673625946044922,0
2.1094601154327393,0.15521343052387238,0.7277466654777527,-1.0170619487762451,-0.05735592506922111,-0.6837683098630537,0.017739787780348855,0.0,0.0,0.0,0.8,-0.8,0.0,0.0005412101745605469,0.002051830291748047,0.002552509307861328,0
2.1196653842926025,0.15532541275024414,0.7294389009475708,-1.0192173719406128,-0.0576032682340167,-0.6840706282787926,0.018015682923371273,0.0,0.0,0.0,0.8,-0.8,0.0,0.0006244182586669922,0.002186298370361328,0.0027997493743896484,0
2.1294002532958984,0.1554558128118515,0.7310641407966614,-1.02122163772583,-0.05785349284034391,-0.684370339221492,0.018380051493448877,0.0,0.0,0.0,0.8,-0.8,0.0,0.0005116462707519531,0.0019986629486083984,0.0024576187133789062,0
2.1396143436431885,0.15577132999897003,0.734123945236206,-1.0248637199401855,-0.05833611983057379,-0.6846941557747651,0.020414742967810297,0.0,0.0,0.0,0.8,-0.8,0.0,0.0004947185516357422,0.002046346664428711,0.002605915069580078,0
2.1494901180267334,0.15595665574073792,0.7355594038963318,-1.0264719724655151,-0.05855446015740438,-0.6850155592585162,0.021008784359223927,0.0,0.0,0.0,0.8,-0.8,0.0,0.0003399848937988281,0.0014986991882324219,0.0020246505737304688,0
2.159335136413574,0.15616048872470856,0.736932635307312,-1.0279415845870972,-0.058755080857188745,-0.6853363776593941,0.021713729520365224,0.0,0.0,0.0,0.8,-0.8,0.0,0.0003178119659423828,0.0013837814331054688,0.00179290771484375,0
2.169532299041748,0.15662215650081635,0.739494800567627,-1.030478596687317,-0.059159296611903486,-0.6856898469295648,0.02605490088564385,0.0,0.0,0.0,0.8,-0.8,0.0,0.0003261566162109375,0.001447439193725586,0.0018460750579833984,0
2.179269552230835,0.156878262758255,0.7406850457191467,-1.0315526723861694,-0.05932139804911868,-0.6860406973342205,0.02697854494854646,0.0,0.0,0.0,0.8,-0.8,0.0,0.000453948974609375,0.00194549560546875,0.0024280548095703125,0
2.1894443035125732,0.1571512520313263,0.7418166399002075,-1.0325015783309937,-0.05950660789224203,-0.6863906254169864,0.02740288319857053,0.0,0.0,0.0,0.8,-0.8,0.0,0.0005097389221191406,0.0020821094512939453,0.0025844573974609375,0
2.1995584964752197,0.1574406772851944,0.742891788482666,-1.0333278179168701,-0.05968802372477436,-0.6867405938779816,0.02776720303018267,0.0,0.0,0.0,0.8,-0.8,0.0,0.0005269050598144531,0.0023725032806396484,0.0030035972595214844,0
2.209543466567993,0.15806718170642853,0.7448757886886597,-1.03471040725708,-0.06006933319954001,-0.6871298276716818,0.03202844585449564,0.0,0.0,0.0,0.8,-0.8,0.0,0.0007123947143554688,0.0028257369995117188,0.0034782886505126953,0
2.2196242809295654,0.15840595960617065,0.7457857131958008,-1.0352249145507812,-0.06024415058627222,-0.6875192863510834,0.03242025143105341,0.0,0.0,0.0,0.8,-0.8,0.0,0.0005772113800048828,0.0022716522216796875,0.0028743743896484375,0
2.229609489440918,0.15876039862632751,0.746641993522644,-1.0356252193450928,-0.06039884340953009,-0.6879088076080777,0.03328966726942347,0.0,0.0,0.0,0.8,-0.8,0.0,0.0005590915679931641,0.0021469593048095703,0.002731800079345703,0
2.239417552947998,0.15913112461566925,0.7474452257156372,-1.035913109779358,-0.06053944934410119,-0.688302319995501,0.03358734999836565,0.0,0.0,0.0,0.8,-0.8,0.0,0.0005109310150146484,0.0020635128021240234,0.002535581588745117,0
2.2495486736297607,0.1599174588918686,0.7489014267921448,-1.0361570119857788,-0.06074629400215533,-0.6887440938384848,0.03781846559734366,0.0,0.0,0.0,0.8,-0.8,0.0,0.00042057037353515625,0.0016715526580810547,0.002163410186767578,0
2.259538412094116,0.1603318154811859,0.7495551109313965,-1.036118984222412,-0.06086566887126659,-0.6891857505226129,0.037742792796833284,0.0,0.0,0.0,0.8,-0.8,0.0,0.0004794597625732422,0.0018854141235351562,0.0024335384368896484,0
2.2694344520568848,0.16075967252254486,0.7501605749130249,-1.0359770059585571,-0.06097462549347548,-0.6896286233837677,0.037860380069330506,0.0,0.0,0.0,0.8,-0.8,0.0,0.00044655799865722656,0.0018167495727539062,0.002241373062133789,0
2.279658794403076,0.16119937598705292,0.750718891620636,-1.0357829332351685,-0.06106562751204263,-0.6900730373660183,0.03805976870234196,0.0,0.0,0.0,0.8,-0.8,0.0,0.000530242919921875,0.0020248889923095703,0.0026192665100097656,0
2.289372205734253,0.16165190935134888,0.7512305378913879,-1.0354883670806885,-0.06117045852810066,-0.6905176211888058,0.03827683907854121,0.0,0.0,0.0,0.8,-0.8,0.0,0.0004923343658447266,0.0019457340240478516,0.0024018287658691406,0
2.2995901107788086,0.16259481012821198,0.7521147727966309,-1.0346108675003052,-0.06135113793093919,-0.6910085241010944,0.044189213603315854,0.0,0.0,0.0,0.8,-0.8,0.0,0.0005481243133544922,0.0020089149475097656,0.0025856494903564453,0
2.309501886367798,0.1630844622850418,0.7524865865707397,-1.0340321063995361,-0.061432414632158545,-0.6914955902229387,0.04485723738172098,0.0,0.0,0.0,0.8,-0.8,0.0,0.0004858970642089844,0.0018994808197021484,0.002475738525390625,0
2.319448709487915,0.1635858416557312,0.7528139352798462,-1.0333632230758667,-0.06150425134243938,-0.6919804849748757,0.04470522378757136,0.0,0.0,0.0,0.8,-0.8,0.0,0.0005927085876464844,0.002162933349609375,0.002660989761352539,0
2.3295700550079346,0.1646249145269394,0.7533436417579651,-1.0317631959915161,-0.06163739991430182,-0.6925118557805161,0.048758144570759734,0.0,0.0,0.0,0.8,-0.8,0.0,0.0004916191101074219,0.001964569091796875,0.0025119781494140625,0
2.339418888092041,0.1651638150215149,0.7535468339920044,-1.0308345556259155,-0.06169657190234839,-0.6930405235785446,0.04855046034203693,0.0,0.0,0.0,0.8,-0.8,0.0,0.0005273818969726562,0.002028942108154297,0.002530813217163086,0
2.3494744300842285,0.16571369767189026,0.7537083625793457,-1.0298906564712524,-0.06176126198700277,-0.693563746200727,0.04881024773660109,0.0,0.0,0.0,0.8,-0.8,0.0,0.0005762577056884766,0.0026221275329589844,0.003237485885620117,0
2.359848976135254,0.1662728488445282,0.7538286447525024,-1.0288655757904053,-0.061807448793254186,-0.6940808157432161,0.04897014833280438,0.0,0.0,0.0,0.8,-0.8,0.0,0.0008175373077392578,0.0029151439666748047,0.003807544708251953,0
2.3694326877593994,0.16742126643657684,0.7539487481117249,-1.0265791416168213,-0.06190048879680162,-0.6946414970352446,0.05441360069562527,0.0,0.0,0.0,0.8,-0.8,0.0,0.0005660057067871094,0.002209901809692383,0.0027017593383789062,0
2.379686117172241,0.1674828678369522,0.7557206153869629,-1.0299679040908813,-0.06193610987883245,-0.6951246369627108,0.047178281003378,0.0,0.0,0.0,0.8,-0.8,0.0,0.0006055831909179688,0.002260446548461914,0.0028603076934814453,0
2.38940691947937,0.1675647348165512,0.7574151754379272,-1.0331634283065796,-0.06214639672285616,-0.6955413100294825,0.04096747153112025,0.0,0.0,0.0,0.8,-0.8,0.0,0.0004849433898925781,0.0019261837005615234,0.002471446990966797,0
2.399580240249634,0.16766688227653503,0.7590355277061462,-1.0361710786819458,-0.062357962079825045,-0.6958983778631587,0.03488952276008874,0.0,0.0,0.0,0.8,-0.8,0.0,0.0005173683166503906,0.0019979476928710938,0.002532958984375,0
2.409454345703125,0.1679305136203766,0.7620633840560913,-1.041642427444458,-0.0628043696200927,-0.6961939096009291,0.028622064455490818,0.0,0.0,0.0,0.8,-0.8,0.0,0.00045180320739746094,0.0017745494842529297,0.0023164749145507812,0
2.4192824363708496,0.16809038817882538,0.7634738683700562,-1.0441551208496094,-0.06303016013599258,-0.6964465209692123,0.024025326308577555,0.0,0.0,0.0,0.8,-0.8,0.0,0.00044918060302734375,0.001748800277709961,0.0021779537200927734,0
2.4294803142547607,0.16826944053173065,0.7648190259933472,-1.046499252319336,-0.06321542509815897,-0.6966639692555188,0.020380850175046053,0.0,0.0,0.0,0.8,-0.8,0.0,0.00045418739318847656,0.001772165298461914,0.0022618770599365234,0
2.439479351043701,0.16846619546413422,0.7660985589027405,-1.048679232597351,-0.06340322283595491,-0.6968495767795636,0.017722559454626738,0.0,0.0,0.0,0.8,-0.8,0.0,0.0004978179931640625,0.001865386962890625,0.002410888671875,0
2.44937801361084,0.1689111292362213,0.7684667706489563,-1.0525660514831543,-0.06380424539134505,-0.6970053033607482,0.015439541501246663,0.0,0.0,0.0,0.8,-0.8,0.0,0.0004839897155761719,0.0019116401672363281,0.002361774444580078,0
2.459609270095825,0.1691582202911377,0.769557774066925,-1.0542782545089722,-0.06399844287192735,-0.6971454973583413,0.013475675503171095,0.0,0.0,0.0,0.8,-0.8,0.0,0.0005254745483398438,0.0020318031311035156,0.0026204586029052734,0
2.4696357250213623,0.16942007839679718,0.7705891728401184,-1.0558404922485352,-0.06416387343669708,-0.6972724568263456,0.012239004009177322,0.0,0.0,0.0,0.8,-0.8,0.0,0.00048732757568359375,0.0019195079803466797,0.002448558807373047,0
2.4795284271240234,0.16969779133796692,0.7715621590614319,-1.0572590827941895,-0.0643528074964049,-0.6973846457895325,0.011088586282455246,0.0,0.0,0.0,0.8,-0.8,0.0,0.0004787445068359375,0.001856088638305664,0.0023653507232666016,0
2.4895401000976562,0.1703048050403595,0.7733386158943176,-1.0597591400146484,-0.06474378615510769,-0.6974879065390952,0.010595116534434526,0.0,0.0,0.0,0.8,-0.8,0.0,0.0004611015319824219,0.0018701553344726562,0.002390623092651367,0
2.4994871616363525,0.17063283920288086,0.7741460204124451,-1.060807704925537,-0.06492812258019559,-0.6975850193257227,0.009616311360766364,0.0,0.0,0.0,0.8,-0.8,0.0,0.0005369186401367188,0.0020194053649902344,0.002553701400756836,0
2.5093228816986084,0.17097733914852142,0.7749017477035522,-1.0617259740829468,-0.06510487700041417,-0.697679643030686,0.00896978214513996,0.0,0.0,0.0,0.8,-0.8,0.0,0.0004458427429199219,0.0017242431640625,0.0022122859954833984,0
2.519570827484131,0.17133723199367523,0.7756057977676392,-1.0625169277191162,-0.06526763969782386,-0.697772650773044,0.009221567571830356,0.0,0.0,0.0,0.8,-0.8,0.0,0.0005028247833251953,0.0018880367279052734,0.0024056434631347656,0
2.5292856693267822,0.17171238362789154,0.7762584686279297,-1.0631842613220215,-0.06541838278521618,-0.6978664381464573,0.009245963086741239,0.0,0.0,0.0,0.8,-0.8,0.0,0.0004363059997558594,0.0019788742065429688,0.0024628639221191406,0
2.5397918224334717,0.17250238358974457,0.7774182558059692,-1.064193606376648,-0.06572264573541887,-0.6979733675986933,0.010266709639087726,0.0,0.0,0.0,0.8,-0.8,0.0,0.0008189678192138672,0.0034074783325195312,0.00429081916809082,0
2.549717664718628,0.17291612923145294,0.7779268622398376,-1.064539909362793,-0.06587814515418909,-0.698082618433754,0.010473231246922295,0.0,0.0,0.0,0.8,-0.8,0.0,0.0006988048553466797,0.002622842788696289,0.0033364295959472656,0
2.5595650672912598,0.17334294319152832,0.778389573097229,-1.0647733211517334,-0.06603317920795931,-0.698195540385459,0.010435231759898276,0.0,0.0,0.0,0.8,-0.8,0.0,0.0006041526794433594,0.0022971630096435547,0.002888917922973633,0
