time,x,y,z,yaw,throttle,roll_rate,pitch_rate,yaw_rate,x_ref,y_ref,z_ref,yaw_ref,pred_time,nr_time,ctrl_callback_time,metadata
9.5367431640625e-07,-0.021932046860456467,-0.014732500538229942,0.6846261024475098,-0.02227383164513435,-0.7150417317643861,2.3230903836651207,0.0,0.0,0.0,0.8,-0.8,0.0,0.0007069110870361328,0.0025708675384521484,0.0031175613403320312,Sim
0.009999513626098633,-0.021932046860456467,-0.014732500538229942,0.6846261024475098,-0.02227383164513435,-0.7341264770815341,1.9059047941613685,0.0,0.0,0.0,0.8,-0.8,0.0,0.00034356117248535156,0.0015132427215576172,0.0019259452819824219,Flatness
0.020067691802978516,-0.022172536700963974,-0.014788905158638954,0.6874606609344482,-0.022261632126147308,-0.7511045987783929,1.5823226955138836,0.0,0.0,0.0,0.8,-0.8,0.0,0.0003387928009033203,0.0014815330505371094,0.0018618106842041016,1x Speed
0.030089378356933594,-0.022172536700963974,-0.014788905158638954,0.6874606609344482,-0.022261632126147308,-0.7661906382560092,1.3274448872552953,0.0,0.0,0.0,0.8,-0.8,0.0,0.0003330707550048828,0.0014674663543701172,0.0018951892852783203,1stOrderHold
0.04003286361694336,-0.021807389333844185,-0.01477322168648243,0.6868975162506104,-0.022290482775192102,-0.7796048319427149,1.1239965939373433,0.0,0.0,0.0,0.8,-0.8,0.0,0.0003256797790527344,0.0014138221740722656,0.0017502307891845703,QuatYawError
0.05015373229980469,-0.021807389333844185,-0.01477322168648243,0.6868975162506104,-0.022290482775192102,-0.7915522220626942,0.9584551902656787,0.0,0.0,0.0,0.8,-0.8,0.0,0.00033926963806152344,0.0014712810516357422,0.0018830299377441406,NoPyJoules
0.06011509895324707,-0.0213569775223732,-0.014728458598256111,0.6852416396141052,-0.022328580987587564,-0.8021638366857303,0.8215486244138703,0.0,0.0,0.0,0.8,-0.8,0.0,0.0003578662872314453,0.001714944839477539,0.0021820068359375,0
0.07023358345031738,-0.0213569775223732,-0.014728458598256111,0.6852416396141052,-0.022328580987587564,-0.8116345744140132,0.7091451324356209,0.0,0.0,0.0,0.8,-0.8,0.0,0.0004165172576904297,0.0016655921936035156,0.00214385986328125,0
0.0799560546875,-0.020760947838425636,-0.014490626752376556,0.6828312873840332,-0.0223611801907492,-0.8196633765490983,0.5979290860976992,0.0,0.0,0.0,0.8,-0.8,0.0,0.0003287792205810547,0.0014851093292236328,0.0018935203552246094,0
0.09017586708068848,-0.020760947838425636,-0.014490626752376556,0.6828312873840332,-0.0223611801907492,-0.8268438404612599,0.5216535297127354,0.0,0.0,0.0,0.8,-0.8,0.0,0.0004107952117919922,0.0017735958099365234,0.002202272415161133,0
0.10001349449157715,-0.02041644975543022,-0.014085701666772366,0.6808786988258362,-0.02238810142102899,-0.8328840026795883,0.44092848759043524,0.0,0.0,0.0,0.8,-0.8,0.0,0.0003654956817626953,0.0015048980712890625,0.0019099712371826172,0
0.11033153533935547,-0.02041644975543022,-0.014085701666772366,0.6808786988258362,-0.02238810142102899,-0.8382946408272576,0.3877616285110503,0.0,0.0,0.0,0.8,-0.8,0.0,0.00043702125549316406,0.002028226852416992,0.002554655075073242,0
0.12019634246826172,-0.01997351460158825,-0.01313778292387724,0.6773071885108948,-0.022399325354414322,-0.8425629131699446,0.33456553776624315,0.0,0.0,0.0,0.8,-0.8,0.0,0.0006270408630371094,0.002888202667236328,0.003455638885498047,0
0.13048291206359863,-0.01997351460158825,-0.01313778292387724,0.6773071885108948,-0.022399325354414322,-0.8463924057422002,0.2962651276615036,0.0,0.0,0.0,0.8,-0.8,0.0,0.0007088184356689453,0.0027341842651367188,0.003457307815551758,0
0.14014410972595215,-0.01972629688680172,-0.012381426058709621,0.6744173169136047,-0.02239545112741814,-0.8493984294869503,0.2636185041314735,0.0,0.0,0.0,0.8,-0.8,0.0,0.0005533695220947266,0.002206087112426758,0.002762317657470703,0
0.15030384063720703,-0.01972629688680172,-0.012381426058709621,0.6744173169136047,-0.02239545112741814,-0.8520985565843104,0.23457684757524122,0.0,0.0,0.0,0.8,-0.8,0.0,0.0005829334259033203,0.002229452133178711,0.0027837753295898438,0
0.16018176078796387,-0.01942404918372631,-0.011051448062062263,0.6689699292182922,-0.02242716906537743,-0.853803983639092,0.20920091393112833,0.0,0.0,0.0,0.8,-0.8,0.0,0.0004680156707763672,0.001867055892944336,0.0023605823516845703,0
0.17017459869384766,-0.01942404918372631,-0.011051448062062263,0.6689699292182922,-0.02242716906537743,-0.8553380513078889,0.18707450072989565,0.0,0.0,0.0,0.8,-0.8,0.0,0.0005469322204589844,0.002151012420654297,0.0026819705963134766,0
0.18011760711669922,-0.019262224435806274,-0.010006404481828213,0.6645978689193726,-0.022483402814271337,-0.856208443007486,0.16492562289774423,0.0,0.0,0.0,0.8,-0.8,0.0,0.0004782676696777344,0.0019278526306152344,0.002393007278442383,0
0.19040465354919434,-0.019262224435806274,-0.010006404481828213,0.6645978689193726,-0.022483402814271337,-0.8569922327174615,0.14794746610754583,0.0,0.0,0.0,0.8,-0.8,0.0,0.0005125999450683594,0.00199127197265625,0.002525806427001953,0
0.20014643669128418,-0.019075661897659302,-0.008116002194583416,0.6568264961242676,-0.02251090818079116,-0.8568899218843413,0.12240573071885422,0.0,0.0,0.0,0.8,-0.8,0.0,0.00048542022705078125,0.0019147396087646484,0.002317190170288086,0
0.21030759811401367,-0.019075661897659302,-0.008116002194583416,0.6568264961242676,-0.02251090818079116,-0.856798447683729,0.11020734515901925,0.0,0.0,0.0,0.8,-0.8,0.0,0.0005393028259277344,0.002048015594482422,0.002599000930786133,0
0.220184326171875,-0.01898212917149067,-0.006591632962226868,0.6507477164268494,-0.02252736425633895,-0.856153702763044,0.08865691061404274,0.0,0.0,0.0,0.8,-0.8,0.0,0.00048613548278808594,0.0022623538970947266,0.0027709007263183594,0
0.23009777069091797,-0.01898212917149067,-0.006591632962226868,0.6507477164268494,-0.02252736425633895,-0.8555733831428267,0.07998525678603839,0.0,0.0,0.0,0.8,-0.8,0.0,0.0006010532379150391,0.0025985240936279297,0.0031871795654296875,0
0.2401728630065918,-0.018882203847169876,-0.0038480714429169893,0.6402372717857361,-0.022592212552742817,-0.854182736778841,0.051831543692273,0.0,0.0,0.0,0.8,-0.8,0.0,0.0006783008575439453,0.002855062484741211,0.003590106964111328,0
0.250154972076416,-0.018882203847169876,-0.0038480714429169893,0.6402372717857361,-0.022592212552742817,-0.8529295304268362,0.04689427974106824,0.0,0.0,0.0,0.8,-0.8,0.0,0.0005326271057128906,0.0021173954010009766,0.0026383399963378906,0
0.2599525451660156,-0.018838657066226006,-0.0016939659835770726,0.6323266625404358,-0.022630784290447677,-0.8512147178418518,0.026856000444166223,0.0,0.0,0.0,0.8,-0.8,0.0,0.00041961669921875,0.0016922950744628906,0.0021266937255859375,0
0.2703738212585449,-0.018838657066226006,-0.0016939659835770726,0.6323266625404358,-0.022630784290447677,-0.849668769155601,0.024328178691189476,0.0,0.0,0.0,0.8,-0.8,0.0,0.0005006790161132812,0.00189208984375,0.00251007080078125,0
0.28005099296569824,-0.018803803250193596,0.0020559350959956646,0.6191093921661377,-0.022653410854220443,-0.8473880387261432,-0.0053645942013116526,0.0,0.0,0.0,0.8,-0.8,0.0,0.00038695335388183594,0.001554727554321289,0.0019292831420898438,0
0.2902705669403076,-0.018803803250193596,0.0020559350959956646,0.6191093921661377,-0.022653410854220443,-0.8453306782303318,-0.004870303929885447,0.0,0.0,0.0,0.8,-0.8,0.0,0.0004513263702392578,0.0017859935760498047,0.0022873878479003906,0
0.29992103576660156,-0.01879882998764515,0.0049148485995829105,0.6092748641967773,-0.022695725936611597,-0.842881413112946,-0.024699252034967877,0.0,0.0,0.0,0.8,-0.8,0.0,0.00037598609924316406,0.0015482902526855469,0.001993417739868164,0
0.3101198673248291,-0.01879882998764515,0.0049148485995829105,0.6092748641967773,-0.022695725936611597,-0.8406716468720046,-0.02243894709535989,0.0,0.0,0.0,0.8,-0.8,0.0,0.0003955364227294922,0.0015864372253417969,0.0020253658294677734,0
0.320004940032959,-0.01880589872598648,0.008072823286056519,0.5987446308135986,-0.022690295679678837,-0.8380812706494541,-0.04323167390477619,0.0,0.0,0.0,0.8,-0.8,0.0,0.0003924369812011719,0.0015189647674560547,0.002002716064453125,0
0.3301379680633545,-0.01880589872598648,0.008072823286056519,0.5987446308135986,-0.022690295679678837,-0.8357438763063801,-0.03929872997189479,0.0,0.0,0.0,0.8,-0.8,0.0,0.0004336833953857422,0.0019664764404296875,0.002448558807373047,0
0.34014320373535156,-0.01883690431714058,0.01338499877601862,0.5816686153411865,-0.02272596916714684,-0.832745337937677,-0.07333252746545339,0.0,0.0,0.0,0.8,-0.8,0.0,0.00051116943359375,0.002308368682861328,0.0028481483459472656,0
0.3505573272705078,-0.01883690431714058,0.01338499877601862,0.5816686153411865,-0.02272596916714684,-0.8300386026149722,-0.06677096333208735,0.0,0.0,0.0,0.8,-0.8,0.0,0.0007822513580322266,0.0028867721557617188,0.0037636756896972656,0
0.3600010871887207,-0.018886523321270943,0.019396517425775528,0.5630612969398499,-0.022774221490840314,-0.8267258779574143,-0.10115076386972857,0.0,0.0,0.0,0.8,-0.8,0.0,0.0005364418029785156,0.0021474361419677734,0.0025894641876220703,0
0.370197057723999,-0.018886523321270943,0.019396517425775528,0.5630612969398499,-0.022774221490840314,-0.8237346746547481,-0.09222058501881997,0.0,0.0,0.0,0.8,-0.8,0.0,0.0004546642303466797,0.002012491226196289,0.002541780471801758,0
0.3800523281097412,-0.018929148092865944,0.023781873285770416,0.5498022437095642,-0.022789189787487903,-0.8204605749980387,-0.11179859034685924,0.0,0.0,0.0,0.8,-0.8,0.0,0.0006191730499267578,0.0025987625122070312,0.0031969547271728516,0
0.39024925231933594,-0.018929148092865944,0.023781873285770416,0.5498022437095642,-0.022789189787487903,-0.8175043889975194,-0.10192178443907955,0.0,0.0,0.0,0.8,-0.8,0.0,0.0006048679351806641,0.0023851394653320312,0.002926349639892578,0
0.40003371238708496,-0.019002331420779228,0.03090713731944561,0.5288259387016296,-0.022825951266125275,-0.8139932319376708,-0.13609836698411937,0.0,0.0,0.0,0.8,-0.8,0.0,0.0005245208740234375,0.00211334228515625,0.0026056766510009766,0
0.41016244888305664,-0.019002331420779228,0.03090713731944561,0.5288259387016296,-0.022825951266125275,-0.8108223437546633,-0.1242031522844507,0.0,0.0,0.0,0.8,-0.8,0.0,0.0005800724029541016,0.0021958351135253906,0.0027086734771728516,0
0.42000770568847656,-0.019048862159252167,0.036017581820487976,0.5140724778175354,-0.02291480626643465,-0.8074078905530861,-0.1441362677208075,0.0,0.0,0.0,0.8,-0.8,0.0,0.000492095947265625,0.0019898414611816406,0.0024437904357910156,0
0.43045902252197266,-0.019048862159252167,0.036017581820487976,0.5140724778175354,-0.02291480626643465,-0.8043246683443355,-0.1315008070660529,0.0,0.0,0.0,0.8,-0.8,0.0,0.0006775856018066406,0.0029015541076660156,0.0035855770111083984,0
0.4400343894958496,-0.018667206168174744,0.04171936213970184,0.4878382086753845,-0.022974673861916175,-0.8007094826952377,-0.1573489028611395,0.0,0.0,0.0,0.8,-0.8,0.0,0.0006704330444335938,0.00260162353515625,0.0031621456146240234,0
0.45038580894470215,-0.018667206168174744,0.04171936213970184,0.4878382086753845,-0.022974673861916175,-0.7974443213090339,-0.14368616521584637,0.0,0.0,0.0,0.8,-0.8,0.0,0.000644683837890625,0.002493619918823242,0.0031533241271972656,0
0.4599759578704834,-0.01828046701848507,0.04512733593583107,0.46892407536506653,-0.02305432933765821,-0.7939503907708985,-0.15469603213587071,0.0,0.0,0.0,0.8,-0.8,0.0,0.0005168914794921875,0.0020923614501953125,0.00261688232421875,0
0.4702303409576416,-0.01828046701848507,0.04512733593583107,0.46892407536506653,-0.02305432933765821,-0.7907950550825671,-0.14120951625958955,0.0,0.0,0.0,0.8,-0.8,0.0,0.0005598068237304688,0.0021982192993164062,0.0027496814727783203,0
0.4800081253051758,-0.017730697989463806,0.0509079210460186,0.44000008702278137,-0.023256252500708653,-0.7871542368638387,-0.16652437250946409,0.0,0.0,0.0,0.8,-0.8,0.0,0.00046753883361816406,0.0018720626831054688,0.0023584365844726562,0
0.4901878833770752,-0.017730697989463806,0.0509079210460186,0.44000008702278137,-0.023256252500708653,-0.7838657355204868,-0.15211476945973068,0.0,0.0,0.0,0.8,-0.8,0.0,0.0005502700805664062,0.0021104812622070312,0.0026366710662841797,0
0.5000302791595459,-0.017378581687808037,0.055186960846185684,0.42035403847694397,-0.02340816551189423,-0.7803889260777499,-0.16507573725486147,0.0,0.0,0.0,0.8,-0.8,0.0,0.00046634674072265625,0.0018603801727294922,0.002330780029296875,0
0.510279655456543,-0.017378581687808037,0.055186960846185684,0.42035403847694397,-0.02340816551189423,-0.7772490493414805,-0.15070653292184666,0.0,0.0,0.0,0.8,-0.8,0.0,0.0004818439483642578,0.0018734931945800781,0.0024733543395996094,0
0.5200932025909424,-0.016857100650668144,0.062211934477090836,0.39051249623298645,-0.023659443340264357,-0.7736830955379672,-0.17956514761056422,0.0,0.0,0.0,0.8,-0.8,0.0,0.00043487548828125,0.0018167495727539062,0.0022416114807128906,0
0.5302104949951172,-0.016857100650668144,0.062211934477090836,0.39051249623298645,-0.023659443340264357,-0.7704624620749738,-0.16401353893192547,0.0,0.0,0.0,0.8,-0.8,0.0,0.0004131793975830078,0.0016632080078125,0.0021479129791259766,0
0.5400981903076172,-0.016520505771040916,0.0672813132405281,0.3704056739807129,-0.02384036419516417,-0.7670909342437852,-0.17810441528908047,0.0,0.0,0.0,0.8,-0.8,0.0,0.0004305839538574219,0.0017125606536865234,0.0022101402282714844,0
0.5502855777740479,-0.016520505771040916,0.0672813132405281,0.3704056739807129,-0.02384036419516417,-0.7640464978866114,-0.16256495266535387,0.0,0.0,0.0,0.8,-0.8,0.0,0.0005018711090087891,0.0019092559814453125,0.002418041229248047,0
0.5601465702056885,-0.016028858721256256,0.07542000710964203,0.33983415365219116,-0.02406583070483277,-0.7606292280509283,-0.19297270992894947,0.0,0.0,0.0,0.8,-0.8,0.0,0.00043511390686035156,0.0017859935760498047,0.002255678176879883,0
0.5700182914733887,-0.016028858721256256,0.07542000710964203,0.33983415365219116,-0.02406583070483277,-0.757543426099409,-0.17618861688844867,0.0,0.0,0.0,0.8,-0.8,0.0,0.0004978179931640625,0.0020842552185058594,0.002518177032470703,0
0.5799744129180908,-0.015703978016972542,0.08118933439254761,0.31927525997161865,-0.024168080247303436,-0.7543356686851195,-0.1914572728215326,0.0,0.0,0.0,0.8,-0.8,0.0,0.0003781318664550781,0.001544952392578125,0.001951456069946289,0
0.590404748916626,-0.015703978016972542,0.08118933439254761,0.31927525997161865,-0.024168080247303436,-0.7514397071983939,-0.17466766144821555,0.0,0.0,0.0,0.8,-0.8,0.0,0.0005393028259277344,0.0023250579833984375,0.0028929710388183594,0
0.6000642776489258,-0.015219495631754398,0.09031636267900467,0.28832095861434937,-0.02433423497851251,-0.7482316066099506,-0.20524576113800727,0.0,0.0,0.0,0.8,-0.8,0.0,0.0006139278411865234,0.0023941993713378906,0.002910614013671875,0
0.6103951930999756,-0.015219495631754398,0.09031636267900467,0.28832095861434937,-0.02433423497851251,-0.7453354510596782,-0.18726548161979334,0.0,0.0,0.0,0.8,-0.8,0.0,0.000751495361328125,0.0034470558166503906,0.004213809967041016,0
0.6201889514923096,-0.01489634346216917,0.09669476747512817,0.26764610409736633,-0.0244870157927793,-0.7423469286478014,-0.20261065264399525,0.0,0.0,0.0,0.8,-0.8,0.0,0.0009019374847412109,0.0027027130126953125,0.0034837722778320312,0
0.630124568939209,-0.01489634346216917,0.09669476747512817,0.26764610409736633,-0.0244870157927793,-0.7396496587269515,-0.18470382368881097,0.0,0.0,0.0,0.8,-0.8,0.0,0.0005338191986083984,0.002067089080810547,0.0025560855865478516,0
0.6399827003479004,-0.014574185945093632,0.1032947301864624,0.24683378636837006,-0.02460739229340937,-0.7368570205518137,-0.19967811172466696,0.0,0.0,0.0,0.8,-0.8,0.0,0.0004506111145019531,0.0018727779388427734,0.0023560523986816406,0
0.6499953269958496,-0.014574185945093632,0.1032947301864624,0.24683378636837006,-0.02460739229340937,-0.7343370963757473,-0.18189108806653972,0.0,0.0,0.0,0.8,-0.8,0.0,0.0005080699920654297,0.0019071102142333984,0.002361297607421875,0
0.6600692272186279,-0.014098123647272587,0.11358756572008133,0.21567146480083466,-0.024796914866796846,-0.7315590721236656,-0.2146127133379801,0.0,0.0,0.0,0.8,-0.8,0.0,0.0004978179931640625,0.001888275146484375,0.002351522445678711,0
0.6702022552490234,-0.014098123647272587,0.11358756572008133,0.21567146480083466,-0.024796914866796846,-0.7290525461255472,-0.19549775141922837,0.0,0.0,0.0,0.8,-0.8,0.0,0.000514984130859375,0.0019774436950683594,0.0025472640991210938,0
0.6800825595855713,-0.013627270236611366,0.12430990487337112,0.18463948369026184,-0.02498516154752771,-0.7263309097962908,-0.22598090817240885,0.0,0.0,0.0,0.8,-0.8,0.0,0.00046253204345703125,0.00189208984375,0.002341032028198242,0
0.6904258728027344,-0.013627270236611366,0.12430990487337112,0.18463948369026184,-0.02498516154752771,-0.7238755735911208,-0.20581800624689567,0.0,0.0,0.0,0.8,-0.8,0.0,0.00046372413635253906,0.0018000602722167969,0.0022842884063720703,0
0.7001237869262695,-0.013313444331288338,0.13167685270309448,0.16399143636226654,-0.025122890297704353,-0.7213740103186205,-0.21961011746519452,0.0,0.0,0.0,0.8,-0.8,0.0,0.00043654441833496094,0.00177764892578125,0.0022537708282470703,0
0.7101190090179443,-0.013313444331288338,0.13167685270309448,0.16399143636226654,-0.025122890297704353,-0.7191177831161615,-0.19983563102574936,0.0,0.0,0.0,0.8,-0.8,0.0,0.00045752525329589844,0.0018084049224853516,0.0022826194763183594,0
0.7200198173522949,-0.01283631008118391,0.14302682876586914,0.1331244856119156,-0.02530332789406785,-0.7166777689990549,-0.2302270721855717,0.0,0.0,0.0,0.8,-0.8,0.0,0.0003719329833984375,0.0016887187957763672,0.0021514892578125,0
0.7302305698394775,-0.012675064615905285,0.1468844711780548,0.12290438264608383,-0.02532497376433813,-0.7143523543206707,-0.22540126821132253,0.0,0.0,0.0,0.8,-0.8,0.0,0.0005235671997070312,0.0023136138916015625,0.002817392349243164,0
0.7401719093322754,-0.012513314373791218,0.15077610313892365,0.1127224788069725,-0.02534653513909143,-0.7121346004712984,-0.22072593434328275,0.0,0.0,0.0,0.8,-0.8,0.0,0.0008745193481445312,0.0031256675720214844,0.003859281539916992,0
0.7502458095550537,-0.012513314373791218,0.15077610313892365,0.1127224788069725,-0.02534653513909143,-0.7101351425464892,-0.20062162923347554,0.0,0.0,0.0,0.8,-0.8,0.0,0.0006768703460693359,0.0025458335876464844,0.0032224655151367188,0
0.7600793838500977,-0.01202694233506918,0.1626373529434204,0.08243490755558014,-0.0254638125784163,-0.7079955925994432,-0.2297807042291818,0.0,0.0,0.0,0.8,-0.8,0.0,0.0005202293395996094,0.0020356178283691406,0.00249481201171875,0
0.7702455520629883,-0.01202694233506918,0.1626373529434204,0.08243490755558014,-0.0254638125784163,-0.7060669874150373,-0.2087888149165985,0.0,0.0,0.0,0.8,-0.8,0.0,0.0005428791046142578,0.002072572708129883,0.002647876739501953,0
0.7801394462585449,-0.011699712835252285,0.17069461941719055,0.06230003386735916,-0.025552283887056836,-0.7041138839972695,-0.2218397814770145,0.0,0.0,0.0,0.8,-0.8,0.0,0.00047898292541503906,0.0018875598907470703,0.0023822784423828125,0
0.7905721664428711,-0.011369115673005581,0.17886143922805786,0.04237651079893112,-0.02565509802000377,-0.7021652585952864,-0.23258759784479255,0.0,0.0,0.0,0.8,-0.8,0.0,0.0004730224609375,0.0018451213836669922,0.0022923946380615234,0
0.8002157211303711,-0.011201868765056133,0.1829817295074463,0.0325004942715168,-0.02567829863792793,-0.7003208890593219,-0.22692770026099582,0.0,0.0,0.0,0.8,-0.8,0.0,0.0004661083221435547,0.0018630027770996094,0.0023772716522216797,0
0.8100600242614746,-0.011032837443053722,0.18712587654590607,0.022683585062623024,-0.02570659974060092,-0.698571977738489,-0.22145102895672247,0.0,0.0,0.0,0.8,-0.8,0.0,0.0004839897155761719,0.0018930435180664062,0.0022804737091064453,0
0.8200235366821289,-0.010862356051802635,0.19129157066345215,0.012925948947668076,-0.025728182509748402,-0.6969131927050746,-0.21596255572516396,0.0,0.0,0.0,0.8,-0.8,0.0,0.0004703998565673828,0.0018742084503173828,0.0023441314697265625,0
0.8302435874938965,-0.010862356051802635,0.19129157066345215,0.012925948947668076,-0.025728182509748402,-0.6954189373355268,-0.19583088481743668,0.0,0.0,0.0,0.8,-0.8,0.0,0.0005314350128173828,0.002051115036010742,0.002626657485961914,0
0.8400821685791016,-0.010230937972664833,0.20330245792865753,-0.020537110045552254,-0.025827552989882086,-0.6937814906787929,-0.21897538005229192,0.0,0.0,0.0,0.8,-0.8,0.0,0.0004603862762451172,0.002223968505859375,0.0027272701263427734,0
0.8501548767089844,-0.010230937972664833,0.20330245792865753,-0.020537110045552254,-0.025827552989882086,-0.6923065442475445,-0.19854940494708356,0.0,0.0,0.0,0.8,-0.8,0.0,0.0004825592041015625,0.0020904541015625,0.0026366710662841797,0
0.8600888252258301,-0.00977006834000349,0.21122120320796967,-0.04385065287351608,-0.02587078773576917,-0.6907823283418801,-0.20576051161974956,0.0,0.0,0.0,0.8,-0.8,0.0,0.0011708736419677734,0.0033359527587890625,0.003979206085205078,0
0.8702149391174316,-0.00977006834000349,0.21122120320796967,-0.04385065287351608,-0.02587078773576917,-0.6894094704592486,-0.1864760102788568,0.0,0.0,0.0,0.8,-0.8,0.0,0.0007028579711914062,0.0033452510833740234,0.0040361881256103516,0
0.8800876140594482,-0.009078601375222206,0.22324757277965546,-0.07789535820484161,-0.02590335310486291,-0.687907774080277,-0.2068570499212938,0.0,0.0,0.0,0.8,-0.8,0.0,0.0006084442138671875,0.002785921096801758,0.0033752918243408203,0
0.8903098106384277,-0.009078601375222206,0.22324757277965546,-0.07789535820484161,-0.02590335310486291,-0.6865552612089637,-0.1874551583612439,0.0,0.0,0.0,0.8,-0.8,0.0,0.0004894733428955078,0.001951456069946289,0.002454519271850586,0
0.9001705646514893,-0.008612272329628468,0.2313472181558609,-0.09997843950986862,-0.02593502117491924,-0.6851799435216623,-0.19458473084919958,0.0,0.0,0.0,0.8,-0.8,0.0,0.00045680999755859375,0.001850128173828125,0.002299070358276367,0
0.9101629257202148,-0.008612272329628468,0.2313472181558609,-0.09997843950986862,-0.02593502117491924,-0.6839413894948007,-0.1762356270566849,0.0,0.0,0.0,0.8,-0.8,0.0,0.0005328655242919922,0.0019927024841308594,0.0025191307067871094,0
0.9200465679168701,-0.007903948426246643,0.243584543466568,-0.13228142261505127,-0.026034532165534963,-0.6826200662670923,-0.19403251438038735,0.0,0.0,0.0,0.8,-0.8,0.0,0.00044083595275878906,0.001806497573852539,0.002253293991088867,0
0.9302153587341309,-0.007903948426246643,0.243584543466568,-0.13228142261505127,-0.026034532165534963,-0.6814302509740973,-0.17569529907571316,0.0,0.0,0.0,0.8,-0.8,0.0,0.0005173683166503906,0.00200653076171875,0.002550363540649414,0
0.9400389194488525,-0.007425603456795216,0.25179076194763184,-0.1532347947359085,-0.02611984930770393,-0.6802376038830529,-0.1818234331522559,0.0,0.0,0.0,0.8,-0.8,0.0,0.0004444122314453125,0.0018439292907714844,0.0023012161254882812,0
0.9502120018005371,-0.007425603456795216,0.25179076194763184,-0.1532347947359085,-0.02611984930770393,-0.6791637887704417,-0.1645451050875707,0.0,0.0,0.0,0.8,-0.8,0.0,0.00045561790466308594,0.002051830291748047,0.0025985240936279297,0
0.960237979888916,-0.006698985118418932,0.2641538381576538,-0.18374253809452057,-0.026232033981339744,-0.678049259784499,-0.18251258171860485,0.0,0.0,0.0,0.8,-0.8,0.0,0.0008652210235595703,0.003899097442626953,0.004717111587524414,0
0.9701550006866455,-0.006698985118418932,0.2641538381576538,-0.18374253809452057,-0.026232033981339744,-0.6770459537092125,-0.1651114107128429,0.0,0.0,0.0,0.8,-0.8,0.0,0.0007226467132568359,0.0026772022247314453,0.0033228397369384766,0
0.9802546501159668,-0.006217191927134991,0.27241772413253784,-0.20346716046333313,-0.026330616491675857,-0.6760594499078443,-0.17026361049551128,0.0,0.0,0.0,0.8,-0.8,0.0,0.0006189346313476562,0.002809286117553711,0.0034515857696533203,0
0.9906320571899414,-0.006217191927134991,0.27241772413253784,-0.20346716046333313,-0.026330616491675857,-0.6751715091735315,-0.1539406622923708,0.0,0.0,0.0,0.8,-0.8,0.0,0.0007882118225097656,0.0032143592834472656,0.003972053527832031,0
1.0001533031463623,-0.005494186654686928,0.2848259210586548,-0.23229770362377167,-0.026416993376917067,-0.6742696761408106,-0.1694376797290095,0.0,0.0,0.0,0.8,-0.8,0.0,0.000579833984375,0.002250194549560547,0.0027685165405273438,0
1.0101311206817627,-0.005494186654686928,0.2848259210586548,-0.23229770362377167,-0.026416993376917067,-0.6734581031605327,-0.15313506247925537,0.0,0.0,0.0,0.8,-0.8,0.0,0.0005323886871337891,0.002080678939819336,0.0026450157165527344,0
1.020071268081665,-0.005009246990084648,0.293095201253891,-0.25090453028678894,-0.026447660127046135,-0.6726735268685243,-0.15792936462633977,0.0,0.0,0.0,0.8,-0.8,0.0,0.00039839744567871094,0.0016291141510009766,0.0020494461059570312,0
1.0301446914672852,-0.005009246990084648,0.293095201253891,-0.25090453028678894,-0.026447660127046135,-0.6719675728373999,-0.1426571808094738,0.0,0.0,0.0,0.8,-0.8,0.0,0.0004456043243408203,0.001756906509399414,0.0022509098052978516,0
1.0401849746704102,-0.004278229083865881,0.3054763078689575,-0.27790138125419617,-0.026487416506954548,-0.6712741482726579,-0.15602701243559663,0.0,0.0,0.0,0.8,-0.8,0.0,0.00044655799865722656,0.0018053054809570312,0.0022897720336914062,0
1.0503253936767578,-0.004278229083865881,0.3054763078689575,-0.27790138125419617,-0.026487416506954548,-0.670650359537507,-0.14087965058018032,0.0,0.0,0.0,0.8,-0.8,0.0,0.0005002021789550781,0.0019817352294921875,0.0025146007537841797,0
1.0600383281707764,-0.0037950207479298115,0.31370195746421814,-0.2953673303127289,-0.02651752238792251,-0.6700647875539043,-0.14342132490403156,0.0,0.0,0.0,0.8,-0.8,0.0,0.0004467964172363281,0.001977205276489258,0.002459287643432617,0
1.0704498291015625,-0.0037950207479298115,0.31370195746421814,-0.2953673303127289,-0.02651752238792251,-0.66953808888004,-0.129433064064406,0.0,0.0,0.0,0.8,-0.8,0.0,0.0008146762847900391,0.0036668777465820312,0.0045032501220703125,0
1.0800869464874268,-0.003068713704124093,0.3259739279747009,-0.3207509219646454,-0.02651226748012358,-0.6690518373558146,-0.13925681718514357,0.0,0.0,0.0,0.8,-0.8,0.0,0.0007050037384033203,0.0026280879974365234,0.0032367706298828125,0
1.090564250946045,-0.003068713704124093,0.3259739279747009,-0.3207509219646454,-0.02651226748012358,-0.6686146066459933,-0.1256166974022,0.0,0.0,0.0,0.8,-0.8,0.0,0.0006203651428222656,0.002321481704711914,0.0029401779174804688,0
1.100045919418335,-0.002577225910499692,0.33410388231277466,-0.3370613157749176,-0.02650459911669918,-0.6682212058602226,-0.12838869982519502,0.0,0.0,0.0,0.8,-0.8,0.0,0.00037789344787597656,0.001636505126953125,0.0020742416381835938,0
1.1102397441864014,-0.002577225910499692,0.33410388231277466,-0.3370613157749176,-0.02650459911669918,-0.6678675344383008,-0.11576299728644521,0.0,0.0,0.0,0.8,-0.8,0.0,0.0004665851593017578,0.0018124580383300781,0.0023391246795654297,0
1.1201202869415283,-0.0018275141483172774,0.3462136685848236,-0.3606140911579132,-0.026492416416153085,-0.6675720436704504,-0.12450689251032608,0.0,0.0,0.0,0.8,-0.8,0.0,0.00037097930908203125,0.0015761852264404297,0.0020465850830078125,0
1.130140781402588,-0.0018275141483172774,0.3462136685848236,-0.3606140911579132,-0.026492416416153085,-0.6673065346529059,-0.11221152982461095,0.0,0.0,0.0,0.8,-0.8,0.0,0.0003554821014404297,0.001556396484375,0.0020074844360351562,0
1.1399598121643066,-0.0013235855149105191,0.35421648621559143,-0.3758678734302521,-0.026498468019211744,-0.6670901127116996,-0.11297237087303671,0.0,0.0,0.0,0.8,-0.8,0.0,0.00037789344787597656,0.0016489028930664062,0.002084016799926758,0
1.1501142978668213,-0.0013235855149105191,0.35421648621559143,-0.3758678734302521,-0.026498468019211744,-0.6668957177661093,-0.10177839981868282,0.0,0.0,0.0,0.8,-0.8,0.0,0.0003643035888671875,0.0015411376953125,0.0020253658294677734,0
1.1600046157836914,-0.0005657016299664974,0.36610203981399536,-0.39783307909965515,-0.026532851409357232,-0.6667758377460692,-0.10832479080878346,0.0,0.0,0.0,0.8,-0.8,0.0,0.0003180503845214844,0.0013799667358398438,0.0017154216766357422,0
1.1702876091003418,-0.0005657016299664974,0.36610203981399536,-0.39783307909965515,-0.026532851409357232,-0.6666683320628413,-0.09754714248766261,0.0,0.0,0.0,0.8,-0.8,0.0,0.00033926963806152344,0.0014963150024414062,0.0019571781158447266,0
1.1800339221954346,-5.664986383635551e-05,0.37393873929977417,-0.41187649965286255,-0.026545260005540278,-0.666613527641376,-0.09709580325124777,0.0,0.0,0.0,0.8,-0.8,0.0,0.0003628730773925781,0.0014393329620361328,0.0018870830535888672,0
1.1901168823242188,-5.664986383635551e-05,0.37393873929977417,-0.41187649965286255,-0.026545260005540278,-0.6665645262317462,-0.08740869623373355,0.0,0.0,0.0,0.8,-0.8,0.0,0.0003604888916015625,0.0016062259674072266,0.002011537551879883,0
1.2000102996826172,0.0007222075946629047,0.38554102182388306,-0.43213891983032227,-0.026622731094571188,-0.6665990526417848,-0.09143835583485391,0.0,0.0,0.0,0.8,-0.8,0.0,0.00045108795166015625,0.0018310546875,0.002323627471923828,0
1.2101221084594727,0.0007222075946629047,0.38554102182388306,-0.43213891983032227,-0.026622731094571188,-0.6666304159175307,-0.08228118070186681,0.0,0.0,0.0,0.8,-0.8,0.0,0.0004892349243164062,0.001962423324584961,0.0024139881134033203,0
1.2200233936309814,0.0012439859565347433,0.39317286014556885,-0.4451604187488556,-0.02663189456743565,-0.6667191756587455,-0.08152493907229129,0.0,0.0,0.0,0.8,-0.8,0.0,0.0005285739898681641,0.002374887466430664,0.0028841495513916016,0
1.2303457260131836,0.0012439859565347433,0.39317286014556885,-0.4451604187488556,-0.02663189456743565,-0.6667992836058502,-0.07334190166000953,0.0,0.0,0.0,0.8,-0.8,0.0,0.0004956722259521484,0.0019092559814453125,0.002486705780029297,0
1.240103006362915,0.0022487123496830463,0.4051711857318878,-0.46945619583129883,-0.02664681289055115,-0.6668706971950952,-0.07954133462118546,0.0,0.0,0.0,0.8,-0.8,0.0,0.0004570484161376953,0.001811981201171875,0.0022704601287841797,0
1.250340461730957,0.0022487123496830463,0.4051711857318878,-0.46945619583129883,-0.02664681289055115,-0.6669351881565184,-0.07156324823931351,0.0,0.0,0.0,0.8,-0.8,0.0,0.0005373954772949219,0.0022666454315185547,0.002833843231201172,0
1.2601368427276611,0.0029877193737775087,0.4132579267024994,-0.4866918921470642,-0.026606390955338663,-0.6669804106511769,-0.07273060433867433,0.0,0.0,0.0,0.8,-0.8,0.0,0.0004417896270751953,0.0017709732055664062,0.002259492874145508,0
1.270277500152588,0.0029877193737775087,0.4132579267024994,-0.4866918921470642,-0.026606390955338663,-0.6670212983622046,-0.06544370322549162,0.0,0.0,0.0,0.8,-0.8,0.0,0.0005011558532714844,0.0018377304077148438,0.0023338794708251953,0
1.2801427841186523,0.004085558466613293,0.4251536428928375,-0.5113620758056641,-0.026599073701735622,-0.6670522468167189,-0.06984062172047924,0.0,0.0,0.0,0.8,-0.8,0.0,0.0004520416259765625,0.001752614974975586,0.0022389888763427734,0
1.290224313735962,0.004085558466613293,0.4251536428928375,-0.5113620758056641,-0.026599073701735622,-0.6670802783858399,-0.06284749838116858,0.0,0.0,0.0,0.8,-0.8,0.0,0.00049591064453125,0.001963376998901367,0.002436399459838867,0
1.300004005432129,0.0048149884678423405,0.4329262673854828,-0.5269947052001953,-0.026556433729421333,-0.6671153172665594,-0.06306218532571956,0.0,0.0,0.0,0.8,-0.8,0.0,0.0004515647888183594,0.0018188953399658203,0.0022726058959960938,0
1.3103320598602295,0.0048149884678423405,0.4329262673854828,-0.5269947052001953,-0.026556433729421333,-0.6671470007792417,-0.056746712085035476,0.0,0.0,0.0,0.8,-0.8,0.0,0.0005252361297607422,0.0020456314086914062,0.0026187896728515625,0
1.3201556205749512,0.005907315760850906,0.4443429112434387,-0.5492057204246521,-0.026528524975578466,-0.6672018503020478,-0.05873814330743969,0.0,0.0,0.0,0.8,-0.8,0.0,0.0004417896270751953,0.0018739700317382812,0.002327442169189453,0
1.330366611480713,0.005907315760850906,0.4443429112434387,-0.5492057204246521,-0.026528524975578466,-0.6672513462977872,-0.05285081354253371,0.0,0.0,0.0,0.8,-0.8,0.0,0.0005426406860351562,0.0020470619201660156,0.0026311874389648438,0
1.3401539325714111,0.00662150327116251,0.45179107785224915,-0.5632189512252808,-0.026536163364667284,-0.667319627327534,-0.05228672925711065,0.0,0.0,0.0,0.8,-0.8,0.0,0.00048804283142089844,0.001936197280883789,0.0024662017822265625,0
1.3501982688903809,0.00662150327116251,0.45179107785224915,-0.5632189512252808,-0.026536163364667284,-0.6673811843518691,-0.04704306915121391,0.0,0.0,0.0,0.8,-0.8,0.0,0.0004458427429199219,0.0017271041870117188,0.0022182464599609375,0
1.3602087497711182,0.007696433924138546,0.46271395683288574,-0.5833341479301453,-0.02655494266237202,-0.6674859661267922,-0.04601854727134045,0.0,0.0,0.0,0.8,-0.8,0.0,0.0003864765167236328,0.001775503158569336,0.002220630645751953,0
1.3703439235687256,0.007696433924138546,0.46271395683288574,-0.5833341479301453,-0.02655494266237202,-0.6675803499547949,-0.04139643548612764,0.0,0.0,0.0,0.8,-0.8,0.0,0.001135110855102539,0.0031707286834716797,0.003904581069946289,0
1.3802988529205322,0.008412695489823818,0.4698226749897003,-0.5959941148757935,-0.026528952417719288,-0.6677083087195188,-0.039578096600846,0.0,0.0,0.0,0.8,-0.8,0.0,0.0010986328125,0.0033597946166992188,0.004117488861083984,0
1.3904693126678467,0.008412695489823818,0.4698226749897003,-0.5959941148757935,-0.026528952417719288,-0.6678235253499427,-0.03559900495143341,0.0,0.0,0.0,0.8,-0.8,0.0,0.0007257461547851562,0.0032799243927001953,0.003983259201049805,0
1.4000558853149414,0.009482068940997124,0.48023444414138794,-0.6138938665390015,-0.02653392061229598,-0.6680071673099639,-0.033819313631257966,0.0,0.0,0.0,0.8,-0.8,0.0,0.0006585121154785156,0.0025947093963623047,0.0031425952911376953,0
1.4104149341583252,0.009482068940997124,0.48023444414138794,-0.6138938665390015,-0.02653392061229598,-0.6681724665430355,-0.030411276869346297,0.0,0.0,0.0,0.8,-0.8,0.0,0.0006625652313232422,0.0024199485778808594,0.0030591487884521484,0
1.4201633930206299,0.010193731635808945,0.48700377345085144,-0.6252138018608093,-0.0265336922245159,-0.6683789933629751,-0.027729281228343127,0.0,0.0,0.0,0.8,-0.8,0.0,0.0005185604095458984,0.0020782947540283203,0.002591371536254883,0
1.4302408695220947,0.010193731635808945,0.48700377345085144,-0.6252138018608093,-0.0265336922245159,-0.6685648638712903,-0.02493228710442967,0.0,0.0,0.0,0.8,-0.8,0.0,0.000461578369140625,0.0018360614776611328,0.0023071765899658203,0
1.440000295639038,0.01126063708215952,0.49689623713493347,-0.641295313835144,-0.02656445665868949,-0.6688285147012206,-0.022113537072438096,0.0,0.0,0.0,0.8,-0.8,0.0,0.0004439353942871094,0.0017762184143066406,0.0022394657135009766,0
1.4501099586486816,0.01126063708215952,0.49689623713493347,-0.641295313835144,-0.02656445665868949,-0.6690657613965707,-0.019877697159252198,0.0,0.0,0.0,0.8,-0.8,0.0,0.000347137451171875,0.0014483928680419922,0.0018572807312011719,0
1.4600722789764404,0.011981416493654251,0.5033208727836609,-0.6513438820838928,-0.026620817857399677,-0.6693516918532066,-0.01705861917038606,0.0,0.0,0.0,0.8,-0.8,0.0,0.00036525726318359375,0.0014934539794921875,0.001875162124633789,0
1.470322847366333,0.011981416493654251,0.5033208727836609,-0.6513438820838928,-0.026620817857399677,-0.6696089694243266,-0.015332285769560439,0.0,0.0,0.0,0.8,-0.8,0.0,0.00047898292541503906,0.0020999908447265625,0.002694368362426758,0
1.4801244735717773,0.013064302504062653,0.5126895904541016,-0.6654433608055115,-0.026649901392405532,-0.6699600722796817,-0.010142085578857866,0.0,0.0,0.0,0.8,-0.8,0.0,0.0007236003875732422,0.0027616024017333984,0.003403186798095703,0
1.4905364513397217,0.013064302504062653,0.5126895904541016,-0.6654433608055115,-0.026649901392405532,-0.6702759538157538,-0.009112943319970791,0.0,0.0,0.0,0.8,-0.8,0.0,0.0006654262542724609,0.0024645328521728516,0.003114461898803711,0
1.5001294612884521,0.013786419294774532,0.5187588930130005,-0.6743416786193848,-0.02664421995995145,-0.6706405077159708,-0.006953130876992094,0.0,0.0,0.0,0.8,-0.8,0.0,0.0005307197570800781,0.002107858657836914,0.0026047229766845703,0
1.5103161334991455,0.013786419294774532,0.5187588930130005,-0.6743416786193848,-0.02664421995995145,-0.6709684795519175,-0.0062471958691544165,0.0,0.0,0.0,0.8,-0.8,0.0,0.0005774497985839844,0.0025894641876220703,0.00323486328125,0
1.5201928615570068,0.014874113723635674,0.5276085734367371,-0.6867614984512329,-0.026674327689948308,-0.6713939762196877,-0.0011972688962971834,0.0,0.0,0.0,0.8,-0.8,0.0,0.0005869865417480469,0.002493619918823242,0.0030791759490966797,0
1.5303175449371338,0.014874113723635674,0.5276085734367371,-0.6867614984512329,-0.026674327689948308,-0.6717767445101396,-0.0010754096678734816,0.0,0.0,0.0,0.8,-0.8,0.0,0.0006608963012695312,0.002997159957885742,0.0036983489990234375,0
1.5400638580322266,0.015605608932673931,0.5333324074745178,-0.6944532990455627,-0.026688733309874677,-0.6722065104323773,0.0022143581954530613,0.0,0.0,0.0,0.8,-0.8,0.0,0.0006096363067626953,0.0023071765899658203,0.002836942672729492,0
1.5501422882080078,0.015605608932673931,0.5333324074745178,-0.6944532990455627,-0.026688733309874677,-0.6725931151004633,0.0019889430823472414,0.0,0.0,0.0,0.8,-0.8,0.0,0.00036334991455078125,0.0014553070068359375,0.0019099712371826172,0
1.5600786209106445,0.01670566014945507,0.5416539311408997,-0.7052227258682251,-0.026720163711665502,-0.6730781609779841,0.009365262101162439,0.0,0.0,0.0,0.8,-0.8,0.0,0.0003838539123535156,0.0015451908111572266,0.0019538402557373047,0
1.5702672004699707,0.01670566014945507,0.5416539311408997,-0.7052227258682251,-0.026720163711665502,-0.6735144652523606,0.008409764660159127,0.0,0.0,0.0,0.8,-0.8,0.0,0.0004863739013671875,0.0018568038940429688,0.0023801326751708984,0
1.5802574157714844,0.01744496077299118,0.5470210909843445,-0.7119508981704712,-0.026748848613122746,-0.6740008507162676,0.012498006078464232,0.0,0.0,0.0,0.8,-0.8,0.0,0.000457763671875,0.0018405914306640625,0.0023229122161865234,0
1.5903074741363525,0.01744496077299118,0.5470210909843445,-0.7119508981704712,-0.026748848613122746,-0.6744383600607857,0.011222847911364896,0.0,0.0,0.0,0.8,-0.8,0.0,0.0005509853363037109,0.0025789737701416016,0.003149271011352539,0
1.6002953052520752,0.018556393682956696,0.5548154711723328,-0.7212369441986084,-0.026784666746099372,-0.6749775386315986,0.01701069856689467,0.0,0.0,0.0,0.8,-0.8,0.0,0.0007748603820800781,0.003180980682373047,0.003887653350830078,0
1.610288143157959,0.018556393682956696,0.5548154711723328,-0.7212369441986084,-0.026784666746099372,-0.6754625066330666,0.015271420785914853,0.0,0.0,0.0,0.8,-0.8,0.0,0.0007348060607910156,0.0027153491973876953,0.003377676010131836,0
1.62017822265625,0.019301626831293106,0.5598499178886414,-0.7269063591957092,-0.026783687644220573,-0.6759987926808695,0.018145663691130028,0.0,0.0,0.0,0.8,-0.8,0.0,0.0005314350128173828,0.0020842552185058594,0.002599000930786133,0
1.63033127784729,0.019301626831293106,0.5598499178886414,-0.7269063591957092,-0.026783687644220573,-0.67648115891586,0.016290607171431964,0.0,0.0,0.0,0.8,-0.8,0.0,0.0006089210510253906,0.002215147018432617,0.002836942672729492,0
1.6401355266571045,0.020029015839099884,0.565542459487915,-0.7352531552314758,-0.026788257341952774,-0.6769704848991625,0.017016168582653826,0.0,0.0,0.0,0.8,-0.8,0.0,0.0004956722259521484,0.0019192695617675781,0.0023796558380126953,0
1.6503660678863525,0.020029015839099884,0.565542459487915,-0.7352531552314758,-0.026788257341952774,-0.6774106372969775,0.015279945568856632,0.0,0.0,0.0,0.8,-0.8,0.0,0.0005872249603271484,0.0021448135375976562,0.0027337074279785156,0
1.660156488418579,0.02110237255692482,0.5749160647392273,-0.7512195706367493,-0.026726784271892994,-0.6778222547151274,0.01210649828215837,0.0,0.0,0.0,0.8,-0.8,0.0,0.0005156993865966797,0.0019922256469726562,0.0025026798248291016,0
1.6703126430511475,0.02110237255692482,0.5749160647392273,-0.7512195706367493,-0.026726784271892994,-0.6781925438147229,0.010875161921746972,0.0,0.0,0.0,0.8,-0.8,0.0,0.0005521774291992188,0.0021011829376220703,0.0026445388793945312,0
1.6800246238708496,0.022181835025548935,0.5838534235954285,-0.7657166123390198,-0.026628298634624813,-0.6785594186028069,0.009650228907581588,0.0,0.0,0.0,0.8,-0.8,0.0,0.0004658699035644531,0.0018610954284667969,0.0023398399353027344,0
1.6901862621307373,0.022181835025548935,0.5838534235954285,-0.7657166123390198,-0.026628298634624813,-0.6788894783189807,0.008670526266441273,0.0,0.0,0.0,0.8,-0.8,0.0,0.0005288124084472656,0.0020699501037597656,0.002580881118774414,0
1.7000067234039307,0.022907283157110214,0.5895715951919556,-0.7746068239212036,-0.026586982199281392,-0.679216973647006,0.00856776105051622,0.0,0.0,0.0,0.8,-0.8,0.0,0.0004818439483642578,0.0019178390502929688,0.002384185791015625,0
1.710341453552246,0.022907283157110214,0.5895715951919556,-0.7746068239212036,-0.026586982199281392,-0.6795116196392881,0.007699360984246459,0.0,0.0,0.0,0.8,-0.8,0.0,0.0006134510040283203,0.0023124217987060547,0.0029299259185791016,0
1.720088243484497,0.023632695898413658,0.5951063632965088,-0.7830134630203247,-0.026514100351165196,-0.6798082127193441,0.008197588599943881,0.0,0.0,0.0,0.8,-0.8,0.0,0.000461578369140625,0.0018317699432373047,0.002246856689453125,0
1.7303211688995361,0.023632695898413658,0.5951063632965088,-0.7830134630203247,-0.026514100351165196,-0.6800750655658447,0.007367764929741568,0.0,0.0,0.0,0.8,-0.8,0.0,0.0004858970642089844,0.0018773078918457031,0.0024030208587646484,0
1.740102767944336,0.02472524344921112,0.6030761003494263,-0.794560968875885,-0.02647355939337258,-0.6803728277301061,0.00849961059589201,0.0,0.0,0.0,0.8,-0.8,0.0,0.0004687309265136719,0.0018100738525390625,0.0022993087768554688,0
1.7502985000610352,0.02472524344921112,0.6030761003494263,-0.794560968875885,-0.02647355939337258,-0.6806407337643428,0.007639182293125275,0.0,0.0,0.0,0.8,-0.8,0.0,0.0005285739898681641,0.0020570755004882812,0.002591848373413086,0
1.7601232528686523,0.02581566385924816,0.6106647849082947,-0.8049063682556152,-0.026383681122112937,-0.6809482658866491,0.009657203165373846,0.0,0.0,0.0,0.8,-0.8,0.0,0.0004749298095703125,0.0018541812896728516,0.0023016929626464844,0
1.7701501846313477,0.02581566385924816,0.6106647849082947,-0.8049063682556152,-0.026383681122112937,-0.6812249595449708,0.008679209336868977,0.0,0.0,0.0,0.8,-0.8,0.0,0.0005254745483398438,0.0020589828491210938,0.002574443817138672,0
1.780128002166748,0.026546098291873932,0.6155220866203308,-0.8112253546714783,-0.026386295537903295,-0.6815258554796139,0.009496995132932475,0.0,0.0,0.0,0.8,-0.8,0.0,0.00046443939208984375,0.0018193721771240234,0.002279996871948242,0
1.7903916835784912,0.026546098291873932,0.6155220866203308,-0.8112253546714783,-0.026386295537903295,-0.6817965807027261,0.008535495659504148,0.0,0.0,0.0,0.8,-0.8,0.0,0.0005502700805664062,0.002063751220703125,0.002654552459716797,0
1.8001134395599365,0.027658067643642426,0.6225107312202454,-0.81987464427948,-0.026325976899959636,-0.682122371129139,0.011968386471229529,0.0,0.0,0.0,0.8,-0.8,0.0,0.00046825408935546875,0.0019023418426513672,0.002321958541870117,0
1.8103580474853516,0.027658067643642426,0.6225107312202454,-0.81987464427948,-0.026325976899959636,-0.6824154877391967,0.010755460219013985,0.0,0.0,0.0,0.8,-0.8,0.0,0.0005252361297607422,0.002067089080810547,0.0026061534881591797,0
1.8201913833618164,0.02840341441333294,0.6269711256027222,-0.8250592350959778,-0.02630499820339582,-0.682736371852559,0.013170703590028329,0.0,0.0,0.0,0.8,-0.8,0.0,0.0004837512969970703,0.0019605159759521484,0.0024793148040771484,0
1.8301570415496826,0.02840341441333294,0.6269711256027222,-0.8250592350959778,-0.02630499820339582,-0.6830250752029413,0.011836207784610212,0.0,0.0,0.0,0.8,-0.8,0.0,0.0004353523254394531,0.0017573833465576172,0.0021848678588867188,0
1.8400907516479492,0.029530689120292664,0.6333649158477783,-0.8320022821426392,-0.02631593469774505,-0.6833817413795,0.01759340622678219,0.0,0.0,0.0,0.8,-0.8,0.0,0.0004730224609375,0.0017423629760742188,0.0021982192993164062,0
1.850114345550537,0.029530689120292664,0.6333649158477783,-0.8320022821426392,-0.02631593469774505,-0.6837026287680176,0.01580821633861318,0.0,0.0,0.0,0.8,-0.8,0.0,0.0005128383636474609,0.0019915103912353516,0.0024535655975341797,0
1.8601109981536865,0.030289500951766968,0.6374340653419495,-0.8362305164337158,-0.0263355108343263,-0.6840600299201383,0.018629091341596207,0.0,0.0,0.0,0.8,-0.8,0.0,0.0004591941833496094,0.001837015151977539,0.0022745132446289062,0
1.870356798171997,0.030289500951766968,0.6374340653419495,-0.8362305164337158,-0.0263355108343263,-0.68438157704506,0.01673877392669789,0.0,0.0,0.0,0.8,-0.8,0.0,0.0005681514739990234,0.002125263214111328,0.0027341842651367188,0
1.880082607269287,0.031425729393959045,0.6432666182518005,-0.841789960861206,-0.02637743864416039,-0.6847805905889952,0.021373885534473367,0.0,0.0,0.0,0.8,-0.8,0.0,0.0004940032958984375,0.0020935535430908203,0.0024862289428710938,0
1.8903923034667969,0.031425729393959045,0.6432666182518005,-0.841789960861206,-0.02637743864416039,-0.6851395577502908,0.019201417625285384,0.0,0.0,0.0,0.8,-0.8,0.0,0.0008959770202636719,0.002367734909057617,0.0029594898223876953,0
1.9000694751739502,0.03218943625688553,0.6469767093658447,-0.8449961543083191,-0.02639249769969718,-0.6855387870590569,0.021666945880205755,0.0,0.0,0.0,0.8,-0.8,0.0,0.00047278404235839844,0.001972675323486328,0.0024352073669433594,0
1.9102458953857422,0.03218943625688553,0.6469767093658447,-0.8449961543083191,-0.02639249769969718,-0.6858979489086607,0.019464707532697443,0.0,0.0,0.0,0.8,-0.8,0.0,0.0005557537078857422,0.002104520797729492,0.0026307106018066406,0
1.9200637340545654,0.03335046023130417,0.6522753238677979,-0.8491842150688171,-0.02650158449073469,-0.686331285731504,0.026177746947649443,0.0,0.0,0.0,0.8,-0.8,0.0,0.0004723072052001953,0.0019054412841796875,0.0024290084838867188,0
1.9300830364227295,0.03335046023130417,0.6522753238677979,-0.8491842150688171,-0.02650158449073469,-0.6867211230368558,0.02351341348092641,0.0,0.0,0.0,0.8,-0.8,0.0,0.00043582916259765625,0.0017783641815185547,0.00218963623046875,0
1.940079927444458,0.03413337469100952,0.6556360721588135,-0.8516359329223633,-0.026567651144223277,-0.6871497973542439,0.02581398500356897,0.0,0.0,0.0,0.8,-0.8,0.0,0.00042557716369628906,0.0017418861389160156,0.002169370651245117,0
1.9503369331359863,0.03413337469100952,0.6556360721588135,-0.8516359329223633,-0.026567651144223277,-0.6875354403117188,0.02318721078225505,0.0,0.0,0.0,0.8,-0.8,0.0,0.0005288124084472656,0.0020139217376708984,0.002557516098022461,0
1.9600601196289062,0.03531302511692047,0.6604318618774414,-0.8546488881111145,-0.02661634042184267,-0.6880045878948324,0.029502789430889735,0.0,0.0,0.0,0.8,-0.8,0.0,0.0004744529724121094,0.0018646717071533203,0.0022611618041992188,0
1.9703316688537598,0.03531302511692047,0.6604318618774414,-0.8546488881111145,-0.02661634042184267,-0.6884266245896945,0.026495816227499854,0.0,0.0,0.0,0.8,-0.8,0.0,0.0005545616149902344,0.0021009445190429688,0.002645254135131836,0
1.9801831245422363,0.036105453968048096,0.6634631156921387,-0.8562362790107727,-0.026631233760051578,-0.6888886159634475,0.030091515044163627,0.0,0.0,0.0,0.8,-0.8,0.0,0.000507354736328125,0.0020618438720703125,0.002566099166870117,0
1.990255355834961,0.036105453968048096,0.6634631156921387,-0.8562362790107727,-0.026631233760051578,-0.6893042191701505,0.027025478260378537,0.0,0.0,0.0,0.8,-0.8,0.0,0.0005404949188232422,0.002025604248046875,0.0025031566619873047,0
2.000175952911377,0.037306006997823715,0.6677777171134949,-0.8582144975662231,-0.026678601717682018,-0.6898028054682966,0.031754866999220054,0.0,0.0,0.0,0.8,-0.8,0.0,0.0005362033843994141,0.0025129318237304688,0.0030994415283203125,0
2.0103256702423096,0.037306006997823715,0.6677777171134949,-0.8582144975662231,-0.026678601717682018,-0.6902513124676791,0.02851468482497037,0.0,0.0,0.0,0.8,-0.8,0.0,0.0008697509765625,0.003468036651611328,0.004256725311279297,0
2.0200066566467285,0.038120005279779434,0.6705061197280884,-0.8591987490653992,-0.026729055776286398,-0.69074101280953,0.03153039760617225,0.0,0.0,0.0,0.8,-0.8,0.0,0.0005745887756347656,0.002146005630493164,0.002646207809448242,0
2.030439853668213,0.038120005279779434,0.6705061197280884,-0.8591987490653992,-0.026729055776286398,-0.6911815307360377,0.02831433640241632,0.0,0.0,0.0,0.8,-0.8,0.0,0.0005753040313720703,0.002222776412963867,0.002884387969970703,0
2.039966106414795,0.03990977257490158,0.6753010749816895,-0.8663436770439148,-0.013920225443824444,-0.6916100072554098,0.030728636186164424,0.0,0.0,0.0,0.8,-0.8,0.0,0.00045871734619140625,0.0018265247344970703,0.002234935760498047,0
2.0503761768341064,0.03990977257490158,0.6753010749816895,-0.8663436770439148,-0.013920225443824444,-0.6919954893808846,0.027602121275541524,0.0,0.0,0.0,0.8,-0.8,0.0,0.0005614757537841797,0.002110719680786133,0.0027298927307128906,0
2.0601794719696045,0.04127590358257294,0.6786249279975891,-0.8725163340568542,-0.013936730079965135,-0.692341990484791,0.02685478914943782,0.0,0.0,0.0,0.8,-0.8,0.0,0.0004858970642089844,0.0019061565399169922,0.002466440200805664,0
2.070246934890747,0.04127590358257294,0.6786249279975891,-0.8725163340568542,-0.013936730079965135,-0.6926537584828469,0.02413145155993051,0.0,0.0,0.0,0.8,-0.8,0.0,0.0005245208740234375,0.0019457340240478516,0.0024461746215820312,0
2.080031394958496,0.0432974137365818,0.6833388209342957,-0.880889892578125,-0.013955216409878225,-0.6929333995650042,0.025605218184741187,0.0,0.0,0.0,0.8,-0.8,0.0,0.0004544258117675781,0.0018062591552734375,0.002302885055541992,0
2.0900750160217285,0.0432974137365818,0.6833388209342957,-0.880889892578125,-0.013955216409878225,-0.6931850440082127,0.023015628098680258,0.0,0.0,0.0,0.8,-0.8,0.0,0.0004889965057373047,0.0019958019256591797,0.0024530887603759766,0
2.100158214569092,0.04462927207350731,0.6863022446632385,-0.885817289352417,-0.013947029897980634,-0.6934166088275279,0.02427978491630615,0.0,0.0,0.0,0.8,-0.8,0.0,0.00044798851013183594,0.0016949176788330078,0.002147674560546875,0
2.110337495803833,0.04462927207350731,0.6863022446632385,-0.885817289352417,-0.013947029897980634,-0.6936250099800267,0.021829022807615762,0.0,0.0,0.0,0.8,-0.8,0.0,0.0005192756652832031,0.001969575881958008,0.0025768280029296875,0
2.1200835704803467,0.045940101146698,0.689129650592804,-0.8902469277381897,-0.01394533730480172,-0.6938209498184958,0.022961179694285794,0.0,0.0,0.0,0.8,-0.8,0.0,0.0004451274871826172,0.0017206668853759766,0.0021278858184814453,0
2.1302061080932617,0.045940101146698,0.689129650592804,-0.8902469277381897,-0.01394533730480172,-0.6939973043540524,0.020646866548932805,0.0,0.0,0.0,0.8,-0.8,0.0,0.0005452632904052734,0.001993417739868164,0.002550363540649414,0
2.1399290561676025,0.04788372293114662,0.6931166648864746,-0.8960980176925659,-0.014340444945056192,-0.6941775719328975,0.025712137512631208,0.0,0.0,0.0,0.8,-0.8,0.0,0.0003299713134765625,0.0014204978942871094,0.0018436908721923828,0
2.1501007080078125,0.04788372293114662,0.6931166648864746,-0.8960980176925659,-0.014340444945056192,-0.6943398426785109,0.02312222889953115,0.0,0.0,0.0,0.8,-0.8,0.0,0.0004336833953857422,0.0016469955444335938,0.0021371841430664062,0
2.1601641178131104,0.04982564225792885,0.6968024373054504,-0.9011065363883972,-0.014722255988439984,-0.6945164249631621,0.028151767139347528,0.0,0.0,0.0,0.8,-0.8,0.0,0.00039768218994140625,0.0016300678253173828,0.002072572708129883,0
2.1699962615966797,0.04982564225792885,0.6968024373054504,-0.9011065363883972,-0.014722255988439984,-0.6946753893712785,0.02531656963388916,0.0,0.0,0.0,0.8,-0.8,0.0,0.000457763671875,0.001832723617553711,0.002283811569213867,0
2.1801235675811768,0.05111011117696762,0.6991016268730164,-0.9039183855056763,-0.01494451583157003,-0.6948469854145262,0.027384497463625736,0.0,0.0,0.0,0.8,-0.8,0.0,0.0004341602325439453,0.0017049312591552734,0.0021359920501708984,0
2.1904256343841553,0.05111011117696762,0.6991016268730164,-0.9039183855056763,-0.01494451583157003,-0.695001457775068,0.024627129870148843,0.0,0.0,0.0,0.8,-0.8,0.0,0.00041604042053222656,0.0019037723541259766,0.0024318695068359375,0
2.2002248764038086,0.053027521818876266,0.7023307681083679,-0.9073907732963562,-0.015446945070305265,-0.6951887612986356,0.02794917176006722,0.0,0.0,0.0,0.8,-0.8,0.0,0.0006496906280517578,0.0027649402618408203,0.003390073776245117,0
2.2105867862701416,0.053027521818876266,0.7023307681083679,-0.9073907732963562,-0.015446945070305265,-0.6953573698506418,0.025133186063353574,0.0,0.0,0.0,0.8,-0.8,0.0,0.0009074211120605469,0.0033462047576904297,0.004243612289428711,0
2.220242738723755,0.054302942007780075,0.7043465375900269,-0.909351110458374,-0.015843173470826238,-0.695546250147601,0.027220925391660267,0.0,0.0,0.0,0.8,-0.8,0.0,0.0006005764007568359,0.0022873878479003906,0.0028755664825439453,0
2.23018479347229,0.054302942007780075,0.7043465375900269,-0.909351110458374,-0.015843173470826238,-0.6957162723846867,0.024478144643875543,0.0,0.0,0.0,0.8,-0.8,0.0,0.0004971027374267578,0.0019526481628417969,0.0024242401123046875,0
2.2401297092437744,0.05621618777513504,0.7071667313575745,-0.9116070866584778,-0.01647273971977902,-0.6959303992913035,0.028148390199008153,0.0,0.0,0.0,0.8,-0.8,0.0,0.00047326087951660156,0.0018334388732910156,0.002286672592163086,0
2.2500905990600586,0.05621618777513504,0.7071667313575745,-0.9116070866584778,-0.01647273971977902,-0.6961231396903429,0.02530930065768793,0.0,0.0,0.0,0.8,-0.8,0.0,0.00041294097900390625,0.001653432846069336,0.002032041549682617,0
2.260082960128784,0.057490818202495575,0.7089190483093262,-0.9126796722412109,-0.01686825267118746,-0.6963420843850794,0.027419964874645243,0.0,0.0,0.0,0.8,-0.8,0.0,0.00042724609375,0.0016775131225585938,0.002110004425048828,0
2.2703073024749756,0.057490818202495575,0.7089190483093262,-0.9126796722412109,-0.01686825267118746,-0.6965391528686833,0.02465381515772014,0.0,0.0,0.0,0.8,-0.8,0.0,0.0005297660827636719,0.0020093917846679688,0.0025641918182373047,0
2.280099868774414,0.05940491333603859,0.711367130279541,-0.9137656688690186,-0.017448128837348052,-0.6967899298731339,0.028135842794838405,0.0,0.0,0.0,0.8,-0.8,0.0,0.0004429817199707031,0.0017418861389160156,0.0021715164184570312,0
2.2903645038604736,0.05940491333603859,0.711367130279541,-0.9137656688690186,-0.017448128837348052,-0.6970156372934401,0.02529387219856129,0.0,0.0,0.0,0.8,-0.8,0.0,0.0005390644073486328,0.001981019973754883,0.00249481201171875,0
2.3000946044921875,0.06068231537938118,0.7128790020942688,-0.9142102599143982,-0.017820513872750687,-0.6972654348983549,0.02804281938352842,0.0,0.0,0.0,0.8,-0.8,0.0,0.00045871734619140625,0.0018570423126220703,0.0023140907287597656,0
2.3102850914001465,0.06068231537938118,0.7128790020942688,-0.9142102599143982,-0.017820513872750687,-0.6974902578228043,0.02521036928889289,0.0,0.0,0.0,0.8,-0.8,0.0,0.0005280971527099609,0.0020689964294433594,0.002592802047729492,0
2.3201513290405273,0.0626043900847435,0.7149741053581238,-0.9143146276473999,-0.01834229373223946,-0.6977727335134781,0.029086657708707823,0.0,0.0,0.0,0.8,-0.8,0.0,0.0004837512969970703,0.0018725395202636719,0.002385377883911133,0
2.330254316329956,0.0626043900847435,0.7149741053581238,-0.9143146276473999,-0.01834229373223946,-0.6980269541091102,0.026144959823505325,0.0,0.0,0.0,0.8,-0.8,0.0,0.0005249977111816406,0.0020532608032226562,0.0025911331176757812,0
2.3401052951812744,0.0638914704322815,0.7162619233131409,-0.9140229225158691,-0.018650200163097243,-0.6983134059680046,0.028836673837182324,0.0,0.0,0.0,0.8,-0.8,0.0,0.00047707557678222656,0.0018596649169921875,0.0023055076599121094,0
2.3503496646881104,0.0638914704322815,0.7162619233131409,-0.9140229225158691,-0.018650200163097243,-0.6985711982405024,0.02591980983899404,0.0,0.0,0.0,0.8,-0.8,0.0,0.0005385875701904297,0.0020608901977539062,0.002663135528564453,0
2.3601019382476807,0.06517976522445679,0.7174623012542725,-0.9135461449623108,-0.018883294526856297,-0.6988638522452397,0.027922316749075853,0.0,0.0,0.0,0.8,-0.8,0.0,0.00047326087951660156,0.0018661022186279297,0.002315521240234375,0
2.370378255844116,0.06517976522445679,0.7174623012542725,-0.9135461449623108,-0.018883294526856297,-0.6991272164572631,0.025097253784215526,0.0,0.0,0.0,0.8,-0.8,0.0,0.0005512237548828125,0.0020940303802490234,0.002651691436767578,0
2.3801140785217285,0.06711193174123764,0.719109058380127,-0.9124576449394226,-0.019188543750657122,-0.6994544506250587,0.029558726566270958,0.0,0.0,0.0,0.8,-0.8,0.0,0.0004916191101074219,0.0019731521606445312,0.002460956573486328,0
2.390293836593628,0.06711193174123764,0.719109058380127,-0.9124576449394226,-0.019188543750657122,-0.6997489192165555,0.026564003562560026,0.0,0.0,0.0,0.8,-0.8,0.0,0.0005168914794921875,0.001995086669921875,0.0025014877319335938,0
2.3999691009521484,0.06904388964176178,0.7205796837806702,-0.9108054637908936,-0.01945400795027545,-0.7001019151988895,0.030870482552977085,0.0,0.0,0.0,0.8,-0.8,0.0,0.0003266334533691406,0.001375436782836914,0.0017824172973632812,0
2.4101903438568115,0.06904388964176178,0.7205796837806702,-0.9108054637908936,-0.01945400795027545,-0.7004195548188606,0.027739691329597107,0.0,0.0,0.0,0.8,-0.8,0.0,0.0006184577941894531,0.0027501583099365234,0.003366231918334961,0
2.420175075531006,0.07033271342515945,0.7214728593826294,-0.9094091653823853,-0.01963090319683284,-0.7007687263396618,0.028397752140515094,0.0,0.0,0.0,0.8,-0.8,0.0,0.0007865428924560547,0.0030074119567871094,0.0037505626678466797,0
2.4304988384246826,0.07033271342515945,0.7214728593826294,-0.9094091653823853,-0.01963090319683284,-0.7010829177113481,0.02551820069734506,0.0,0.0,0.0,0.8,-0.8,0.0,0.0006825923919677734,0.002414703369140625,0.003206968307495117,0
2.4400877952575684,0.07261233031749725,0.7231287360191345,-0.9133008122444153,-0.019855832594454313,-0.7013630389353082,0.028219222289904203,0.0,0.0,0.0,0.8,-0.8,0.0,0.0004963874816894531,0.0019452571868896484,0.0023627281188964844,0
2.450356960296631,0.07261233031749725,0.7231287360191345,-0.9133008122444153,-0.019855832594454313,-0.7016151390689813,0.025365694915936283,0.0,0.0,0.0,0.8,-0.8,0.0,0.0005590915679931641,0.0021212100982666016,0.002719402313232422,0
2.4601798057556152,0.07423236966133118,0.7242714762687683,-0.9173757433891296,-0.019942891865108565,-0.701817729372142,0.026489897883549607,0.0,0.0,0.0,0.8,-0.8,0.0,0.0004966259002685547,0.002008199691772461,0.0025200843811035156,0
2.4702696800231934,0.07423236966133118,0.7242714762687683,-0.9173757433891296,-0.019942891865108565,-0.7020000865649211,0.02381953988166177,0.0,0.0,0.0,0.8,-0.8,0.0,0.0005197525024414062,0.0020134449005126953,0.0025315284729003906,0
2.479983329772949,0.07662870734930038,0.725830078125,-0.9225752949714661,-0.020123764027973057,-0.7021352361702146,0.02636846083215613,0.0,0.0,0.0,0.8,-0.8,0.0,0.0004839897155761719,0.0019178390502929688,0.0024347305297851562,0
2.490165948867798,0.07662870734930038,0.725830078125,-0.9225752949714661,-0.020123764027973057,-0.70225692507292,0.02371754575662819,0.0,0.0,0.0,0.8,-0.8,0.0,0.0005326271057128906,0.0020792484283447266,0.002574443817138672,0
2.500117063522339,0.07820477336645126,0.7267676591873169,-0.9255355000495911,-0.02028220578615839,-0.702351385993872,0.02470909119638363,0.0,0.0,0.0,0.8,-0.8,0.0,0.0004703998565673828,0.001905679702758789,0.002357959747314453,0
2.510385751724243,0.07820477336645126,0.7267676591873169,-0.9255355000495911,-0.02028220578615839,-0.7024364597883074,0.022229056846329188,0.0,0.0,0.0,0.8,-0.8,0.0,0.0005533695220947266,0.0021495819091796875,0.0027544498443603516,0
2.5201234817504883,0.08054934442043304,0.7280318737030029,-0.9292673468589783,-0.02051544561098259,-0.7025003464166002,0.024583072952090737,0.0,0.0,0.0,0.8,-0.8,0.0,0.00046133995056152344,0.0018568038940429688,0.0023005008697509766,0
2.530268907546997,0.08054934442043304,0.7280318737030029,-0.9292673468589783,-0.02051544561098259,-0.7025579151417253,0.02211874757922291,0.0,0.0,0.0,0.8,-0.8,0.0,0.00048613548278808594,0.0018911361694335938,0.0023956298828125,0
