time,x,y,z,yaw,throttle,roll_rate,pitch_rate,yaw_rate,x_ref,y_ref,z_ref,yaw_ref,pred_time,nr_time,ctrl_callback_time,metadata
7.152557373046875e-07,0.0015156436711549759,-0.006300440989434719,-0.029114680364727974,-0.01830666386486156,0.7148389027899932,0.09507796913385391,-0.017174338921904564,-0.0003051512176170945,0.0,0.0,-0.6,0.0,0.29488325119018555,0.29488325119018555,0.3854341506958008,Sim
0.3861727714538574,0.0015156436711549759,-0.006300440989434719,-0.029114680364727974,-0.01830666386486156,0.729439795886356,0.062024571001529694,-0.013054746203124523,-0.00017057957302313298,0.0,0.0,-0.6,0.0,0.0009686946868896484,0.0009686946868896484,0.004448890686035156,flat wardi with jax
0.3910179138183594,-0.0011802416993305087,-0.006458999589085579,-0.02703836001455784,-0.01866059432755703,0.739635002545749,0.05441465228796005,-0.030391955748200417,8.312361023854464e-05,0.0,0.0,-0.6,0.0,0.00029206275939941406,0.00029206275939941406,0.003843545913696289,1x Speed
0.4001011848449707,-0.0011795877944678068,-0.006415688432753086,-0.026922201737761497,-0.018656775341807614,0.7467003233139811,0.036830462515354156,-0.023202309384942055,9.676062472863123e-05,0.0,0.0,-0.6,0.0,0.0003750324249267578,0.0003750324249267578,0.004419803619384766,circle_horz_spin_ref_func
0.40981340408325195,-0.0011771471472457051,-0.006334508769214153,-0.026700830087065697,-0.018634069676834137,0.7516203672998902,0.023441150784492493,-0.01837051473557949,0.00011019575322279707,0.0,0.0,-0.6,0.0,0.00024890899658203125,0.00024890899658203125,0.004490852355957031,0
0.4199233055114746,-0.001176973688416183,-0.006296894513070583,-0.026596715673804283,-0.01860469959593546,0.7550478056810626,0.014806083403527737,-0.014673465862870216,0.00010975674376823008,0.0,0.0,-0.6,0.0,0.00030422210693359375,0.00030422210693359375,0.0036804676055908203,0
0.4299461841583252,-0.0011770459823310375,-0.006260957568883896,-0.02649598754942417,-0.0185866276123205,0.7574467184612698,0.009472780860960484,-0.011106226593255997,9.294243500335142e-05,0.0,0.0,-0.6,0.0,0.00027251243591308594,0.00027251243591308594,0.0054171085357666016,0
0.4399287700653076,-0.001176011166535318,-0.0062271105125546455,-0.02639719657599926,-0.018588679646095035,0.7591324475888452,0.005653769243508577,-0.0077537973411381245,7.007117528701201e-05,0.0,0.0,-0.6,0.0,0.0003299713134765625,0.0003299713134765625,0.004267454147338867,0
0.44995617866516113,-0.001174749224446714,-0.006194266956299543,-0.026299286633729935,-0.018592805894879088,0.7603228318486032,0.002097364282235503,-0.0067031532526016235,7.481250213459134e-05,0.0,0.0,-0.6,0.0,0.0003383159637451172,0.0003383159637451172,0.004235744476318359,0
0.45993757247924805,-0.0011755024315789342,-0.006130245979875326,-0.026118671521544456,-0.01862067445672126,0.7610967570488232,-0.0016427366062998772,-0.00559881329536438,7.929438288556412e-05,0.0,0.0,-0.6,0.0,0.0002791881561279297,0.0002791881561279297,0.0051572322845458984,0
0.4697093963623047,-0.001176472520455718,-0.006100461818277836,-0.0260915607213974,-0.018648735703676072,0.7614881020652577,-0.0011908740270882845,-0.004058972466737032,5.717754174838774e-05,0.0,0.0,-0.6,0.0,0.00028395652770996094,0.00028395652770996094,0.003808259963989258,0
0.4801051616668701,-0.0011751425918191671,-0.0060745603404939175,-0.026119010522961617,-0.01865822854413517,0.761550709476813,-0.0021407855674624443,-0.0017438284121453762,3.234893301851116e-05,0.0,0.0,-0.6,0.0,0.0002903938293457031,0.0002903938293457031,0.004934549331665039,0
0.48978710174560547,-0.00117211090400815,-0.006048668175935745,-0.026215331628918648,-0.018668559577601142,0.7613391826104279,-0.0035861206706613302,-0.0008561784634366632,2.77394283330068e-05,0.0,0.0,-0.6,0.0,0.0002808570861816406,0.0002808570861816406,0.004752635955810547,0
0.49991631507873535,-0.0011644993210211396,-0.0059953234158456326,-0.026644177734851837,-0.01868732069922864,0.7606217229421995,-0.005447231233119965,0.0003949117672163993,1.941394839377608e-05,0.0,0.0,-0.6,0.0,0.00025916099548339844,0.00025916099548339844,0.003872394561767578,0
0.5099475383758545,-0.0011602621525526047,-0.005970288999378681,-0.026982799172401428,-0.01867018400129863,0.7598227651673337,-0.004649481736123562,-1.5201439964585006e-06,1.976676685444545e-05,0.0,0.0,-0.6,0.0,0.00027370452880859375,0.00027370452880859375,0.004620790481567383,0
0.5197811126708984,-0.0011573703959584236,-0.005947011522948742,-0.02740534394979477,-0.018645719148925623,0.75895761682402,-0.0027533122338354588,-0.00034338427940383554,1.530553345219232e-05,0.0,0.0,-0.6,0.0,0.0002894401550292969,0.0002894401550292969,0.004647731781005859,0
0.5301263332366943,-0.0011547335889190435,-0.005925297737121582,-0.027914758771657944,-0.0186476787918529,0.7580312494309284,-0.0030873415526002645,-3.6166478821542114e-05,1.2466411135392264e-05,0.0,0.0,-0.6,0.0,0.000377655029296875,0.000377655029296875,0.00413966178894043,0
0.540194034576416,-0.0011490692850202322,-0.005883645266294479,-0.029181543737649918,-0.018642053197798446,0.7567415377463613,-0.0032714910339564085,0.00021886829927098006,9.17459237825824e-06,0.0,0.0,-0.6,0.0,0.0004634857177734375,0.0004634857177734375,0.005179405212402344,0
0.5497267246246338,-0.0011462161783128977,-0.005864093080163002,-0.029938317835330963,-0.01863126545701199,0.755515305240064,-0.001575307222083211,0.00011861132952617481,4.061061190441251e-06,0.0,0.0,-0.6,0.0,0.0002276897430419922,0.0002276897430419922,0.0033974647521972656,0
0.5601842403411865,-0.0011434139451012015,-0.005847078748047352,-0.030780797824263573,-0.01863027936470359,0.7543321221866821,-0.0007567116408608854,0.0007867749664001167,-6.654371645709034e-06,0.0,0.0,-0.6,0.0,0.00044417381286621094,0.00044417381286621094,0.0053975582122802734,0
0.5697240829467773,-0.001133165555074811,-0.005818118806928396,-0.03272005170583725,-0.018595934596868566,0.7528543618344224,-0.0007822334300726652,0.0021813176572322845,-2.302594657521695e-05,0.0,0.0,-0.6,0.0,0.000232696533203125,0.000232696533203125,0.004716396331787109,0
0.5797522068023682,-0.0011283111525699496,-0.005804996471852064,-0.03381550312042236,-0.018593489864651667,0.7514952656944135,-0.0014881951501592994,0.0012393636861816049,-9.921504897647537e-06,0.0,0.0,-0.6,0.0,0.0002586841583251953,0.0002586841583251953,0.003659963607788086,0
0.5899884700775146,-0.0011250001844018698,-0.005792525131255388,-0.03499137982726097,-0.018606835274682,0.750226954994959,-0.0016143044922500849,0.00034953068825416267,6.705817554575333e-07,0.0,0.0,-0.6,0.0,0.0003707408905029297,0.0003707408905029297,0.005047798156738281,0
0.5999979972839355,-0.0011221481254324317,-0.005780006758868694,-0.03624676540493965,-0.018616922650571847,0.7490208330777284,-0.0031052494887262583,0.0008584596216678619,-1.210235041071428e-06,0.0,0.0,-0.6,0.0,0.0002925395965576172,0.0002925395965576172,0.0038890838623046875,0
0.6099023818969727,-0.0011180295841768384,-0.005767210386693478,-0.03757978603243828,-0.018608825785871815,0.7478610219251738,-0.0029073432087898254,0.0017602879088371992,-1.2579226677189581e-05,0.0,0.0,-0.6,0.0,0.0003273487091064453,0.0003273487091064453,0.0044519901275634766,0
0.6200053691864014,-0.001102834241464734,-0.005740304011851549,-0.04050533473491669,-0.018616933543359023,0.7464114690858105,-0.0041574048809707165,0.003599644871428609,-3.140478293062188e-05,0.0,0.0,-0.6,0.0,0.000396728515625,0.000396728515625,0.0057697296142578125,0
0.6298823356628418,-0.0010917290346696973,-0.0057249171659350395,-0.04208049550652504,-0.018618987884000276,0.7450845002128486,-0.0043625738471746445,0.004176633898168802,-3.801941784331575e-05,0.0,0.0,-0.6,0.0,0.00022792816162109375,0.00022792816162109375,0.0028312206268310547,0
0.6399734020233154,-0.0010781591990962625,-0.005709797143936157,-0.04372694715857506,-0.01861262831733174,0.7438528085513492,-0.003716791281476617,0.0056436555460095406,-5.669061647495255e-05,0.0,0.0,-0.6,0.0,0.000255584716796875,0.000255584716796875,0.004843473434448242,0
0.6499693393707275,-0.0010424250504001975,-0.005683828145265579,-0.047224611043930054,-0.018644067536651945,0.7423924634634381,-0.002362404251471162,0.0077711306512355804,-8.437743235845119e-05,0.0,0.0,-0.6,0.0,0.0002422332763671875,0.0002422332763671875,0.0050623416900634766,0
0.6598773002624512,-0.0010211275657638907,-0.005672570317983627,-0.04907185584306717,-0.018668316270871482,0.7410805921551157,-0.002094811759889126,0.008154941722750664,-8.923059067456052e-05,0.0,0.0,-0.6,0.0,0.00027179718017578125,0.00027179718017578125,0.003658771514892578,0
0.6700897216796875,-0.0009971107356250286,-0.005661727860569954,-0.05098191648721695,-0.018673322818716833,0.7398754371929209,-0.002414714777842164,0.008026852272450924,-8.71007505338639e-05,0.0,0.0,-0.6,0.0,0.0003669261932373047,0.0003669261932373047,0.005576610565185547,0
0.6796905994415283,-0.000972150475718081,-0.0056520565412938595,-0.05295209959149361,-0.01867379272974322,0.7387524962705029,-0.0008504993747919798,0.007281577214598656,-8.151057409122586e-05,0.0,0.0,-0.6,0.0,0.0002338886260986328,0.0002338886260986328,0.003797769546508789,0
0.68994140625,-0.0009175962186418474,-0.0056385318748652935,-0.05709414929151535,-0.018714934680802302,0.7374079427017635,-0.000584675814025104,0.008201530203223228,-9.253650932805613e-05,0.0,0.0,-0.6,0.0,0.0003466606140136719,0.0003466606140136719,0.004795551300048828,0
0.6999726295471191,-0.0008872514590620995,-0.005632792599499226,-0.05924997478723526,-0.01870403545800145,0.7361931968749805,-0.0014742747880518436,0.008075235411524773,-8.988634363049641e-05,0.0,0.0,-0.6,0.0,0.00048470497131347656,0.00048470497131347656,0.005627632141113281,0
0.7097046375274658,-0.0008565381285734475,-0.005626959260553122,-0.06145961582660675,-0.018681491568639845,0.7350745849922629,-0.0021495253313332796,0.006660753395408392,-7.301945151994005e-05,0.0,0.0,-0.6,0.0,0.00023746490478515625,0.00023746490478515625,0.0029909610748291016,0
0.7200791835784912,-0.000825085153337568,-0.005619973409920931,-0.06372136622667313,-0.018682352428225153,0.7340248047870039,-0.004305871669203043,0.0066282073967158794,-6.996405136305839e-05,0.0,0.0,-0.6,0.0,0.00029850006103515625,0.00029850006103515625,0.003964662551879883,0
0.7298378944396973,-0.0007928049890324473,-0.005611112341284752,-0.06603419780731201,-0.018683067901528704,0.7330276481005897,-0.004821094684302807,0.005982329603284597,-6.215308530954644e-05,0.0,0.0,-0.6,0.0,0.0002491474151611328,0.0002491474151611328,0.005067110061645508,0
0.7398965358734131,-0.0007590855821035802,-0.005602742079645395,-0.0683949813246727,-0.01867011170315941,0.7320795484807928,-0.0029920057859271765,0.006602608598768711,-7.149924203986302e-05,0.0,0.0,-0.6,0.0,0.00023746490478515625,0.00023746490478515625,0.003382444381713867,0
0.7502694129943848,-0.000688133470248431,-0.005585724487900734,-0.07324880361557007,-0.01867136273658699,0.7309295622975512,-0.004932142328470945,0.007032879162579775,-7.46871082810685e-05,0.0,0.0,-0.6,0.0,0.0004298686981201172,0.0004298686981201172,0.005661725997924805,0
0.7597458362579346,-0.0006512637482956052,-0.005576184019446373,-0.07575883716344833,-0.01865376197963619,0.7298803001035752,-0.00587430177256465,0.006579132284969091,-6.866366311442107e-05,0.0,0.0,-0.6,0.0,0.00022482872009277344,0.00022482872009277344,0.0034754276275634766,0
0.7699365615844727,-0.0006066238274797797,-0.0055650766007602215,-0.07831047475337982,-0.018668340907086182,0.7289039072775565,-0.005996714346110821,0.006080306600779295,-6.27261761110276e-05,0.0,0.0,-0.6,0.0,0.0003981590270996094,0.0003981590270996094,0.004416942596435547,0
0.780179500579834,-0.0005605614860542119,-0.005554134491831064,-0.0809018611907959,-0.01866170827738635,0.727987620680406,-0.0035755850840359926,0.006793229840695858,-7.274568633874878e-05,0.0,0.0,-0.6,0.0,0.0003864765167236328,0.0003864765167236328,0.004670381546020508,0
0.7899234294891357,5.4760166676715016e-05,-0.0054117110557854176,-0.08427468687295914,-0.018646843203001567,0.7270024561632208,-0.0007090125000104308,0.012075211852788925,-0.0001348601363133639,0.0,0.0,-0.6,0.0,0.0002498626708984375,0.0002498626708984375,0.00393223762512207,0
0.8001620769500732,0.0003569131076801568,-0.005344766657799482,-0.08604106307029724,-0.018639722820941427,0.7261406508579517,-0.0021573996637016535,0.013782314956188202,-0.00015259407518897206,0.0,0.0,-0.6,0.0,0.0003483295440673828,0.0003483295440673828,0.005019664764404297,0
0.809828519821167,0.0006560530746355653,-0.005279435310512781,-0.08785774558782578,-0.01864216491419506,0.7253751798424762,-0.0019705560989677906,0.01479332335293293,-0.00016386988863814622,0.0,0.0,-0.6,0.0,0.00030231475830078125,0.00030231475830078125,0.0043163299560546875,0
0.8201062679290771,0.0012493974063545465,-0.005156396888196468,-0.09163594245910645,-0.01864574060065422,0.7245081867392221,-0.002784318756312132,0.020615343004465103,-0.00022850585810374469,0.0,0.0,-0.6,0.0,0.00034546852111816406,0.00034546852111816406,0.004964351654052734,0
0.8304851055145264,0.0015431753126904368,-0.005097915884107351,-0.09359430521726608,-0.01863455883280763,0.7237422989017864,-0.0021947845816612244,0.020541874691843987,-0.00022819306468591094,0.0,0.0,-0.6,0.0,0.0005640983581542969,0.0005640983581542969,0.005575418472290039,0
0.8398780822753906,0.0018349032616242766,-0.005042035132646561,-0.09559641033411026,-0.018624556373151847,0.7230455257760655,-0.0013332542730495334,0.019491294398903847,-0.00021749219740740955,0.0,0.0,-0.6,0.0,0.0002658367156982422,0.0002658367156982422,0.0037841796875,0
0.8497884273529053,0.0024108628276735544,-0.004937745630741119,-0.0997236967086792,-0.018570181056340705,0.7222556627959457,-0.0029023627284914255,0.023379281163215637,-0.00025979202473536134,0.0,0.0,-0.6,0.0,0.00026297569274902344,0.00026297569274902344,0.004164218902587891,0
0.860281229019165,0.002696275245398283,-0.004886560142040253,-0.10184560716152191,-0.018582232479648804,0.721552798059869,-0.003699889173731208,0.022465720772743225,-0.00024850998306646943,0.0,0.0,-0.6,0.0,0.0005021095275878906,0.0005021095275878906,0.0052793025970458984,0
0.8697881698608398,0.0029797174502164125,-0.0048365104012191296,-0.10400432348251343,-0.01858712853839657,0.7209141246196218,-0.003226181026548147,0.02150428295135498,-0.0002373845491092652,0.0,0.0,-0.6,0.0,0.0002346038818359375,0.0002346038818359375,0.004704952239990234,0
0.8801064491271973,0.0032611158676445484,-0.0047886255197227,-0.10619838535785675,-0.0186058495554127,0.720319602350206,-0.0025894162245094776,0.02038775011897087,-0.00022515580349136144,0.0,0.0,-0.6,0.0,0.00027942657470703125,0.00027942657470703125,0.003949880599975586,0
0.8898293972015381,0.0035395673476159573,-0.004741692449897528,-0.10842764377593994,-0.01862148367891519,0.719755070127657,-0.003799501806497574,0.019244126975536346,-0.0002112418442266062,0.0,0.0,-0.6,0.0,0.0003113746643066406,0.0003113746643066406,0.003682851791381836,0
0.8997519016265869,0.004091136157512665,-0.004649646580219269,-0.11299183964729309,-0.018621417330317677,0.7190836724657622,-0.005291570443660021,0.02271956577897072,-0.0002478173410054296,0.0,0.0,-0.6,0.0,0.0002493858337402344,0.0002493858337402344,0.0042378902435302734,0
0.9100122451782227,0.004362779203802347,-0.004602385684847832,-0.11532222479581833,-0.018603270335450908,0.7184796500219172,-0.00527444202452898,0.022465137764811516,-0.0002444617566652596,0.0,0.0,-0.6,0.0,0.00038242340087890625,0.00038242340087890625,0.005009174346923828,0
0.9199643135070801,0.004634323995560408,-0.00455567566677928,-0.11768023669719696,-0.01860606905107425,0.7179242782800862,-0.004628135357052088,0.022014953196048737,-0.00023914298799354583,0.0,0.0,-0.6,0.0,0.0004620552062988281,0.0004620552062988281,0.0059430599212646484,0
0.9297332763671875,0.004905506037175655,-0.004511057399213314,-0.12006426602602005,-0.018586737860184086,0.7174051932793185,-0.0028644700068980455,0.021654868498444557,-0.00023646831687074155,0.0,0.0,-0.6,0.0,0.0003037452697753906,0.0003037452697753906,0.00380706787109375,0
0.9399456977844238,0.005442392081022263,-0.004426653031259775,-0.12491058558225632,-0.018579562289533533,0.7167736069438091,-0.0038015376776456833,0.022480253130197525,-0.00024441498680971563,0.0,0.0,-0.6,0.0,0.0002887248992919922,0.0002887248992919922,0.00456690788269043,0
0.9496641159057617,0.005707548465579748,-0.004385634791105986,-0.12736979126930237,-0.018592608213627185,0.7162101827960737,-0.0039032616186887026,0.02082831598818302,-0.00022522968356497586,0.0,0.0,-0.6,0.0,0.00027179718017578125,0.00027179718017578125,0.003877401351928711,0
0.9599339962005615,0.00597075279802084,-0.004345293622463942,-0.1298498511314392,-0.018576080087383137,0.7156978990410604,-0.003569000167772174,0.019683096557855606,-0.00021255944739095867,0.0,0.0,-0.6,0.0,0.00026226043701171875,0.00026226043701171875,0.004498004913330078,0
0.9700772762298584,0.006492477376013994,-0.004270634613931179,-0.13487756252288818,-0.018553529886748035,0.7151023325325477,-0.0023426192346960306,0.020902346819639206,-0.00022679784160573035,0.0,0.0,-0.6,0.0,0.0003905296325683594,0.0003905296325683594,0.0049207210540771484,0
0.9797556400299072,0.006750833708792925,-0.004234934225678444,-0.13742633163928986,-0.018558456414946953,0.7145565127724411,-0.003103341907262802,0.01904701255261898,-0.00020478994701988995,0.0,0.0,-0.6,0.0,0.00024700164794921875,0.00024700164794921875,0.003725767135620117,0
0.9901506900787354,0.007006969768553972,-0.004200049676001072,-0.13999511301517487,-0.01857032205549799,0.7140553190662168,-0.0020304780919104815,0.01747051067650318,-0.0001890665153041482,0.0,0.0,-0.6,0.0,0.0003345012664794922,0.0003345012664794922,0.004525184631347656,0
0.9997813701629639,0.007260533049702644,-0.004167797975242138,-0.14258158206939697,-0.01858417894693295,0.7135858897498162,-0.00014555569214280695,0.016677536070346832,-0.0001838544412748888,0.0,0.0,-0.6,0.0,0.0001957416534423828,0.0001957416534423828,0.004122018814086914,0
1.010096549987793,0.007760899607092142,-0.004106875509023666,-0.14780095219612122,-0.018578982153522498,0.7130466622525425,-0.004007045179605484,0.01806039549410343,-0.00019214299391023815,0.0,0.0,-0.6,0.0,0.0003273487091064453,0.0003273487091064453,0.005123615264892578,0
1.0202515125274658,0.008009908720850945,-0.004075793549418449,-0.15043003857135773,-0.018583143841951543,0.7125609207930197,-0.003094902727752924,0.018633659929037094,-0.00020016457710880786,0.0,0.0,-0.6,0.0,0.0004191398620605469,0.0004191398620605469,0.004464864730834961,0
1.0297465324401855,0.008259124122560024,-0.00404710229486227,-0.15307308733463287,-0.018595058571646485,0.7121121766726565,-7.26672078599222e-05,0.018086418509483337,-0.00020122999558225274,0.0,0.0,-0.6,0.0,0.0002181529998779297,0.0002181529998779297,0.004426479339599609,0
1.0401599407196045,0.008506652899086475,-0.00402260385453701,-0.15572890639305115,-0.018596642747729458,0.7116928298315811,0.0019965507090091705,0.016939161345362663,-0.00019428312953095883,0.0,0.0,-0.6,0.0,0.00047016143798828125,0.00047016143798828125,0.0046844482421875,0
1.049729824066162,0.009008078835904598,-0.003977134358137846,-0.16112704575061798,-0.018599515762980197,0.7111917544576005,5.612438326352276e-05,0.01926507242023945,-0.00021664660016540438,0.0,0.0,-0.6,0.0,0.0002486705780029297,0.0002486705780029297,0.004942178726196289,0
1.0601425170898438,0.009261508472263813,-0.003954946994781494,-0.16384033858776093,-0.018586165637537806,0.7107446037439904,8.266364602604881e-05,0.018293121829628944,-0.00020604924065992236,0.0,0.0,-0.6,0.0,0.00028228759765625,0.00028228759765625,0.0038497447967529297,0
1.070223093032837,0.009514100849628448,-0.003934027627110481,-0.16656221449375153,-0.018570712391741476,0.7103287912940031,5.3858304454479367e-05,0.017984921112656593,-0.00020320665498729795,0.0,0.0,-0.6,0.0,0.0003108978271484375,0.0003108978271484375,0.004720926284790039,0
1.0796818733215332,0.009766179136931896,-0.003914468456059694,-0.16929304599761963,-0.01856717151677571,0.7099397739955731,-0.0001553316687932238,0.017423054203391075,-0.00019683458958752453,0.0,0.0,-0.6,0.0,0.0002472400665283203,0.0002472400665283203,0.0035409927368164062,0
1.0899460315704346,0.01026945374906063,-0.003878046292811632,-0.17477144300937653,-0.01855614424654653,0.7094918544988579,-0.0005050587933510542,0.020774859935045242,-0.00023413353483192623,0.0,0.0,-0.6,0.0,0.00031948089599609375,0.00031948089599609375,0.00421595573425293,0
1.100019931793213,0.01052005309611559,-0.0038614366203546524,-0.17751775681972504,-0.018536956603900295,0.7090899594606276,-0.0011218063300475478,0.018970683217048645,-0.0002114652015734464,0.0,0.0,-0.6,0.0,0.0003161430358886719,0.0003161430358886719,0.005646944046020508,0
1.109748125076294,0.01076908502727747,-0.003845580155029893,-0.1802685409784317,-0.018529692690966302,0.7087192034321925,-0.0006849570199847221,0.017781071364879608,-0.0001993227779166773,0.0,0.0,-0.6,0.0,0.00021791458129882812,0.00021791458129882812,0.003126859664916992,0
1.1201567649841309,0.011016802862286568,-0.003831349778920412,-0.1830449253320694,-0.01850557332897819,0.7083673360545935,0.00014437551726587117,0.01677783578634262,-0.00019088659610133618,0.0,0.0,-0.6,0.0,0.0004410743713378906,0.0004410743713378906,0.005521297454833984,0
1.1297287940979004,0.011263351887464523,-0.003820389276370406,-0.18582507967948914,-0.018499651504572712,0.7080328737124499,0.001290524611249566,0.015420964919030666,-0.0001799446326913312,0.0,0.0,-0.6,0.0,0.00039267539978027344,0.00039267539978027344,0.005024909973144531,0
1.1400268077850342,0.011751184239983559,-0.0038035695906728506,-0.19139131903648376,-0.018509298677143963,0.707632419483022,0.00037291162880137563,0.017465796321630478,-0.00019960654026363045,0.0,0.0,-0.6,0.0,0.00033593177795410156,0.00033593177795410156,0.003590822219848633,0
1.1500132083892822,0.01199325267225504,-0.003795737400650978,-0.19417575001716614,-0.018521012315739143,0.7072769428764827,0.00018676495528779924,0.01573931984603405,-0.00017877109348773956,0.0,0.0,-0.6,0.0,0.00032711029052734375,0.00032711029052734375,0.004927158355712891,0
1.1598172187805176,0.012233316898345947,-0.0037892472464591265,-0.1969590187072754,-0.018493195805164783,0.706952794468177,0.0007715700776316226,0.015041089616715908,-0.00017290821415372193,0.0,0.0,-0.6,0.0,0.00021409988403320312,0.00021409988403320312,0.003316640853881836,0
1.1701207160949707,0.012472960166633129,-0.003782859770581126,-0.19974160194396973,-0.018487844950828163,0.7066481187605907,-0.0018589482642710209,0.014827031642198563,-0.00015932459791656584,0.0,0.0,-0.6,0.0,0.0004284381866455078,0.0004284381866455078,0.005070924758911133,0
1.1798017024993896,0.012883136048913002,-0.0038437547627836466,-0.20514939725399017,-0.018473070080267506,0.7062938360176145,0.0008586985641159117,0.014851507730782032,-0.00017105221922975034,0.0,0.0,-0.6,0.0,0.0002911090850830078,0.0002911090850830078,0.0037539005279541016,0
1.1898193359375,0.013055123388767242,-0.003911861218512058,-0.20780397951602936,-0.01846715594929925,0.705978442639752,0.001896088826470077,0.013331684283912182,-0.00015895438264124095,0.0,0.0,-0.6,0.0,0.0002155303955078125,0.0002155303955078125,0.004128217697143555,0
1.200052261352539,0.013226510025560856,-0.003979852888733149,-0.2104596197605133,-0.018454080369660817,0.7056896890242546,0.0026159666012972593,0.01203120592981577,-0.0001479801576351747,0.0,0.0,-0.6,0.0,0.00031757354736328125,0.00031757354736328125,0.0044956207275390625,0
1.209705114364624,0.013397276401519775,-0.004046871326863766,-0.2131149023771286,-0.0184468433517794,0.7054256250579565,0.0016686083981767297,0.010611317120492458,-0.00012820067058783025,0.0,0.0,-0.6,0.0,0.0002696514129638672,0.0002696514129638672,0.004452705383300781,0
1.2200148105621338,0.013566672801971436,-0.004112974740564823,-0.21576905250549316,-0.018448121358937305,0.7051791337957038,0.0022776564583182335,0.009378379210829735,-0.00011759810149669647,0.0,0.0,-0.6,0.0,0.0002894401550292969,0.0002894401550292969,0.0041887760162353516,0
1.2300610542297363,0.01390391681343317,-0.004243563394993544,-0.2210712879896164,-0.018453150302826248,0.7048856673466114,0.0034234619233757257,0.010281139984726906,-0.00013460800983011723,0.0,0.0,-0.6,0.0,0.00036406517028808594,0.00036406517028808594,0.004782915115356445,0
1.2398526668548584,0.014070959761738777,-0.004308532457798719,-0.22371986508369446,-0.018438811864789764,0.7046191257358975,0.0026958549860864878,0.008897608146071434,-0.00011566286411834881,0.0,0.0,-0.6,0.0,0.0002148151397705078,0.0002148151397705078,0.0034596920013427734,0
1.2499563694000244,0.014236925169825554,-0.004371516406536102,-0.226365864276886,-0.018439507321369113,0.704373242033821,0.0009242028463631868,0.008305457420647144,-0.00010015774023486301,0.0,0.0,-0.6,0.0,0.0004017353057861328,0.0004017353057861328,0.006061077117919922,0
1.260066032409668,0.014565696939826012,-0.004490946885198355,-0.23163767158985138,-0.0184336146985116,0.70409226771559,-0.0011184788309037685,0.008105630986392498,-8.706266817171127e-05,0.0,0.0,-0.6,0.0,0.00034928321838378906,0.00034928321838378906,0.004816293716430664,0
1.2697811126708984,0.014728598296642303,-0.004547360353171825,-0.2342633754014969,-0.0184473715015208,0.7038354153680964,-0.0022122084628790617,0.0061590904369950294,-5.859638986294158e-05,0.0,0.0,-0.6,0.0,0.00030684471130371094,0.00030684471130371094,0.00455021858215332,0
1.2803709506988525,0.014889526180922985,-0.004602043889462948,-0.23688548803329468,-0.018445247779892638,0.7036031747697367,-0.0008345114183612168,0.006186322309076786,-6.618998304475099e-05,0.0,0.0,-0.6,0.0,0.00045680999755859375,0.00045680999755859375,0.006017446517944336,0
1.2902405261993408,0.015049885958433151,-0.004656539764255285,-0.23950226604938507,-0.018442241327716664,0.7033900049166656,-0.00034998179762624204,0.006003056652843952,-6.673921598121524e-05,0.0,0.0,-0.6,0.0,0.0009095668792724609,0.0009095668792724609,0.009024381637573242,0
1.3001935482025146,0.01536898035556078,-0.004762830212712288,-0.24472005665302277,-0.01843551884409232,0.7031347178400396,0.000386434345273301,0.007214987184852362,-8.472997433273122e-05,0.0,0.0,-0.6,0.0,0.00047278404235839844,0.00047278404235839844,0.0054340362548828125,0
1.3099985122680664,0.0155268469825387,-0.004815116059035063,-0.24732080101966858,-0.018448634510387977,0.7029094360511652,0.0007334913243539631,0.006378566846251488,-7.724604802206159e-05,0.0,0.0,-0.6,0.0,0.0003371238708496094,0.0003371238708496094,0.00504302978515625,0
1.3198184967041016,0.015682606026530266,-0.004866897594183683,-0.24990415573120117,-0.018457482725989773,0.7027069826530725,0.0012109396047890186,0.005083166994154453,-6.53152892482467e-05,0.0,0.0,-0.6,0.0,0.0002601146697998047,0.0002601146697998047,0.0043621063232421875,0
1.3298859596252441,0.01583663560450077,-0.004918849561363459,-0.252480149269104,-0.01845145231258051,0.7025230915680869,0.00207825331017375,0.005311395041644573,-7.308171188924462e-05,0.0,0.0,-0.6,0.0,0.00040411949157714844,0.00040411949157714844,0.004664897918701172,0
1.3399887084960938,0.01614418439567089,-0.005023558158427477,-0.2576048970222473,-0.018471809175464603,0.7023223713071947,0.003800047794356942,0.006123869679868221,-9.306353604188189e-05,0.0,0.0,-0.6,0.0,0.0003371238708496094,0.0003371238708496094,0.00538182258605957,0
1.3500783443450928,0.016296187415719032,-0.005076780915260315,-0.2601528763771057,-0.018482844148497872,0.7021447032799008,0.003972902894020081,0.005376807879656553,-8.590519428253174e-05,0.0,0.0,-0.6,0.0,0.0006246566772460938,0.0006246566772460938,0.006739616394042969,0
1.359802484512329,0.01644720509648323,-0.005130033940076828,-0.2626914381980896,-0.01848953240558795,0.7019829720760908,0.003484714310616255,0.0054741594940423965,-8.433504990534857e-05,0.0,0.0,-0.6,0.0,0.000244140625,0.000244140625,0.004443168640136719,0
1.3697514533996582,0.016596566885709763,-0.0051833754405379295,-0.26522064208984375,-0.018495454816529693,0.7018327054317502,0.0038060417864471674,0.00402235658839345,-6.987648521317169e-05,0.0,0.0,-0.6,0.0,0.0003132820129394531,0.0003132820129394531,0.004702329635620117,0
1.3799333572387695,0.01689019426703453,-0.005290010012686253,-0.27025124430656433,-0.018543690648816988,0.7016509137398896,0.003994765225797892,0.0045328582637012005,-7.744398317299783e-05,0.0,0.0,-0.6,0.0,0.0004000663757324219,0.0004000663757324219,0.004498958587646484,0
1.390136957168579,0.01703418791294098,-0.005343080963939428,-0.27275338768959045,-0.018533919676999886,0.701481284871955,0.003717911196872592,0.003541058860719204,-6.450342334574088e-05,0.0,0.0,-0.6,0.0,0.00033092498779296875,0.00033092498779296875,0.004706859588623047,0
1.3998291492462158,0.017176156863570213,-0.00539578590542078,-0.27524614334106445,-0.01853904167725773,0.7013306511671695,0.0027373225893825293,0.0034028152003884315,-5.690056786988862e-05,0.0,0.0,-0.6,0.0,0.00022912025451660156,0.00022912025451660156,0.0035729408264160156,0
1.4099352359771729,0.01731749251484871,-0.005448326468467712,-0.27772757411003113,-0.018540044841637748,0.7011909884665454,0.003160217311233282,0.0035800382029265165,-6.173359724925831e-05,0.0,0.0,-0.6,0.0,0.0003008842468261719,0.0003008842468261719,0.004894256591796875,0
1.42020583152771,0.017457401379942894,-0.005500052589923143,-0.28019869327545166,-0.01853581646322821,0.7010616393262131,0.002334915567189455,0.002809946658089757,-4.7597586672054604e-05,0.0,0.0,-0.6,0.0,0.00047898292541503906,0.00047898292541503906,0.0048694610595703125,0
1.4298079013824463,0.017736006528139114,-0.005603537894785404,-0.28510716557502747,-0.018479783724526952,0.7009028499137707,0.0035852105356752872,0.006096421740949154,-9.425771713722497e-05,0.0,0.0,-0.6,0.0,0.0005242824554443359,0.0005242824554443359,0.005383014678955078,0
1.4401583671569824,0.017875880002975464,-0.0056544104591012,-0.2875462472438812,-0.018497703124341666,0.7007574148891785,0.0016231710324063897,0.004977684933692217,-6.874197424622253e-05,0.0,0.0,-0.6,0.0,0.0004937648773193359,0.0004937648773193359,0.00447392463684082,0
1.4500372409820557,0.01801481284201145,-0.005703093484044075,-0.28997498750686646,-0.01851019310159547,0.7006196038069515,-0.0004173493944108486,0.0058205085806548595,-6.526012293761596e-05,0.0,0.0,-0.6,0.0,0.00041103363037109375,0.00041103363037109375,0.06436944007873535,0
1.514983892440796,0.01801481284201145,-0.005703093484044075,-0.28997498750686646,-0.01851019310159547,0.7005233054071567,-0.00030251513817347586,0.004628778900951147,-5.207344293012284e-05,0.0,0.0,-0.6,0.0,0.00042891502380371094,0.00042891502380371094,0.0053255558013916016,0
1.5214574337005615,0.019216202199459076,-0.006075609941035509,-0.3113097846508026,-0.018503421269627736,0.7002564823230113,-0.002860610606148839,0.007880902849137783,-7.182612898759544e-05,0.0,0.0,-0.6,0.0,0.00032138824462890625,0.00032138824462890625,0.0037560462951660156,0
1.529775857925415,0.019344938918948174,-0.006112433038651943,-0.3136275112628937,-0.01850470769035429,0.7000471470482225,-0.000354111340129748,0.006301884539425373,-6.98029762133956e-05,0.0,0.0,-0.6,0.0,0.00041484832763671875,0.00041484832763671875,0.005412578582763672,0
1.539783239364624,0.01959959976375103,-0.006184512283653021,-0.3182223439216614,-0.018493678036416605,0.699850220353786,-0.0006639266503043473,0.007217251695692539,-7.786309288349003e-05,0.0,0.0,-0.6,0.0,0.00030112266540527344,0.00030112266540527344,0.004696369171142578,0
1.5499041080474854,0.01972690038383007,-0.006220296025276184,-0.3205000162124634,-0.01847718638453447,0.6996869309298483,0.0009349384345114231,0.00653552170842886,-8.032572077354416e-05,0.0,0.0,-0.6,0.0,0.00041484832763671875,0.00041484832763671875,0.005958080291748047,0
1.559760570526123,0.019849365577101707,-0.006255034357309341,-0.32276278734207153,-0.01846585829870546,0.6995578856468117,0.0012531712418422103,0.005007617641240358,-6.485726771643385e-05,0.0,0.0,-0.6,0.0,0.00023365020751953125,0.00023365020751953125,0.0043752193450927734,0
1.5698184967041016,0.01996968500316143,-0.006289821118116379,-0.3250109851360321,-0.018455315895068387,0.6994420710720697,0.0014928419841453433,0.003891742555424571,-5.368413621908985e-05,0.0,0.0,-0.6,0.0,0.0004801750183105469,0.0004801750183105469,0.0062313079833984375,0
1.5804338455200195,0.02013535238802433,-0.006294587627053261,-0.32984524965286255,-0.018437847353274733,0.6992961356718798,0.0013661590637639165,0.002785566495731473,-4.0346523746848106e-05,0.0,0.0,-0.6,0.0,0.00036907196044921875,0.00036907196044921875,0.005212068557739258,0
1.5899567604064941,0.020182395353913307,-0.0062667494639754295,-0.3324207067489624,-0.01843090593582918,0.6991572123180769,0.00024444301379844546,0.002035783836618066,-2.4658233087393455e-05,0.0,0.0,-0.6,0.0,0.00027823448181152344,0.00027823448181152344,0.004672050476074219,0
1.599895715713501,0.02022986300289631,-0.006238944362848997,-0.33499306440353394,-0.018423153056114788,0.6990308582902164,-0.0014523694990202785,0.0014896990032866597,-7.476758582924958e-06,0.0,0.0,-0.6,0.0,0.0003743171691894531,0.0003743171691894531,0.005010366439819336,0
1.6097567081451416,0.020278453826904297,-0.006210972089320421,-0.3375410735607147,-0.018422787445068464,0.6989109384030237,-0.0024091489613056183,0.0016154050827026367,-2.588880079201772e-06,0.0,0.0,-0.6,0.0,0.0003859996795654297,0.0003859996795654297,0.004884481430053711,0
1.6198561191558838,0.020376425236463547,-0.0061569190584123135,-0.3425651490688324,-0.018383786155005327,0.6987731217310708,-0.0029077716171741486,3.106059739366174e-05,1.8716295016929507e-05,0.0,0.0,-0.6,0.0,0.0004971027374267578,0.0004971027374267578,0.004024505615234375,0
1.6298856735229492,0.020422648638486862,-0.006130841560661793,-0.3450407385826111,-0.018373049720502584,0.6986495633254927,-0.0016663777641952038,-2.0420287910383195e-05,1.1232562428631354e-05,0.0,0.0,-0.6,0.0,0.0003838539123535156,0.0003838539123535156,0.004863262176513672,0
1.6398265361785889,0.02046937681734562,-0.0061060721054673195,-0.3474924564361572,-0.018373696542096453,0.6985396436621041,-0.0016745092580094934,-0.0002234086859971285,1.3607982509711292e-05,0.0,0.0,-0.6,0.0,0.00034427642822265625,0.00034427642822265625,0.00466609001159668,0
1.6499357223510742,0.02046937681734562,-0.0061060721054673195,-0.3474924564361572,-0.018373696542096453,0.6984627809109201,-0.0011717810994014144,-0.00020138848049100488,1.0023194590758067e-05,0.0,0.0,-0.6,0.0,0.00030040740966796875,0.00030040740966796875,0.0053174495697021484,0
1.6597716808319092,0.020610081031918526,-0.006040338426828384,-0.35470491647720337,-0.018356471964202502,0.6983364735498435,-0.0012313995976001024,-0.0007982211536727846,1.711722870822996e-05,0.0,0.0,-0.6,0.0,0.0003314018249511719,0.0003314018249511719,0.0048105716705322266,0
1.6706287860870361,0.020657792687416077,-0.0060197897255420685,-0.35710230469703674,-0.01835928620410886,0.6982217345449822,-0.00028389383805915713,-0.00043880435987375677,6.767357263015583e-06,0.0,0.0,-0.6,0.0,0.0006344318389892578,0.0006344318389892578,0.0056498050689697266,0
1.6798005104064941,0.020706214010715485,-0.006001387722790241,-0.3594752252101898,-0.01834925695651992,0.698125264291264,0.00134357251226902,-0.00043879548320546746,-4.146124410908669e-06,0.0,0.0,-0.6,0.0,0.00035834312438964844,0.00035834312438964844,0.00469970703125,0
1.6905558109283447,0.020753441378474236,-0.005984984803944826,-0.3618218004703522,-0.018351865145002946,0.6980480483655104,0.0007104069227352738,-0.001972623635083437,1.717956729407888e-05,0.0,0.0,-0.6,0.0,0.00032782554626464844,0.00032782554626464844,0.005071401596069336,0
1.6999566555023193,0.020845994353294373,-0.005949609447270632,-0.3664422631263733,-0.018386492850407717,0.6979452518813556,-0.0035500607918947935,-0.0014111530035734177,3.9284321246668696e-05,0.0,0.0,-0.6,0.0,0.00032329559326171875,0.00032329559326171875,0.004780769348144531,0
1.710024118423462,0.020845994353294373,-0.005949609447270632,-0.3664422631263733,-0.018386492850407717,0.6978732668788947,-0.002483024960383773,-0.0011466487776488066,2.921682425949257e-05,0.0,0.0,-0.6,0.0,0.0002529621124267578,0.0002529621124267578,0.004519224166870117,0
1.7198314666748047,0.02094155363738537,-0.005912004038691521,-0.3709743618965149,-0.018379073016817828,0.6977817684053703,-0.0022513223811984062,-0.00027181266341358423,1.79058697540313e-05,0.0,0.0,-0.6,0.0,0.00029158592224121094,0.00029158592224121094,0.003515958786010742,0
1.7303087711334229,0.02099050208926201,-0.005894865840673447,-0.3732067942619324,-0.018381307163949933,0.697700758430127,-0.002042106119915843,-0.00032217352418228984,1.7014368495438248e-05,0.0,0.0,-0.6,0.0,0.00034165382385253906,0.00034165382385253906,0.004314899444580078,0
1.7397534847259521,0.021084599196910858,-0.005860427860170603,-0.3776176869869232,-0.018392571128197713,0.6976184081376257,-0.002417508279904723,-0.003042584750801325,4.932025331072509e-05,0.0,0.0,-0.6,0.0,0.0002760887145996094,0.0002760887145996094,0.003904104232788086,0
1.7498092651367188,0.021084599196910858,-0.005860427860170603,-0.3776176869869232,-0.018392571128197713,0.6975606951825045,-0.001686878502368927,-0.0024492619559168816,3.796366218011826e-05,0.0,0.0,-0.6,0.0,0.0003833770751953125,0.0003833770751953125,0.004340648651123047,0
1.7597196102142334,0.02117215469479561,-0.005829615984112024,-0.3819505572319031,-0.018373330134903564,0.6975016065814539,-0.001599681912921369,-0.003721216693520546,5.1362421800149605e-05,0.0,0.0,-0.6,0.0,0.0002789497375488281,0.0002789497375488281,0.004723548889160156,0
1.770003080368042,0.02117215469479561,-0.005829615984112024,-0.3819505572319031,-0.018373330134903564,0.6974602262809099,-0.001112975412979722,-0.002988081192597747,4.009443364338949e-05,0.0,0.0,-0.6,0.0,0.0006663799285888672,0.0006663799285888672,0.006780147552490234,0
1.779874324798584,0.021296503022313118,-0.005781401880085468,-0.3882722854614258,-0.018331793731130603,0.6973998761600104,-0.003829192603006959,-0.005123944487422705,8.092880307231098e-05,0.0,0.0,-0.6,0.0,0.0003829002380371094,0.0003829002380371094,0.0039827823638916016,0
1.7900516986846924,0.021296503022313118,-0.005781401880085468,-0.3882722854614258,-0.018331793731130603,0.697357510781707,-0.002671485301107168,-0.004106566309928894,6.218760972842574e-05,0.0,0.0,-0.6,0.0,0.0002989768981933594,0.0002989768981933594,0.004899501800537109,0
1.7999446392059326,0.0213761143386364,-0.005750570446252823,-0.3923702538013458,-0.018322635102629527,0.6973173772093519,-0.00239140004850924,-0.004487650468945503,6.445222243200988e-05,0.0,0.0,-0.6,0.0,0.0003962516784667969,0.0003962516784667969,0.005446195602416992,0
1.810213565826416,0.0213761143386364,-0.005750570446252823,-0.3923702538013458,-0.018322635102629527,0.6972892746676077,-0.001665907446295023,-0.0035951167810708284,4.9974420107901096e-05,0.0,0.0,-0.6,0.0,0.0003457069396972656,0.0003457069396972656,0.005604743957519531,0
1.819889783859253,0.021482063457369804,-0.005702809430658817,-0.39834272861480713,-0.01836259896891917,0.6972659139208198,-0.0040493072010576725,-0.006936585996299982,0.00010137836943613365,0.0,0.0,-0.6,0.0,0.0003666877746582031,0.0003666877746582031,0.005300998687744141,0
1.8299994468688965,0.021482063457369804,-0.005702809430658817,-0.39834272861480713,-0.01836259896891917,0.6972494904357104,-0.0028220550157129765,-0.005547220353037119,7.829649985069409e-05,0.0,0.0,-0.6,0.0,0.00034999847412109375,0.00034999847412109375,0.004680156707763672,0
1.839935302734375,0.02154850773513317,-0.005671392660588026,-0.4022139012813568,-0.018372317569611676,0.697219072777364,-0.001349572790786624,-0.005512422416359186,6.875880353618413e-05,0.0,0.0,-0.6,0.0,0.0004851818084716797,0.0004851818084716797,0.0047686100006103516,0
1.8501431941986084,0.021580129861831665,-0.0056569818407297134,-0.4041164517402649,-0.018386332092292703,0.6971987675605125,-0.0009586556116119027,-0.005915137007832527,7.087274570949376e-05,0.0,0.0,-0.6,0.0,0.00028252601623535156,0.00028252601623535156,0.005656242370605469,0
1.859628677368164,0.021640876308083534,-0.005631298758089542,-0.4078500270843506,-0.01836525185819586,0.6971962587719538,0.0003259404329583049,-0.005355324130505323,5.690155740012415e-05,0.0,0.0,-0.6,0.0,0.00023508071899414062,0.00023508071899414062,0.0035037994384765625,0
1.870150089263916,0.021640876308083534,-0.005631298758089542,-0.4078500270843506,-0.01836525185819586,0.6971944947752712,0.00023801448696758598,-0.004285222850739956,4.568145232042298e-05,0.0,0.0,-0.6,0.0,0.00041556358337402344,0.00041556358337402344,0.005315065383911133,0
1.879739761352539,0.021703943610191345,-0.00560748390853405,-0.41148537397384644,-0.018369468892915956,0.6972087634365293,-0.0010365137131884694,-0.0019627197179943323,2.7799072995549068e-05,0.0,0.0,-0.6,0.0,0.0004127025604248047,0.0004127025604248047,0.004347562789916992,0
1.8902673721313477,0.021703943610191345,-0.00560748390853405,-0.41148537397384644,-0.018369468892915956,0.6972187199884359,-0.0007220105035230517,-0.0015650420682504773,2.1527586795855314e-05,0.0,0.0,-0.6,0.0,0.0005981922149658203,0.0005981922149658203,0.0053157806396484375,0
1.9002392292022705,0.021804530173540115,-0.005573139525949955,-0.41689619421958923,-0.018393470435388082,0.6972502351834085,-0.0011557574616745114,-0.001817431882955134,2.6621575671015307e-05,0.0,0.0,-0.6,0.0,0.0005500316619873047,0.0005500316619873047,0.00564265251159668,0
1.9100372791290283,0.02183702401816845,-0.005562921520322561,-0.418651819229126,-0.018389537392464364,0.6972699903420422,0.0004207880992908031,-0.0017590232891961932,1.6867179510882124e-05,0.0,0.0,-0.6,0.0,0.00026679039001464844,0.00026679039001464844,0.0033516883850097656,0
1.9198288917541504,0.021868936717510223,-0.005554304923862219,-0.4203854501247406,-0.018385887981894358,0.6972850023674094,0.0024964669719338417,-0.002853452693670988,1.7179123460664414e-05,0.0,0.0,-0.6,0.0,0.00039076805114746094,0.00039076805114746094,0.005026817321777344,0
1.9301726818084717,0.02189970389008522,-0.005548123735934496,-0.4220958650112152,-0.018396029669023425,0.6973043255244512,0.0030686643440276384,-0.002335592871531844,8.439533303317148e-06,0.0,0.0,-0.6,0.0,0.0003037452697753906,0.0003037452697753906,0.0046329498291015625,0
1.9398467540740967,0.021961918100714684,-0.00553568359464407,-0.42544662952423096,-0.0183767914095036,0.6973314868986424,0.0007057679467834532,-0.002021222375333309,1.8507695131120272e-05,0.0,0.0,-0.6,0.0,0.00023651123046875,0.00023651123046875,0.004267215728759766,0
1.9504594802856445,0.02199358493089676,-0.005530861206352711,-0.42708685994148254,-0.01836467833081816,0.6973646044940796,0.0021157790906727314,-0.0007260163547471166,-3.5049206417170353e-06,0.0,0.0,-0.6,0.0,0.0003669261932373047,0.0003669261932373047,0.005257129669189453,0
1.9598045349121094,0.022026285529136658,-0.005527326371520758,-0.42869266867637634,-0.01835265101097273,0.6973991707419817,0.0015697076451033354,-0.0005404325784184039,-2.470330173309776e-06,0.0,0.0,-0.6,0.0,0.0002257823944091797,0.0002257823944091797,0.0032231807708740234,0
1.9700696468353271,0.02205864153802395,-0.005523286759853363,-0.43027517199516296,-0.018354427207082594,0.6974393393857616,-0.0009966430952772498,-0.0009675953770056367,1.6123425666592084e-05,0.0,0.0,-0.6,0.0,0.0004432201385498047,0.0004432201385498047,0.007394075393676758,0
1.979644536972046,0.022052055224776268,-0.005491434596478939,-0.43367427587509155,-0.018356574478494706,0.6974859324778087,-0.0018816973315551877,-0.0022364917676895857,3.4721299016382545e-05,0.0,0.0,-0.6,0.0,0.00029468536376953125,0.00029468536376953125,0.005445718765258789,0
1.989715814590454,0.022015893831849098,-0.005465318914502859,-0.43548551201820374,-0.018342179451857073,0.6975229228680515,-0.0026105944998562336,-0.0018523908220231533,3.404611925361678e-05,0.0,0.0,-0.6,0.0,0.0003218650817871094,0.0003218650817871094,0.0036156177520751953,0
1.999760389328003,0.02198183722794056,-0.00543958880007267,-0.43726664781570435,-0.018316824121933244,0.6975510171769578,-0.0018559953896328807,-0.0019323766464367509,3.0846520530758426e-05,0.0,0.0,-0.6,0.0,0.00030040740966796875,0.00030040740966796875,0.0038034915924072266,0
2.0100057125091553,0.02198183722794056,-0.00543958880007267,-0.43726664781570435,-0.018316824121933244,0.6975706473410366,-0.0012957011349499226,-0.0015363593120127916,2.357544690312352e-05,0.0,0.0,-0.6,0.0,0.00048613548278808594,0.00048613548278808594,0.0060350894927978516,0
2.0198302268981934,0.02188948541879654,-0.00537057826295495,-0.44244277477264404,-0.01828624433344846,0.6975857712497133,-0.0007080387440510094,-0.0009804748697206378,1.4348210243042558e-05,0.0,0.0,-0.6,0.0,0.00027298927307128906,0.00027298927307128906,0.0036783218383789062,0
2.0304300785064697,0.021864058449864388,-0.005348948296159506,-0.444126695394516,-0.01825813723621903,0.6975983089876758,-0.0013881153427064419,-0.0005226285429671407,1.2731772585539147e-05,0.0,0.0,-0.6,0.0,0.0003132820129394531,0.0003132820129394531,0.003803253173828125,0
2.039759635925293,0.021840082481503487,-0.005326931364834309,-0.44578394293785095,-0.01825146626885481,0.6976078688804418,-0.002450237050652504,-0.0017310134135186672,3.126684168819338e-05,0.0,0.0,-0.6,0.0,0.0003113746643066406,0.0003113746643066406,0.0035479068756103516,0
2.0497586727142334,0.021840082481503487,-0.005326931364834309,-0.44578394293785095,-0.01825146626885481,0.6976145293937417,-0.0017120663542300463,-0.001378218294121325,2.3667736968491226e-05,0.0,0.0,-0.6,0.0,0.0002605915069580078,0.0002605915069580078,0.0038814544677734375,0
2.059947967529297,0.02178894728422165,-0.005282467231154442,-0.44901615381240845,-0.018240114534648747,0.6976348240266345,-0.0022928861435502768,-0.0038679977878928185,5.346430771169253e-05,0.0,0.0,-0.6,0.0,0.00032019615173339844,0.00032019615173339844,0.00492405891418457,0
2.069991111755371,0.021744314581155777,-0.005236959084868431,-0.4521431624889374,-0.01821758336385015,0.6976546088376848,-0.002296936232596636,-0.0029961292166262865,4.372709372546524e-05,0.0,0.0,-0.6,0.0,0.00022482872009277344,0.00022482872009277344,0.003945827484130859,0
2.079864263534546,0.021725067868828773,-0.0052156345918774605,-0.45366957783699036,-0.01819858969149593,0.6976699662140978,-0.001767000649124384,-0.0020786405075341463,3.1086583476280794e-05,0.0,0.0,-0.6,0.0,0.0003707408905029297,0.0003707408905029297,0.0039484500885009766,0
2.08988356590271,0.021725067868828773,-0.0052156345918774605,-0.45366957783699036,-0.01819858969149593,0.6976806613551565,-0.0012331679463386536,-0.0016563556855544448,2.3898064682725817e-05,0.0,0.0,-0.6,0.0,0.0004055500030517578,0.0004055500030517578,0.005381584167480469,0
2.0998423099517822,0.021690580993890762,-0.005176479462534189,-0.45664796233177185,-0.01817884157514663,0.6977014635814579,7.008053216850385e-05,-0.0015978177543729544,1.6992815289995633e-05,0.0,0.0,-0.6,0.0,0.00025391578674316406,0.00025391578674316406,0.0035190582275390625,0
2.110323190689087,0.021690580993890762,-0.005176479462534189,-0.45664796233177185,-0.01817884157514663,0.6977160365694047,5.188030991121195e-05,-0.0012739357771351933,1.3568187569035217e-05,0.0,0.0,-0.6,0.0,0.00037598609924316406,0.00037598609924316406,0.00518345832824707,0
2.1197526454925537,0.02165652997791767,-0.005125582218170166,-0.4609750211238861,-0.018152024437522403,0.6977538780852149,0.001012176857329905,0.0009422837756574154,-1.5114296729734633e-05,0.0,0.0,-0.6,0.0,0.0001914501190185547,0.0001914501190185547,0.003490447998046875,0
2.1300032138824463,0.02165652997791767,-0.005125582218170166,-0.4609750211238861,-0.018152024437522403,0.6977804365864082,0.0007066115504130721,0.0007596694631502032,-1.166887886938639e-05,0.0,0.0,-0.6,0.0,0.000308990478515625,0.000308990478515625,0.004548788070678711,0
2.139991044998169,0.02164367400109768,-0.005088527221232653,-0.465084433555603,-0.018141686455746382,0.697818627571455,0.002578810090199113,0.003356614150106907,-4.8942652938421816e-05,0.0,0.0,-0.6,0.0,0.0003592967987060547,0.0003592967987060547,0.0045909881591796875,0
2.1499972343444824,0.021642319858074188,-0.0050775958225131035,-0.46640923619270325,-0.018126946377256845,0.6978552891972327,0.0015286315465345979,0.001979030668735504,-2.8912851121276617e-05,0.0,0.0,-0.6,0.0,0.000202178955078125,0.000202178955078125,0.0030851364135742188,0
2.1598093509674072,0.021641649305820465,-0.0050663999281823635,-0.46771061420440674,-0.018119555808291884,0.6978951215542053,-0.0004796799912583083,0.0016377975698560476,-1.580520620336756e-05,0.0,0.0,-0.6,0.0,0.00028014183044433594,0.00028014183044433594,0.00404810905456543,0
2.1706202030181885,0.021641625091433525,-0.005055511835962534,-0.46898913383483887,-0.01813895539091864,0.6979296256562981,0.0011367592960596085,0.00047894669114612043,-1.046258239512099e-05,0.0,0.0,-0.6,0.0,0.0004980564117431641,0.0004980564117431641,0.005447864532470703,0
2.1796422004699707,0.021644340828061104,-0.0050384048372507095,-0.4714846909046173,-0.018133435976951884,0.6979839440740646,0.0009657565969973803,0.00119885359890759,-1.7587321053724736e-05,0.0,0.0,-0.6,0.0,0.00021505355834960938,0.00021505355834960938,0.002995014190673828,0
2.1901493072509766,0.021644340828061104,-0.0050384048372507095,-0.4714846909046173,-0.018133435976951884,0.6980220078418891,0.0006735514616593719,0.0009684255928732455,-1.3733250852965284e-05,0.0,0.0,-0.6,0.0,0.00040984153747558594,0.00040984153747558594,0.005283355712890625,0
2.19980525970459,0.021653611212968826,-0.005022759083658457,-0.4738874137401581,-0.018133910685519162,0.6980746362339803,-0.0012830952182412148,0.0005583582678809762,-4.234421453475079e-07,0.0,0.0,-0.6,0.0,0.0001780986785888672,0.0001780986785888672,0.004044532775878906,0
2.2103466987609863,0.02166171558201313,-0.00501409824937582,-0.4750569760799408,-0.018130560135489887,0.6981226409518778,-0.0012067761272192001,0.0010071287397295237,-5.720648914575577e-06,0.0,0.0,-0.6,0.0,0.0002548694610595703,0.0002548694610595703,0.004830121994018555,0
2.2201056480407715,0.02168266661465168,-0.0049991910345852375,-0.47733280062675476,-0.018123878782189913,0.6981823491533748,-0.000655564886983484,0.0014494970673695207,-1.3054962437308859e-05,0.0,0.0,-0.6,0.0,0.00043582916259765625,0.00043582916259765625,0.004635334014892578,0
2.23008131980896,0.021695224568247795,-0.004992857575416565,-0.47843942046165466,-0.0181233113311072,0.6982427184133909,0.0007224103901535273,0.0014007415156811476,-1.866239654191304e-05,0.0,0.0,-0.6,0.0,0.0002484321594238281,0.0002484321594238281,0.003462553024291992,0
2.2397539615631104,0.021709226071834564,-0.004988403525203466,-0.47952383756637573,-0.018134494544374803,0.6983056667091873,0.0019486203091219068,0.001715139951556921,-2.7532998501555994e-05,0.0,0.0,-0.6,0.0,0.0003695487976074219,0.0003695487976074219,0.004533290863037109,0
2.2500805854797363,0.021724501624703407,-0.004986155312508345,-0.48059117794036865,-0.018140671467780787,0.6983687274687054,0.0025633315090090036,0.001500178361311555,-2.7854546715389006e-05,0.0,0.0,-0.6,0.0,0.00022220611572265625,0.00022220611572265625,0.0040590763092041016,0
2.2597620487213135,0.02175980433821678,-0.004980925470590591,-0.48266077041625977,-0.018128100497612012,0.6984565188537194,-0.0005442724796012044,0.0015333342598751187,-1.44797113534878e-05,0.0,0.0,-0.6,0.0,0.00021004676818847656,0.00021004676818847656,0.0030481815338134766,0
2.2701244354248047,0.02175980433821678,-0.004980925470590591,-0.48266077041625977,-0.018128100497612012,0.6985179631667656,-0.0003840030694846064,0.0012457165867090225,-1.2015668289677706e-05,0.0,0.0,-0.6,0.0,0.0004572868347167969,0.0004572868347167969,0.005277872085571289,0
2.2796475887298584,0.021799301728606224,-0.004972988273948431,-0.484643816947937,-0.01813100324465621,0.6986080468540247,-0.0026665811892598867,0.0029935939237475395,-2.121397847076878e-05,0.0,0.0,-0.6,0.0,0.0002455711364746094,0.0002455711364746094,0.003423452377319336,0
2.290081262588501,0.021799301728606224,-0.004972988273948431,-0.484643816947937,-0.01813100324465621,0.6986712011209619,-0.00187187478877604,0.0024179131723940372,-1.8334400010644458e-05,0.0,0.0,-0.6,0.0,0.0004208087921142578,0.0004208087921142578,0.0043141841888427734,0
2.3001272678375244,0.021845830604434013,-0.004963127430528402,-0.486544132232666,-0.018168444330612935,0.698757863811055,-0.0007900676573626697,0.0034705752041190863,-3.479354927549139e-05,0.0,0.0,-0.6,0.0,0.0007481575012207031,0.0007481575012207031,0.008342266082763672,0
2.310084581375122,0.021898195147514343,-0.00495612109079957,-0.48836472630500793,-0.018135381728141463,0.69885887364415,-0.002163751982152462,0.004010178614407778,-3.4446289646439254e-05,0.0,0.0,-0.6,0.0,0.0003566741943359375,0.0003566741943359375,0.00621342658996582,0
2.3200724124908447,0.02192787453532219,-0.004951395560055971,-0.4892043173313141,-0.018135409825269722,0.6989509528124991,-0.0019404384074732661,0.004423909820616245,-3.9974696846911684e-05,0.0,0.0,-0.6,0.0,0.000457763671875,0.000457763671875,0.0045490264892578125,0
2.330512046813965,0.021959204226732254,-0.004946799948811531,-0.4900263249874115,-0.018137821520996432,0.6990368420792623,-0.0013169702142477036,0.003991992212831974,-3.7936992157483473e-05,0.0,0.0,-0.6,0.0,0.0005304813385009766,0.0005304813385009766,0.008538007736206055,0
2.34014630317688,0.02202446758747101,-0.004939488600939512,-0.49161967635154724,-0.018138925437394253,0.6991392635204455,-0.00014446652494370937,0.0031657156068831682,-3.401881622266956e-05,0.0,0.0,-0.6,0.0,0.0006814002990722656,0.0006814002990722656,0.0033915042877197266,0
2.3499858379364014,0.022047370672225952,-0.004939415492117405,-0.49239036440849304,-0.018149241893688255,0.6992348684836016,-0.0010256314417347312,0.0026277329307049513,-2.4056125766946934e-05,0.0,0.0,-0.6,0.0,0.0002906322479248047,0.0002906322479248047,0.004021883010864258,0
2.359941005706787,0.02207130752503872,-0.004939178936183453,-0.49314409494400024,-0.018162401533846222,0.6993227993120177,-1.2423039152054116e-05,0.0022696712985634804,-2.4739085347391665e-05,0.0,0.0,-0.6,0.0,0.0004169940948486328,0.0004169940948486328,0.004643440246582031,0
2.3698694705963135,0.022096510976552963,-0.004940387327224016,-0.49388155341148376,-0.018166168605723863,0.6994071240613258,0.0011166875483468175,0.002665637293830514,-3.425155591685325e-05,0.0,0.0,-0.6,0.0,0.00043201446533203125,0.00043201446533203125,0.005124568939208984,0
2.3802082538604736,0.02220594882965088,-0.004954101517796516,-0.49559804797172546,-0.01817210927168528,0.6995023061255046,0.0011097649112343788,0.004548624157905579,-5.516342571354471e-05,0.0,0.0,-0.6,0.0,0.0004520416259765625,0.0004520416259765625,0.0050928592681884766,0
2.3898470401763916,0.022288484498858452,-0.004965617321431637,-0.49655139446258545,-0.018170280183608164,0.6995753169651999,0.00037078565219417214,0.004190591163933277,-4.794224150828086e-05,0.0,0.0,-0.6,0.0,0.000335693359375,0.000335693359375,0.004877567291259766,0
2.399859666824341,0.0223707165569067,-0.0049769142642617226,-0.4974839985370636,-0.018183372518495642,0.6996336270442859,0.000655404117424041,0.003902651136741042,-4.6127275709295645e-05,0.0,0.0,-0.6,0.0,0.0003008842468261719,0.0003008842468261719,0.003739595413208008,0
2.409822463989258,0.022452162578701973,-0.004988994915038347,-0.49839600920677185,-0.018181687944430026,0.6996847816483692,0.0017877566860988736,0.0032336991280317307,-4.391066249809228e-05,0.0,0.0,-0.6,0.0,0.00025653839111328125,0.00025653839111328125,0.004809141159057617,0
2.4198920726776123,0.022614285349845886,-0.005018532741814852,-0.5001558065414429,-0.018177930654424638,0.6997530478216385,0.004377255216240883,0.003950322046875954,-6.380707782227546e-05,0.0,0.0,-0.6,0.0,0.00026679039001464844,0.00026679039001464844,0.00446009635925293,0
2.4301459789276123,0.022695383056998253,-0.005034288857132196,-0.5010026097297668,-0.018189540500111057,0.6998171275360388,0.0023888086434453726,0.003233721712604165,-4.688270564656705e-05,0.0,0.0,-0.6,0.0,0.00040221214294433594,0.00040221214294433594,0.0043447017669677734,0
2.4396934509277344,0.022775426506996155,-0.005048723425716162,-0.5018292665481567,-0.01819591158994665,0.6998740916544304,0.0003530139510985464,0.0027921386063098907,-3.266217026975937e-05,0.0,0.0,-0.6,0.0,0.00022935867309570312,0.00022935867309570312,0.0034744739532470703,0
2.4498226642608643,0.022855795919895172,-0.005061378236860037,-0.5026357769966125,-0.01820870186190893,0.6999302313327083,-0.0011956131784245372,0.003416210412979126,-3.241265949327499e-05,0.0,0.0,-0.6,0.0,0.00028133392333984375,0.00028133392333984375,0.0038721561431884766,0
2.459969997406006,0.023017993196845055,-0.005086095072329044,-0.5041804909706116,-0.018216145550020206,0.6999833982652389,-0.0011535047087818384,0.0052041057497262955,-5.255674841464497e-05,0.0,0.0,-0.6,0.0,0.0004315376281738281,0.0004315376281738281,0.00478672981262207,0
2.4700098037719727,0.023099564015865326,-0.005096681881695986,-0.5049204230308533,-0.018220564412397253,0.7000387490615688,-0.0016503834631294012,0.004032899159938097,-3.721359826158732e-05,0.0,0.0,-0.6,0.0,0.0002446174621582031,0.0002446174621582031,0.004118442535400391,0
2.4799423217773438,0.023181218653917313,-0.005106776021420956,-0.5056408047676086,-0.018231571731868085,0.7000992907133463,-0.0011547154281288385,0.004533478524535894,-4.5112570660421625e-05,0.0,0.0,-0.6,0.0,0.0004305839538574219,0.0004305839538574219,0.004177570343017578,0
2.4901344776153564,0.023263880982995033,-0.00511731393635273,-0.5063415169715881,-0.0182480719129064,0.7001606088779927,7.907075632829219e-05,0.005085755605250597,-5.7009761803783476e-05,0.0,0.0,-0.6,0.0,0.0003306865692138672,0.0003306865692138672,0.004765033721923828,0
2.4997074604034424,0.023353736847639084,-0.005130868870764971,-0.5070250034332275,-0.018264631541359596,0.7002142681807166,0.0014158838894218206,0.005529021844267845,-6.827941979281604e-05,0.0,0.0,-0.6,0.0,0.00021958351135253906,0.00021958351135253906,0.003094196319580078,0
2.5102531909942627,0.023353736847639084,-0.005130868870764971,-0.5070250034332275,-0.018264631541359596,0.7002518744120504,0.0009806581074371934,0.004432016517966986,-5.405743286246434e-05,0.0,0.0,-0.6,0.0,0.0003833770751953125,0.0003833770751953125,0.006345033645629883,0
2.519777536392212,0.023630496114492416,-0.005176797043532133,-0.508971631526947,-0.018306335436877073,0.7003325480698632,0.002056163502857089,0.007856323383748531,-9.723136463435367e-05,0.0,0.0,-0.6,0.0,0.0002307891845703125,0.0002307891845703125,0.0038089752197265625,0
2.529794931411743,0.023630496114492416,-0.005176797043532133,-0.508971631526947,-0.018306335436877073,0.700389046026993,0.001424256362952292,0.00629816297441721,-7.697144610574469e-05,0.0,0.0,-0.6,0.0,0.00027251243591308594,0.00027251243591308594,0.004203081130981445,0
2.539890766143799,0.023913847282528877,-0.005216768477112055,-0.5107381939888,-0.018332187160616624,0.7004810662970111,-9.123472409555689e-05,0.00948827713727951,-0.00010541646042838693,0.0,0.0,-0.6,0.0,0.0002880096435546875,0.0002880096435546875,0.003587007522583008,0
2.5500247478485107,0.02401183359324932,-0.005230510141700506,-0.5112898349761963,-0.018320654189732742,0.7005700312902051,0.0004731130611617118,0.009165375493466854,-0.00010441224003443494,0.0,0.0,-0.6,0.0,0.00037097930908203125,0.00037097930908203125,0.0040416717529296875,0
2.560058116912842,0.02411074750125408,-0.005244396161288023,-0.5118252635002136,-0.01833803308725965,0.700650048398175,0.00044552484177984297,0.008571343496441841,-9.757714724401012e-05,0.0,0.0,-0.6,0.0,0.00042247772216796875,0.00042247772216796875,0.0045871734619140625,0
2.5699198246002197,0.024311235174536705,-0.005270443856716156,-0.5128506422042847,-0.018343181833953084,0.7007467218165804,-0.00030000583501532674,0.009548679925501347,-0.00010464176011737436,0.0,0.0,-0.6,0.0,0.00028204917907714844,0.00028204917907714844,0.004883289337158203,0
