time,x,y,z,yaw,throttle,roll_rate,pitch_rate,yaw_rate,x_ref,y_ref,z_ref,yaw_ref,pred_time,nr_time,ctrl_callback_time,metadata
9.5367431640625e-07,0.11965479701757431,0.016248317435383797,1.013857126235962,-0.1719486345158727,0.7610810792254118,-0.20526301860809326,0.800000011920929,6.031033450426548e-10,0.0,0.0,-0.6,-0.1719486345158727,0.19913792610168457,0.19913792610168457,0.26169610023498535,Sim
0.2618906497955322,0.11965479701757431,0.016248317435383797,1.013857126235962,-0.1719486345158727,0.8054204824279159,-0.11755380779504776,0.6907970309257507,6.031033450426548e-10,0.0,0.0,-0.6,-0.1719486345158727,0.0006105899810791016,0.0006105899810791016,0.003320932388305664,flat wardi with jax
0.2697882652282715,0.11786156892776489,0.01163176167756319,1.0219206809997559,-0.17253207396818854,0.8354707371158117,-0.016056209802627563,0.4800052344799042,2.5451001306464605e-09,0.0,0.0,-0.6,-0.17253207396818854,0.0002048015594482422,0.0002048015594482422,0.0030231475830078125,1x Speed
0.2794914245605469,0.11878132075071335,0.011549009010195732,1.0244313478469849,-0.17253578194833588,0.8560470372842541,-0.008584190160036087,0.37003374099731445,-2.6367039662744673e-09,0.0,0.0,-0.6,-0.17253578194833588,0.00016832351684570312,0.00016832351684570312,0.003176450729370117,circle_horz_ref_func
0.28970861434936523,0.1192718967795372,0.011514943093061447,1.025750994682312,-0.17254435593775058,0.8702491947948218,-0.004688546992838383,0.29172641038894653,-6.214459502551506e-10,0.0,0.0,-0.6,-0.17254435593775058,0.00019860267639160156,0.00019860267639160156,0.0030450820922851562,0
0.2997009754180908,0.11978612095117569,0.011489088647067547,1.027113914489746,-0.1725278983627457,0.8801281803927484,-0.0026439735665917397,0.23502440750598907,1.7608408064972991e-09,0.0,0.0,-0.6,-0.1725278983627457,0.0002079010009765625,0.0002079010009765625,0.003349781036376953,0
0.3096306324005127,0.12032171338796616,0.01146672386676073,1.028518557548523,-0.1725085458701836,0.8870452117304456,-0.0010724964085966349,0.19170522689819336,-1.667620264100833e-09,0.0,0.0,-0.6,-0.1725085458701836,0.00017309188842773438,0.00017309188842773438,0.002850055694580078,0
0.319643497467041,0.12087828665971756,0.011448190547525883,1.029964566230774,-0.17249327162318828,0.8919129246057842,-0.0008261675829999149,0.15728545188903809,2.9817712743351876e-09,0.0,0.0,-0.6,-0.17249327162318828,0.00022220611572265625,0.00022220611572265625,0.00337982177734375,0
0.3298623561859131,0.12145006656646729,0.011435550637543201,1.0314241647720337,-0.17248896679233414,0.8951823011388416,-0.0025995613541454077,0.12768122553825378,1.955208439596845e-09,0.0,0.0,-0.6,-0.17248896679233414,0.00022220611572265625,0.00022220611572265625,0.0033016204833984375,0
0.339613676071167,0.12094377726316452,0.01125314924865961,1.0304535627365112,-0.1724015969483698,0.8963693153143567,-0.009791282005608082,0.10814806818962097,3.5212566196207717e-09,0.0,0.0,-0.6,-0.1724015969483698,0.0001850128173828125,0.0001850128173828125,0.003508329391479492,0
0.34988832473754883,0.11991145461797714,0.011092886328697205,1.0279927253723145,-0.17234378414173002,0.896361411587181,-0.013227569870650768,0.08953283727169037,-7.999005902092904e-10,0.0,0.0,-0.6,-0.17234378414173002,0.00020742416381835938,0.00020742416381835938,0.0031909942626953125,0
0.3597118854522705,0.11893756687641144,0.010951723903417587,1.0253918170928955,-0.17227238174752915,0.8954297124860198,-0.015630418434739113,0.07577577978372574,2.8803941454214055e-09,0.0,0.0,-0.6,-0.17227238174752915,0.00025343894958496094,0.00025343894958496094,0.0039942264556884766,0
0.369748592376709,0.1171744167804718,0.010729893110692501,1.019675850868225,-0.17212975952218826,0.8927616153941489,-0.026647763326764107,0.07417182624340057,1.538606353435057e-09,0.0,0.0,-0.6,-0.17212975952218826,0.00023126602172851562,0.00023126602172851562,0.00411677360534668,0
0.3799736499786377,0.11638341099023819,0.01064871996641159,1.0165282487869263,-0.17206283937509553,0.8898289309269557,-0.026184141635894775,0.0661439374089241,-2.6226136817797396e-09,0.0,0.0,-0.6,-0.17206283937509553,0.00039649009704589844,0.00039649009704589844,0.00515437126159668,0
0.3895120620727539,0.1156514436006546,0.010585874319076538,1.0131763219833374,-0.17200341357537371,0.886699295631653,-0.02614479698240757,0.06016125902533531,3.025602879347389e-09,0.0,0.0,-0.6,-0.17200341357537371,0.0002129077911376953,0.0002129077911376953,0.0030896663665771484,0
0.3996615409851074,0.11497882008552551,0.010541798546910286,1.0096162557601929,-0.17193718080164025,0.8834172245288365,-0.026892201974987984,0.05653559789061546,-1.8142563007472745e-09,0.0,0.0,-0.6,-0.17193718080164025,0.00021648406982421875,0.00021648406982421875,0.003274202346801758,0
0.40976691246032715,0.11436281353235245,0.010517196729779243,1.0058256387710571,-0.17186591040629784,0.8800209819182444,-0.028177132830023766,0.05190397426486015,3.3625795481384557e-09,0.0,0.0,-0.6,-0.17186591040629784,0.00021886825561523438,0.00021886825561523438,0.0032262802124023438,0
0.41960835456848145,0.11328227072954178,0.010526592843234539,0.9976104497909546,-0.17179617796624952,0.8754510495150436,-0.03912074491381645,0.05571264028549194,-5.356244336951477e-10,0.0,0.0,-0.6,-0.17179617796624952,0.00019478797912597656,0.00019478797912597656,0.0030760765075683594,0
0.4298069477081299,0.11281154304742813,0.01056013721972704,0.9931855201721191,-0.17176575420763196,0.871143752232387,-0.03701094537973404,0.0491301454603672,2.5011495097260195e-09,0.0,0.0,-0.6,-0.17176575420763196,0.00019812583923339844,0.00019812583923339844,0.0030698776245117188,0
0.4395909309387207,0.1123868077993393,0.010612178593873978,0.9885500073432922,-0.17174305505882662,0.8670279856343353,-0.036107104271650314,0.0440361350774765,-1.7670922503043585e-09,0.0,0.0,-0.6,-0.17174305505882662,0.00018143653869628906,0.00018143653869628906,0.0032761096954345703,0
0.44968628883361816,0.11166170239448547,0.010774862952530384,0.9786601662635803,-0.17170934766132623,0.8619796645459821,-0.047271840274333954,0.04791910573840141,-4.724931557120726e-11,0.0,0.0,-0.6,-0.17170934766132623,0.00020384788513183594,0.00020384788513183594,0.0030906200408935547,0
0.4596595764160156,0.1113572046160698,0.01088353618979454,0.9734132289886475,-0.17167937907534042,0.8573743390126978,-0.044089194387197495,0.041267555207014084,-3.552816707497186e-09,0.0,0.0,-0.6,-0.17167937907534042,0.00020623207092285156,0.00020623207092285156,0.00330352783203125,0
0.4696638584136963,0.11108788847923279,0.011010033078491688,0.9679716229438782,-0.17165682089111794,0.8530858106697424,-0.04164900258183479,0.036158885806798935,2.3551274264121957e-09,0.0,0.0,-0.6,-0.17165682089111794,0.0001804828643798828,0.0001804828643798828,0.002878427505493164,0
0.47963547706604004,0.1108526811003685,0.011152859777212143,0.9623281359672546,-0.17162244346849365,0.8490262114399159,-0.039538804441690445,0.03212816268205643,2.938408627528588e-09,0.0,0.0,-0.6,-0.17162244346849365,0.00019788742065429688,0.00019788742065429688,0.0033614635467529297,0
0.4899003505706787,0.11047623306512833,0.011485384777188301,0.9504839181900024,-0.17156242481398526,0.8441332003483407,-0.04826163128018379,0.03524406999349594,1.1618279671665732e-09,0.0,0.0,-0.6,-0.17156242481398526,0.00033473968505859375,0.00033473968505859375,0.004754543304443359,0
0.4996352195739746,0.11033155024051666,0.011675214394927025,0.9442934989929199,-0.17154440072743432,0.8396898757036813,-0.04477475583553314,0.029683444648981094,-1.34473054913542e-09,0.0,0.0,-0.6,-0.17154440072743432,0.0002269744873046875,0.0002269744873046875,0.0032737255096435547,0
0.5097219944000244,0.11021890491247177,0.011880057863891125,0.9379305243492126,-0.17152830238216366,0.8355782970975759,-0.04173065349459648,0.025887079536914825,-2.649769959006676e-09,0.0,0.0,-0.6,-0.17152830238216366,0.000213623046875,0.000213623046875,0.003147125244140625,0
0.5194895267486572,0.11007386445999146,0.012333730235695839,0.9247130751609802,-0.17147646230269198,0.8307662501938927,-0.05040620267391205,0.029532525688409805,-3.3496250217979195e-09,0.0,0.0,-0.6,-0.17147646230269198,0.00019097328186035156,0.00019097328186035156,0.003200531005859375,0
0.5296542644500732,0.11003977805376053,0.012580005452036858,0.9178688526153564,-0.1714692750627312,0.826441309528024,-0.04464004933834076,0.025077564641833305,2.670283549832675e-09,0.0,0.0,-0.6,-0.1714692750627312,0.00019669532775878906,0.00019669532775878906,0.0029795169830322266,0
0.5396633148193359,0.110028937458992,0.012837648391723633,0.9108743071556091,-0.1714555230745592,0.8224734752284208,-0.04072510823607445,0.021310625597834587,9.918803556274725e-10,0.0,0.0,-0.6,-0.1714555230745592,0.00020313262939453125,0.00020313262939453125,0.003282785415649414,0
0.5496242046356201,0.11004021763801575,0.013106031343340874,0.9037133455276489,-0.17146252655399052,0.8187751357105828,-0.03701244667172432,0.01828434318304062,2.0626509389387593e-09,0.0,0.0,-0.6,-0.17146252655399052,0.0001742839813232422,0.0001742839813232422,0.0029501914978027344,0
0.5596737861633301,0.11007174104452133,0.013384965248405933,0.8964134454727173,-0.1714765981058899,0.8152745489742408,-0.0356949046254158,0.015696648508310318,-3.1033140501790513e-09,0.0,0.0,-0.6,-0.1714765981058899,0.00020051002502441406,0.00020051002502441406,0.0031495094299316406,0
0.5697529315948486,0.11019577085971832,0.013974098488688469,0.8814154863357544,-0.1714577495239179,0.8110597881039422,-0.04252798855304718,0.0200018510222435,2.7490660858831006e-09,0.0,0.0,-0.6,-0.1714577495239179,0.00019979476928710938,0.00019979476928710938,0.0031108856201171875,0
0.5795519351959229,0.11029275506734848,0.014283687807619572,0.8737279772758484,-0.17146277138528299,0.8072481744263804,-0.0389290414750576,0.01721319928765297,2.5278295012753915e-09,0.0,0.0,-0.6,-0.17146277138528299,0.00018715858459472656,0.00018715858459472656,0.003070831298828125,0
0.589846134185791,0.1104089692234993,0.014602157287299633,0.8659241795539856,-0.1714695660816073,0.8037426694031881,-0.035339921712875366,0.01508884597569704,3.217596855620286e-09,0.0,0.0,-0.6,-0.1714695660816073,0.0002014636993408203,0.0002014636993408203,0.0030198097229003906,0
0.5995962619781494,0.11069288104772568,0.015262017957866192,0.8499835729598999,-0.17149775279802962,0.7996478477715601,-0.04129395633935928,0.01754210703074932,4.3509107428008065e-10,0.0,0.0,-0.6,-0.17149775279802962,0.00017881393432617188,0.00017881393432617188,0.003053903579711914,0
0.6097226142883301,0.11085698008537292,0.015603931620717049,0.8418551683425903,-0.1715023793820107,0.795981375364466,-0.03727690503001213,0.013225048780441284,-4.888658367008247e-10,0.0,0.0,-0.6,-0.1715023793820107,0.0002014636993408203,0.0002014636993408203,0.003072500228881836,0
0.6196639537811279,0.11103430390357971,0.015953674912452698,0.8336227536201477,-0.17151910875965684,0.792631607943613,-0.03488211706280708,0.010010297410190105,2.003127441696506e-09,0.0,0.0,-0.6,-0.17151910875965684,0.00035834312438964844,0.00035834312438964844,0.004597663879394531,0
0.6297264099121094,0.11122490465641022,0.016310373321175575,0.8252969980239868,-0.17151895471568027,0.7895167227208267,-0.031797587871551514,0.008613009005784988,1.7019292641862194e-09,0.0,0.0,-0.6,-0.17151895471568027,0.00028324127197265625,0.00028324127197265625,0.004111289978027344,0
0.6396973133087158,0.11142890155315399,0.01667208783328533,0.8168824315071106,-0.17154644291411952,0.7865828007016604,-0.028593620285391808,0.007154577877372503,6.328670226762867e-11,0.0,0.0,-0.6,-0.17154644291411952,0.00023293495178222656,0.00023293495178222656,0.0033469200134277344,0
0.6497855186462402,0.11187612265348434,0.01740732043981552,0.7998049855232239,-0.17161598774287262,0.7830740696566738,-0.030632343143224716,0.00971168465912342,2.8616633507283495e-09,0.0,0.0,-0.6,-0.17161598774287262,0.00022554397583007812,0.00022554397583007812,0.0032939910888671875,0
0.6596214771270752,0.1121176928281784,0.017780188471078873,0.7911521196365356,-0.1716245302986798,0.779910258208188,-0.02694687433540821,0.00640069181099534,-2.9887705643716345e-09,0.0,0.0,-0.6,-0.1716245302986798,0.0001823902130126953,0.0001823902130126953,0.0030984878540039062,0
0.6698098182678223,0.11236889660358429,0.018154792487621307,0.7824288606643677,-0.17165217897072985,0.7770019598039676,-0.02252957597374916,0.0046814437955617905,8.769975856637302e-10,0.0,0.0,-0.6,-0.17165217897072985,0.00021028518676757812,0.00021028518676757812,0.003184795379638672,0
0.6795024871826172,0.11262962222099304,0.01853064075112343,0.7736395597457886,-0.17167068954439704,0.7742864948059074,-0.021131187677383423,0.003308253362774849,-3.079068999767287e-09,0.0,0.0,-0.6,-0.17167068954439704,0.0001747608184814453,0.0001747608184814453,0.003056764602661133,0
0.6896908283233643,0.11289944499731064,0.018909843638539314,0.7647868394851685,-0.17170641620459914,0.7717140084339589,-0.020911015570163727,0.0023812279105186462,-7.193068363164912e-10,0.0,0.0,-0.6,-0.17170641620459914,0.00020313262939453125,0.00020313262939453125,0.003175020217895508,0
0.6995716094970703,0.1134599894285202,0.019676515832543373,0.7468205094337463,-0.17173299759759644,0.7686294160918108,-0.02456059679389,0.0018394102808088064,3.5792968589021257e-09,0.0,0.0,-0.6,-0.17173299759759644,0.0002155303955078125,0.0002155303955078125,0.003415822982788086,0
0.7095799446105957,0.11374753713607788,0.02006242424249649,0.7377619743347168,-0.17174996135845183,0.7658370949549343,-0.021880285814404488,-0.0007426514057442546,-7.753442332614213e-10,0.0,0.0,-0.6,-0.17174996135845183,0.0002410411834716797,0.0002410411834716797,0.004141092300415039,0
0.7196097373962402,0.11405035853385925,0.020450951531529427,0.7286558747291565,-0.1717706922790381,0.7632633578462601,-0.019816463813185692,-0.0017680682940408587,2.212209970764434e-09,0.0,0.0,-0.6,-0.1717706922790381,0.0002789497375488281,0.0002789497375488281,0.003751039505004883,0
0.7296836376190186,0.11467397212982178,0.02123112790286541,0.7103134989738464,-0.17182637126045128,0.7602574832571931,-0.022946547716856003,-7.551108865300193e-05,3.560669536994965e-09,0.0,0.0,-0.6,-0.17182637126045128,0.00023746490478515625,0.00023746490478515625,0.003419637680053711,0
0.7395424842834473,0.11305945366621017,0.02092607691884041,0.6984855532646179,-0.17185066278632088,0.7574615151713807,-0.013456305488944054,-0.016196751967072487,1.0366427716235194e-09,0.0,0.0,-0.6,-0.17185066278632088,0.00022840499877929688,0.00022840499877929688,0.003131866455078125,0
0.7497377395629883,0.1114882230758667,0.020636653527617455,0.686691403388977,-0.17185723811246356,0.7548309043313771,-0.0060837892815470695,-0.029387829825282097,1.427904905426658e-09,0.0,0.0,-0.6,-0.17185723811246356,0.0002105236053466797,0.0002105236053466797,0.0033059120178222656,0
0.7595958709716797,0.10995922982692719,0.020361578091979027,0.6749331951141357,-0.17187937098432304,0.7523308849854028,-0.000324586289934814,-0.039030492305755615,-2.6897861715724503e-09,0.0,0.0,-0.6,-0.17187937098432304,0.0001747608184814453,0.0001747608184814453,0.003366708755493164,0
0.7696714401245117,0.10847222059965134,0.02009943313896656,0.6632106304168701,-0.17189410424641963,0.7499321296433028,0.004371242132037878,-0.046379439532756805,-1.2800249749034265e-09,0.0,0.0,-0.6,-0.17189410424641963,0.00020599365234375,0.00020599365234375,0.0033173561096191406,0
0.7798914909362793,0.10561783611774445,0.019613370299339294,0.6398804187774658,-0.17194617742375037,0.7470139830604924,0.011352886445820332,-0.06338968873023987,7.274798541345717e-10,0.0,0.0,-0.6,-0.17194617742375037,0.0003609657287597656,0.0003609657287597656,0.005242109298706055,0
0.7896924018859863,0.10425417870283127,0.01938803121447563,0.6282749772071838,-0.171958267113713,0.7443636657270373,0.012652426026761532,-0.06502649933099747,1.972783714165871e-09,0.0,0.0,-0.6,-0.171958267113713,0.00024056434631347656,0.00024056434631347656,0.004469156265258789,0
0.7996838092803955,0.10163633525371552,0.01896635629236698,0.6051912903785706,-0.17197049714773502,0.7413561225783051,0.019527126103639603,-0.08002769947052002,-1.5914751738677069e-09,0.0,0.0,-0.6,-0.17197049714773502,0.0002677440643310547,0.0002677440643310547,0.0035877227783203125,0
0.8097822666168213,0.1003766804933548,0.018769748508930206,0.5937161445617676,-0.17198270797105628,0.7386876653438991,0.018433794379234314,-0.07965768128633499,-1.408619887399709e-10,0.0,0.0,-0.6,-0.17198270797105628,0.000240325927734375,0.000240325927734375,0.0033872127532958984,0
0.8196325302124023,0.09914953261613846,0.018582714721560478,0.5822857022285461,-0.17202017698739194,0.7362648728124361,0.017560765147209167,-0.07892097532749176,-1.5204806302904217e-09,0.0,0.0,-0.6,-0.17202017698739194,0.00018787384033203125,0.00018787384033203125,0.0030088424682617188,0
0.8297977447509766,0.09795325994491577,0.018404649570584297,0.5709003210067749,-0.17206167294161054,0.7340291137004752,0.016722628846764565,-0.0783703401684761,-2.4428601363979396e-09,0.0,0.0,-0.6,-0.17206167294161054,0.00022125244140625,0.00022125244140625,0.003180265426635742,0
0.8394997119903564,0.09678617864847183,0.018236014991998672,0.559543788433075,-0.17208824363273273,0.7319394509217604,0.015468173660337925,-0.07717697322368622,2.3124011594433114e-09,0.0,0.0,-0.6,-0.17208824363273273,0.0002143383026123047,0.0002143383026123047,0.0032901763916015625,0
0.8498287200927734,0.09564840793609619,0.018076010048389435,0.5482364892959595,-0.1721052155693412,0.729967695154456,0.015603880397975445,-0.07607094943523407,3.308116447442444e-09,0.0,0.0,-0.6,-0.1721052155693412,0.00020813941955566406,0.00020813941955566406,0.0031821727752685547,0
0.859839677810669,0.09346266090869904,0.01777682825922966,0.5257751941680908,-0.17215249604211066,0.7276153620493037,0.021770192310214043,-0.0840890109539032,-3.5713929591452143e-09,0.0,0.0,-0.6,-0.17215249604211066,0.00031185150146484375,0.00031185150146484375,0.004202604293823242,0
0.8696653842926025,0.09241294115781784,0.01763555221259594,0.5146250128746033,-0.17218418165611507,0.7255023849147862,0.02234399877488613,-0.08188009262084961,-3.702982365183516e-09,0.0,0.0,-0.6,-0.17218418165611507,0.00022029876708984375,0.00022029876708984375,0.0031938552856445312,0
0.8795931339263916,0.09138812869787216,0.017499761655926704,0.5035297274589539,-0.17221866458821639,0.7235658367732358,0.02048482745885849,-0.0791020616889,1.8185075667531692e-09,0.0,0.0,-0.6,-0.17221866458821639,0.00020837783813476562,0.00020837783813476562,0.003245115280151367,0
0.8898007869720459,0.09038744121789932,0.017369410023093224,0.4924904704093933,-0.1722518124830748,0.7217672648019025,0.020941881462931633,-0.07698388397693634,-2.7664226465162756e-10,0.0,0.0,-0.6,-0.1722518124830748,0.00020766258239746094,0.00020766258239746094,0.003270387649536133,0
0.899681568145752,0.08845693618059158,0.017119910567998886,0.47058454155921936,-0.1723017126071734,0.71966056236713,0.02801894024014473,-0.08502029627561569,8.365191872528044e-10,0.0,0.0,-0.6,-0.1723017126071734,0.00020360946655273438,0.00020360946655273438,0.0034093856811523438,0
0.9097895622253418,0.08752569556236267,0.017001314088702202,0.45970988273620605,-0.17234216797112506,0.7177730813006747,0.025086289271712303,-0.08139867335557938,8.558663777691322e-10,0.0,0.0,-0.6,-0.17234216797112506,0.00022077560424804688,0.00022077560424804688,0.003687620162963867,0
0.9196226596832275,0.08661630004644394,0.016887011006474495,0.4488956034183502,-0.17237895023449212,0.7160570215983685,0.02393660508096218,-0.07801607251167297,-1.247182357388965e-09,0.0,0.0,-0.6,-0.17237895023449212,0.0003399848937988281,0.0003399848937988281,0.005111217498779297,0
0.9297211170196533,0.0857316330075264,0.016777748242020607,0.43814346194267273,-0.17242392575763135,0.7144701498520373,0.023008836433291435,-0.07569286972284317,3.0721511445896965e-10,0.0,0.0,-0.6,-0.17242392575763135,0.00024390220642089844,0.00024390220642089844,0.0034263134002685547,0
0.9397447109222412,0.08402229845523834,0.01656767912209034,0.4168297350406647,-0.17250412507511736,0.7126286821174846,0.029945697635412216,-0.08289411664009094,-2.8908289095852524e-09,0.0,0.0,-0.6,-0.17250412507511736,0.0002186298370361328,0.0002186298370361328,0.0033407211303710938,0
0.9496572017669678,0.0831989273428917,0.016466503962874413,0.40626898407936096,-0.17254191298741484,0.7109860895847722,0.02759023755788803,-0.07767437398433685,-2.8786883987663714e-09,0.0,0.0,-0.6,-0.17254191298741484,0.000179290771484375,0.000179290771484375,0.0029506683349609375,0
0.9596326351165771,0.08239554613828659,0.016368404030799866,0.3957740068435669,-0.17259363434970917,0.709495869353266,0.024737516418099403,-0.07410907000303268,-1.0277290130034089e-10,0.0,0.0,-0.6,-0.17259363434970917,0.00020384788513183594,0.00020384788513183594,0.0031692981719970703,0
0.9698150157928467,0.08161136507987976,0.01627364568412304,0.3853447735309601,-0.17264866400520465,0.7081162895895614,0.023788925260305405,-0.06970127671957016,1.9828085839890264e-09,0.0,0.0,-0.6,-0.17264866400520465,0.00022983551025390625,0.00022983551025390625,0.003444194793701172,0
0.9797422885894775,0.08010588586330414,0.01608777977526188,0.36464670300483704,-0.17275971182877742,0.7065151501986804,0.03211207315325737,-0.07309327274560928,9.8445340768194e-10,0.0,0.0,-0.6,-0.17275971182877742,0.000308990478515625,0.000308990478515625,0.004465341567993164,0
0.989708423614502,0.07938448339700699,0.015997134149074554,0.35438281297683716,-0.17283020886595313,0.7050977425132926,0.028294626623392105,-0.06667464226484299,-6.144284525610999e-10,0.0,0.0,-0.6,-0.17283020886595313,0.00025916099548339844,0.00025916099548339844,0.004381656646728516,0
0.9996018409729004,0.07869195193052292,0.015910619869828224,0.3441914916038513,-0.17291020589326972,0.7038184652021873,0.027059266343712807,-0.061963506042957306,-4.865365887951612e-10,0.0,0.0,-0.6,-0.17291020589326972,0.00032782554626464844,0.00032782554626464844,0.004533290863037109,0
1.0097119808197021,0.0773659273982048,0.01574324630200863,0.3240264654159546,-0.17303283183022794,0.7023799754480418,0.031296100467443466,-0.06448603421449661,5.953317838702787e-10,0.0,0.0,-0.6,-0.17303283183022794,0.00022745132446289062,0.00022745132446289062,0.003921031951904297,0
1.0198068618774414,0.07673247903585434,0.015659894794225693,0.31405502557754517,-0.17307811052997626,0.7011167986005535,0.030777107924222946,-0.059497542679309845,1.6336767494351534e-09,0.0,0.0,-0.6,-0.17307811052997626,0.00030159950256347656,0.00030159950256347656,0.003923892974853516,0
1.029620885848999,0.0761188492178917,0.015575932338833809,0.30415812134742737,-0.17312879220540214,0.6999808200825818,0.029457293450832367,-0.05430881679058075,3.669534009986819e-09,0.0,0.0,-0.6,-0.17312879220540214,0.00019788742065429688,0.00019788742065429688,0.003138303756713867,0
1.0397014617919922,0.0749467983841896,0.015411571599543095,0.28458839654922485,-0.17323450463131304,0.6987068063438548,0.03175764158368111,-0.057835858315229416,-3.2864941879040543e-09,0.0,0.0,-0.6,-0.17323450463131304,0.0002486705780029297,0.0002486705780029297,0.0033864974975585938,0
1.0497703552246094,0.07438699901103973,0.015331433154642582,0.2748894989490509,-0.17327571174519252,0.6975859279726542,0.0294212494045496,-0.05328277125954628,-2.604489734991944e-09,0.0,0.0,-0.6,-0.17327571174519252,0.000209808349609375,0.000209808349609375,0.003252744674682617,0
1.059638261795044,0.07384469360113144,0.015252242796123028,0.2652665972709656,-0.17333263403558716,0.6965820343818959,0.026212705299258232,-0.049254316836595535,2.3581734343025573e-09,0.0,0.0,-0.6,-0.17333263403558716,0.00019693374633789062,0.00019693374633789062,0.003167390823364258,0
1.0697929859161377,0.07332899421453476,0.015175007283687592,0.25572124123573303,-0.17341608159380142,0.695671375317725,0.02441769279539585,-0.044654496014118195,-3.6361327282463662e-09,0.0,0.0,-0.6,-0.17341608159380142,0.0002143383026123047,0.0002143383026123047,0.003315448760986328,0
1.079514503479004,0.07234976440668106,0.015023649670183659,0.23686182498931885,-0.17355703048623725,0.6946339959377525,0.029422447085380554,-0.046011827886104584,2.4416513255687278e-09,0.0,0.0,-0.6,-0.17355703048623725,0.0001976490020751953,0.0001976490020751953,0.0032410621643066406,0
1.0897095203399658,0.07188674062490463,0.01494784839451313,0.22754836082458496,-0.1736251404606124,0.6937216924086175,0.027814272791147232,-0.041530411690473557,3.3658906772870978e-09,0.0,0.0,-0.6,-0.1736251404606124,0.00019741058349609375,0.00019741058349609375,0.0030975341796875,0
1.0996856689453125,0.07144036889076233,0.014871198683977127,0.21831433475017548,-0.1736930125439638,0.6929099885863464,0.027057785540819168,-0.038918089121580124,-3.3834464119308905e-09,0.0,0.0,-0.6,-0.1736930125439638,0.0002002716064453125,0.0002002716064453125,0.0032758712768554688,0
1.1096842288970947,0.07100985199213028,0.01479349285364151,0.2091597020626068,-0.1737388869449587,0.6921713040750719,0.025813281536102295,-0.035853251814842224,-2.2660451293177175e-09,0.0,0.0,-0.6,-0.1737388869449587,0.0001819133758544922,0.0001819133758544922,0.002962350845336914,0
1.1196479797363281,0.07059527188539505,0.014716153033077717,0.20008495450019836,-0.1737754382485556,0.691494906806102,0.02333988808095455,-0.03366221860051155,-2.5648141388501244e-09,0.0,0.0,-0.6,-0.1737754382485556,0.00019216537475585938,0.00019216537475585938,0.0031061172485351562,0
1.1297619342803955,0.06981505453586578,0.014561445452272892,0.1821090430021286,-0.1738603404090298,0.6907287777740229,0.030188417062163353,-0.03349989652633667,3.3068507931943714e-09,0.0,0.0,-0.6,-0.1738603404090298,0.00021314620971679688,0.00021314620971679688,0.0032989978790283203,0
1.1397771835327148,0.06720158457756042,0.01384908426553011,0.169831320643425,-0.17390728362228366,0.6898991628682739,0.034239262342453,-0.04943104833364487,-6.365094562532647e-10,0.0,0.0,-0.6,-0.17390728362228366,0.00027561187744140625,0.00027561187744140625,0.00465083122253418,0
1.1499083042144775,0.0646510198712349,0.013150219805538654,0.15772151947021484,-0.17395190519022935,0.6890296255528052,0.03878547623753548,-0.06213546171784401,8.448797217397441e-10,0.0,0.0,-0.6,-0.17395190519022935,0.0002892017364501953,0.0002892017364501953,0.003720521926879883,0
1.159611463546753,0.05973818898200989,0.011791584081947803,0.1339966356754303,-0.17402253385585587,0.687879035766278,0.05362258478999138,-0.08929530531167984,3.1455904547783575e-09,0.0,0.0,-0.6,-0.17402253385585587,0.00021147727966308594,0.00021147727966308594,0.003415822982788086,0
1.1697368621826172,0.05737368389964104,0.011131683364510536,0.12237535417079926,-0.17406650906637122,0.6868081087533351,0.05068674311041832,-0.09093747287988663,-1.5143275522433441e-09,0.0,0.0,-0.6,-0.17406650906637122,0.00019216537475585938,0.00019216537475585938,0.0030612945556640625,0
1.1796307563781738,0.05506793037056923,0.010482868179678917,0.11091209948062897,-0.17410360564078436,0.6858145057836487,0.05011000856757164,-0.09270589053630829,-2.5731488051405904e-09,0.0,0.0,-0.6,-0.17410360564078436,0.00021767616271972656,0.00021767616271972656,0.003323793411254883,0
1.1895442008972168,0.05281979963183403,0.009846090339124203,0.0996069684624672,-0.17413786829687272,0.6848853021301902,0.04579075798392296,-0.09203045070171356,-2.0743486928154198e-09,0.0,0.0,-0.6,-0.17413786829687272,0.00018715858459472656,0.00018715858459472656,0.0030455589294433594,0
1.199648141860962,0.05062912777066231,0.009222888387739658,0.08843246102333069,-0.17416764133329704,0.6840011957899044,0.043404679745435715,-0.09114779531955719,-9.007171675179393e-10,0.0,0.0,-0.6,-0.17416764133329704,0.0003261566162109375,0.0003261566162109375,0.0045626163482666016,0
1.2097609043121338,0.04849345237016678,0.008611605502665043,0.07740990817546844,-0.17420017624315864,0.6831582295424087,0.04199531301856041,-0.09091341495513916,-1.3747936122854298e-09,0.0,0.0,-0.6,-0.17420017624315864,0.0002491474151611328,0.0002491474151611328,0.0033605098724365234,0
1.2196605205535889,0.0443900041282177,0.007427989970892668,0.05581967160105705,-0.1742721370478303,0.6821692192230527,0.05081693455576897,-0.10509710013866425,1.9337365042559895e-09,0.0,0.0,-0.6,-0.1742721370478303,0.00019741058349609375,0.00019741058349609375,0.0030820369720458984,0
1.2297899723052979,0.0424174889922142,0.0068526482209563255,0.04524913430213928,-0.1743236828128573,0.6812865591445946,0.04615190997719765,-0.09837300330400467,-1.5409853393322237e-09,0.0,0.0,-0.6,-0.1743236828128573,0.0002009868621826172,0.0002009868621826172,0.003087759017944336,0
1.2394907474517822,0.04049775376915932,0.00628805672749877,0.03482544794678688,-0.174392899880298,0.6804882286107844,0.04333658143877983,-0.09259618818759918,-8.263398854069237e-10,0.0,0.0,-0.6,-0.174392899880298,0.0001704692840576172,0.0001704692840576172,0.002974271774291992,0
1.2497122287750244,0.038628000766038895,0.005733116529881954,0.024546358734369278,-0.17442824646718708,0.679754809218898,0.042190924286842346,-0.08899601548910141,2.169016743991392e-09,0.0,0.0,-0.6,-0.17442824646718708,0.00020623207092285156,0.00020623207092285156,0.003052949905395508,0
1.2596864700317383,0.035032641142606735,0.0046494463458657265,0.004413982387632132,-0.17451736762884623,0.6789200857597653,0.05082648620009422,-0.09654595702886581,-4.025566546772552e-10,0.0,0.0,-0.6,-0.17451736762884623,0.00021004676818847656,0.00021004676818847656,0.0032520294189453125,0
1.2696752548217773,0.0333072766661644,0.004122251179069281,-0.005459916777908802,-0.1745581657990263,0.6781911317279322,0.04553643986582756,-0.08945980668067932,1.82821979777259e-09,0.0,0.0,-0.6,-0.1745581657990263,0.00018668174743652344,0.00018668174743652344,0.002947568893432617,0
1.2795634269714355,0.030012469738721848,0.0030927304178476334,-0.024785088375210762,-0.17465622319670465,0.6774378190569327,0.05342241749167442,-0.09366007894277573,-1.9120027783259275e-09,0.0,0.0,-0.6,-0.17465622319670465,0.0002186298370361328,0.0002186298370361328,0.003226041793823242,0
1.2896852493286133,0.02843194641172886,0.0025899051688611507,-0.034236907958984375,-0.1747136937147971,0.6768043109432388,0.047284580767154694,-0.08641844987869263,-2.2466755122962923e-09,0.0,0.0,-0.6,-0.1747136937147971,0.000194549560546875,0.000194549560546875,0.003090381622314453,0
1.299609661102295,0.026895321905612946,0.0020954047795385122,-0.04354917258024216,-0.17477222549299973,0.6762628823407699,0.04224319010972977,-0.07794293016195297,-2.6966002764083896e-09,0.0,0.0,-0.6,-0.17477222549299973,0.0002117156982421875,0.0002117156982421875,0.003118276596069336,0
1.3098037242889404,0.025403205305337906,0.0016097136540338397,-0.05272379517555237,-0.17483867446512197,0.6757906450840974,0.03803340345621109,-0.07186141610145569,-1.3991883207609135e-09,0.0,0.0,-0.6,-0.17483867446512197,0.00019741058349609375,0.00019741058349609375,0.0031464099884033203,0
1.3196334838867188,0.023954100906848907,0.0011318799806758761,-0.06176242604851723,-0.1749108276019598,0.6753744256809093,0.03683803603053093,-0.06580183655023575,1.9902488546108543e-09,0.0,0.0,-0.6,-0.1749108276019598,0.0001926422119140625,0.0001926422119140625,0.0032112598419189453,0
1.3297324180603027,0.021181199699640274,0.00019990926375612617,-0.07943706214427948,-0.17508797761627448,0.6749303597743477,0.04203999415040016,-0.06972537189722061,3.3845033442503336e-09,0.0,0.0,-0.6,-0.17508797761627448,0.00020170211791992188,0.00020170211791992188,0.0030603408813476562,0
1.339707851409912,0.019855912774801254,-0.00025319235282950103,-0.08810754120349884,-0.17514523328586817,0.6745501517009729,0.03659079223871231,-0.06312696635723114,-1.426657680880794e-09,0.0,0.0,-0.6,-0.17514523328586817,0.00021457672119140625,0.00021457672119140625,0.0032935142517089844,0
1.3496286869049072,0.018575681373476982,-0.0006959685124456882,-0.09664664417505264,-0.17519247434333898,0.6742205758051125,0.03339715674519539,-0.05648868530988693,2.964182233000656e-09,0.0,0.0,-0.6,-0.17519247434333898,0.00018525123596191406,0.00018525123596191406,0.0028486251831054688,0
1.3596525192260742,0.017337355762720108,-0.001130487653426826,-0.10505632311105728,-0.1752576278514468,0.6739319656791545,0.029438355937600136,-0.05006616190075874,-2.1944481787272707e-09,0.0,0.0,-0.6,-0.1752576278514468,0.0002155303955078125,0.0002155303955078125,0.003238677978515625,0
1.369720458984375,0.014983347617089748,-0.0019727684557437897,-0.12148606032133102,-0.17536525394039004,0.6736580316910049,0.03412076085805893,-0.049164559692144394,-2.558406597685803e-09,0.0,0.0,-0.6,-0.17536525394039004,0.00019669532775878906,0.00019669532775878906,0.003185749053955078,0
1.3795759677886963,0.013867227360606194,-0.0023827082477509975,-0.12950579822063446,-0.17542478670165854,0.6734449721861278,0.03014221414923668,-0.042941443622112274,-1.6277468262160255e-09,0.0,0.0,-0.6,-0.17542478670165854,0.00020384788513183594,0.00020384788513183594,0.0031309127807617188,0
1.3898513317108154,0.012791517190635204,-0.0027837336529046297,-0.13739712536334991,-0.17548710721694,0.6732746520480287,0.026094526052474976,-0.03726159408688545,2.5621276211751365e-09,0.0,0.0,-0.6,-0.17548710721694,0.00022912025451660156,0.00022912025451660156,0.0032181739807128906,0
1.399625301361084,0.01175537146627903,-0.003175928955897689,-0.1451614797115326,-0.1755473914385433,0.6731436234620317,0.02255895733833313,-0.03263057395815849,3.017764704793535e-09,0.0,0.0,-0.6,-0.1755473914385433,0.00017404556274414062,0.00017404556274414062,0.002938985824584961,0
1.4097275733947754,0.010757781565189362,-0.003558126976713538,-0.15279997885227203,-0.17560317404130982,0.6730428917595711,0.01906755194067955,-0.028794974088668823,-3.559709860212479e-09,0.0,0.0,-0.6,-0.17560317404130982,0.00020194053649902344,0.00020194053649902344,0.003111600875854492,0
1.4196803569793701,0.00888022594153881,-0.004294287879019976,-0.1678135097026825,-0.17573798794681375,0.6729674556538586,0.024146543815732002,-0.02618178352713585,-1.9099271053590883e-09,0.0,0.0,-0.6,-0.17573798794681375,0.0002040863037109375,0.0002040863037109375,0.003268718719482422,0
1.4296281337738037,0.007999742403626442,-0.004649520386010408,-0.1751345843076706,-0.175795640861115,0.6729174034138447,0.01998821459710598,-0.02132389321923256,-1.4140986159816293e-09,0.0,0.0,-0.6,-0.175795640861115,0.00018072128295898438,0.00018072128295898438,0.0030014514923095703,0
1.4396376609802246,0.006350388750433922,-0.005334383808076382,-0.18941077589988708,-0.17591585773266297,0.6729118238841997,0.02307083085179329,-0.01749897375702858,-2.4426645151010007e-09,0.0,0.0,-0.6,-0.17591585773266297,0.00020742416381835938,0.00020742416381835938,0.0031557083129882812,0
1.4497883319854736,0.005581908859312534,-0.005667187739163637,-0.19636665284633636,-0.1759598532178471,0.6729360824156161,0.021238604560494423,-0.012384893372654915,1.8031851567457124e-09,0.0,0.0,-0.6,-0.1759598532178471,0.00020575523376464844,0.00020575523376464844,0.0030722618103027344,0
1.4596502780914307,0.004851054400205612,-0.005992756225168705,-0.20320247113704681,-0.17600183257132312,0.672980150133236,0.01850655861198902,-0.008504284545779228,1.4286702931798345e-09,0.0,0.0,-0.6,-0.17600183257132312,0.00019121170043945312,0.00019121170043945312,0.0031571388244628906,0
1.4698030948638916,0.004157250747084618,-0.0063116117380559444,-0.20991984009742737,-0.17605521817415662,0.6730443470461446,0.017729979008436203,-0.003966229967772961,9.739267170516541e-10,0.0,0.0,-0.6,-0.17605521817415662,0.0002086162567138672,0.0002086162567138672,0.003107309341430664,0
1.4795286655426025,0.003501294879242778,-0.006624140776693821,-0.21651940047740936,-0.1760859046056178,0.6731318209076639,0.016718881204724312,-0.00012090271047782153,1.8701200588111533e-09,0.0,0.0,-0.6,-0.1760859046056178,0.0002307891845703125,0.0002307891845703125,0.0032105445861816406,0
1.4897325038909912,0.0028817839920520782,-0.0069295191206038,-0.22303909063339233,-0.17612829800993435,0.6732371078783015,0.014695635996758938,0.002830047393217683,2.949942512486814e-10,0.0,0.0,-0.6,-0.17612829800993435,0.0002014636993408203,0.0002014636993408203,0.0031692981719970703,0
1.4996826648712158,0.0017588885966688395,-0.007515368517488241,-0.2357301265001297,-0.17624997062284115,0.6734025067841454,0.01898171380162239,0.008022638969123363,-5.375682121666614e-10,0.0,0.0,-0.6,-0.17624997062284115,0.0002167224884033203,0.0002167224884033203,0.003538846969604492,0
1.5096580982208252,0.001249532913789153,-0.0078001669608056545,-0.24190492928028107,-0.17629263283861235,0.6735694862131003,0.017059868201613426,0.010922161862254143,-1.2887522160554e-09,0.0,0.0,-0.6,-0.17629263283861235,0.00019788742065429688,0.00019788742065429688,0.003189563751220703,0
1.5196785926818848,0.0007760385633446276,-0.008079138584434986,-0.24796715378761292,-0.17635464028403433,0.6737433763852199,0.01524890772998333,0.014266381971538067,2.4332220682765637e-09,0.0,0.0,-0.6,-0.17635464028403433,0.00023794174194335938,0.00023794174194335938,0.003265857696533203,0
1.529757022857666,-6.43303501419723e-05,-0.008617171086370945,-0.2597585618495941,-0.1764460787314278,0.6739859091094618,0.015479435212910175,0.02183348499238491,5.395062174784471e-11,0.0,0.0,-0.6,-0.1764460787314278,0.0004596710205078125,0.0004596710205078125,0.003676176071166992,0
1.5396325588226318,-0.0020541816484183073,-0.009466376155614853,-0.26913177967071533,-0.17648031232387987,0.6740519604651873,0.02125396952033043,0.007871734909713268,-3.4962628348012004e-09,0.0,0.0,-0.6,-0.17648031232387987,0.00023937225341796875,0.00023937225341796875,0.00341796875,0
1.5497922897338867,-0.003975816071033478,-0.010295654647052288,-0.2783053517341614,-0.17650731087024596,0.6740049660693398,0.02423955127596855,-0.0017580854473635554,-2.5660140678951393e-09,0.0,0.0,-0.6,-0.17650731087024596,0.00022554397583007812,0.00022554397583007812,0.003274202346801758,0
1.559640645980835,-0.005829940550029278,-0.011105810292065144,-0.2873055934906006,-0.1765254732101373,0.673872768935566,0.027060244232416153,-0.008881868794560432,-3.370024703741592e-09,0.0,0.0,-0.6,-0.1765254732101373,0.00021004676818847656,0.00021004676818847656,0.003367185592651367,0
1.5697972774505615,-0.009333242662250996,-0.012669974006712437,-0.30473822355270386,-0.1766011029285759,0.6736085088725433,0.03948326036334038,-0.020493755117058754,-1.996472098753088e-09,0.0,0.0,-0.6,-0.1766011029285759,0.0002238750457763672,0.0002238750457763672,0.003278493881225586,0
1.579664707183838,-0.010989523492753506,-0.013427217490971088,-0.31317630410194397,-0.17661304105830422,0.6733590692556725,0.036855313926935196,-0.022158890962600708,1.45064582568466e-09,0.0,0.0,-0.6,-0.17661304105830422,0.00022101402282714844,0.00022101402282714844,0.0034422874450683594,0
1.5896520614624023,-0.012583870440721512,-0.014167011715471745,-0.32143187522888184,-0.17661703003075455,0.6731224029867456,0.03372010588645935,-0.023088455200195312,2.591427072928809e-09,0.0,0.0,-0.6,-0.17661703003075455,0.0001804828643798828,0.0001804828643798828,0.0029261112213134766,0
1.5996427536010742,-0.01411677896976471,-0.014889311976730824,-0.3295101523399353,-0.17662452447761823,0.6728939125132246,0.03125077113509178,-0.02242228388786316,-3.4755496258753737e-09,0.0,0.0,-0.6,-0.17662452447761823,0.00021004676818847656,0.00021004676818847656,0.003261089324951172,0
1.6098206043243408,-0.015589341521263123,-0.015594691969454288,-0.33741435408592224,-0.17663532148295855,0.6726845248870977,0.02951033040881157,-0.021740397438406944,-5.850964157616545e-11,0.0,0.0,-0.6,-0.17663532148295855,0.0002067089080810547,0.0002067089080810547,0.00325775146484375,0
1.6196260452270508,-0.018357696011662483,-0.016956454142928123,-0.3527120351791382,-0.17666484306558414,0.672453113463853,0.035741012543439865,-0.02285345084965229,-3.6780121170920665e-09,0.0,0.0,-0.6,-0.17666484306558414,0.00018143653869628906,0.00018143653869628906,0.0030608177185058594,0
1.6298062801361084,-0.019655978307127953,-0.01761375181376934,-0.36013317108154297,-0.17668511111410862,0.6722642844259987,0.031128672882914543,-0.020464379340410233,2.804857235361169e-09,0.0,0.0,-0.6,-0.17668511111410862,0.000286102294921875,0.000286102294921875,0.003269672393798828,0
1.6396141052246094,-0.02089346945285797,-0.01825363002717495,-0.3673892319202423,-0.17668258988759197,0.6721105005114228,0.02664267271757126,-0.018572576344013214,2.307444235682965e-09,0.0,0.0,-0.6,-0.17668258988759197,0.00021386146545410156,0.00021386146545410156,0.0033273696899414062,0
1.649695634841919,-0.02207690104842186,-0.018876798450946808,-0.37448418140411377,-0.1766842962914512,0.6719824317949211,0.02377655915915966,-0.016092520207166672,1.1778031883125095e-09,0.0,0.0,-0.6,-0.1766842962914512,0.0001900196075439453,0.0001900196075439453,0.003025054931640625,0
1.659783124923706,-0.024286363273859024,-0.020079905167222023,-0.38820144534111023,-0.17670456511282312,0.6718821963227289,0.029080750420689583,-0.01499815471470356,2.568327772678458e-10,0.0,0.0,-0.6,-0.17670456511282312,0.00030875205993652344,0.00030875205993652344,0.004238128662109375,0
1.6695311069488525,-0.025314699858427048,-0.02065928652882576,-0.39482545852661133,-0.17671093162154738,0.6718261219342087,0.02433082088828087,-0.012931820936501026,-3.5778113804951772e-09,0.0,0.0,-0.6,-0.17671093162154738,0.00022292137145996094,0.00022292137145996094,0.0032215118408203125,0
1.6796221733093262,-0.026293080300092697,-0.02122432552278042,-0.40129590034484863,-0.1767183283864917,0.6718008972526528,0.022849833592772484,-0.009144454263150692,-2.3946533644902956e-09,0.0,0.0,-0.6,-0.1767183283864917,0.00023603439331054688,0.00023603439331054688,0.0041005611419677734,0
1.6899607181549072,-0.02722041681408882,-0.02177678793668747,-0.4076164960861206,-0.17673894424565545,0.6718004113758945,0.02220190316438675,-0.005548792891204357,-2.616751704209719e-09,0.0,0.0,-0.6,-0.17673894424565545,0.0003414154052734375,0.0003414154052734375,0.004381895065307617,0
1.699507713317871,-0.02893175557255745,-0.022843962535262108,-0.4198359549045563,-0.17680303715762097,0.6718470946372733,0.026270264759659767,-0.0023688413202762604,1.98943217455394e-09,0.0,0.0,-0.6,-0.17680303715762097,0.0002028942108154297,0.0002028942108154297,0.003088235855102539,0
1.7097883224487305,-0.029711853712797165,-0.023357266560196877,-0.42573949694633484,-0.1768293880670787,0.6719100902954955,0.022121084854006767,0.0006241521332412958,-3.2407072581008833e-09,0.0,0.0,-0.6,-0.1768293880670787,0.00021314620971679688,0.00021314620971679688,0.0031616687774658203,0
1.7196197509765625,-0.030446065589785576,-0.023857664316892624,-0.43150150775909424,-0.17685078033327703,0.6719943733603244,0.02041204273700714,0.0023610834032297134,3.4142164651029816e-09,0.0,0.0,-0.6,-0.17685078033327703,0.0001761913299560547,0.0001761913299560547,0.0032176971435546875,0
1.7296552658081055,-0.03177856653928757,-0.024822184816002846,-0.44260504841804504,-0.17687579766913247,0.672154170162928,0.02108604647219181,0.008112573064863682,-2.1378274706052025e-09,0.0,0.0,-0.6,-0.17687579766913247,0.00021266937255859375,0.00021266937255859375,0.0029697418212890625,0
1.7396676540374756,-0.0323779433965683,-0.025284696370363235,-0.44795048236846924,-0.17690025125078365,0.6723219859618138,0.016106711700558662,0.010435126721858978,-1.3193001136002636e-09,0.0,0.0,-0.6,-0.17690025125078365,0.00020360946655273438,0.00020360946655273438,0.0032808780670166016,0
1.7496337890625,-0.032932963222265244,-0.025732629001140594,-0.45316141843795776,-0.17693125627684364,0.6724980987031619,0.01176653616130352,0.012483316473662853,-8.504095205807971e-10,0.0,0.0,-0.6,-0.17693125627684364,0.0001785755157470703,0.0001785755157470703,0.002801179885864258,0
1.7596776485443115,-0.03344568610191345,-0.026166951283812523,-0.4582647681236267,-0.17695823669859623,0.6726895398541383,0.010653688572347164,0.01361644733697176,5.278746328940542e-10,0.0,0.0,-0.6,-0.17695823669859623,0.0002243518829345703,0.0002243518829345703,0.0031604766845703125,0
1.7697956562042236,-0.033915601670742035,-0.026589471846818924,-0.463235080242157,-0.17698830188319986,0.6728984409351594,0.009464574046432972,0.01646396704018116,3.6656651047906053e-09,0.0,0.0,-0.6,-0.17698830188319986,0.00023436546325683594,0.00023436546325683594,0.003412008285522461,0
1.7795922756195068,-0.03472451865673065,-0.027391882613301277,-0.4727829098701477,-0.17701823086967494,0.673206675152252,0.007537705823779106,0.02266295626759529,-9.286367230743053e-10,0.0,0.0,-0.6,-0.17701823086967494,0.0002071857452392578,0.0002071857452392578,0.003150463104248047,0
1.789829969406128,-0.03506593033671379,-0.02777250111103058,-0.4773639440536499,-0.17705262173391173,0.6735092113220114,0.0051645697094500065,0.02446576952934265,-3.2743296962678414e-09,0.0,0.0,-0.6,-0.17705262173391173,0.000209808349609375,0.000209808349609375,0.003139972686767578,0
1.7995669841766357,-0.03562440350651741,-0.028496025130152702,-0.4861524701118469,-0.1771022448681853,0.6738989759652095,0.004641497507691383,0.03342808410525322,3.202613285679945e-09,0.0,0.0,-0.6,-0.1771022448681853,0.0001633167266845703,0.0001633167266845703,0.003047943115234375,0
1.8096718788146973,-0.035845331847667694,-0.02884025312960148,-0.4903642535209656,-0.1771036507755494,0.6742611397325841,0.0032825882080942392,0.03184451907873154,-3.6832759064964193e-09,0.0,0.0,-0.6,-0.1771036507755494,0.00022745132446289062,0.00022745132446289062,0.003022432327270508,0
1.8196802139282227,-0.03602903336286545,-0.02917223423719406,-0.49448779225349426,-0.177113300304071,0.6746113541641382,0.002386770211160183,0.032888296991586685,-1.0764322766476653e-10,0.0,0.0,-0.6,-0.177113300304071,0.0002086162567138672,0.0002086162567138672,0.0032508373260498047,0
1.8296208381652832,-0.036173634231090546,-0.029492711648344994,-0.4984932839870453,-0.17715319941761257,0.6749519339933283,0.001184993889182806,0.03425513952970505,-3.029647366314947e-10,0.0,0.0,-0.6,-0.17715319941761257,0.00016999244689941406,0.00016999244689941406,0.0028133392333984375,0
1.8396785259246826,-0.03628102317452431,-0.029801679775118828,-0.5023824572563171,-0.17717810269083187,0.6752903891446095,0.0010934269521385431,0.03395484760403633,-4.873128567339791e-10,0.0,0.0,-0.6,-0.17717810269083187,0.00020599365234375,0.00020599365234375,0.0032465457916259766,0
1.8507354259490967,-0.03634518012404442,-0.030097031965851784,-0.506156861782074,-0.17717186756464212,0.6756270447193031,-0.0006289825541898608,0.03467502444982529,-1.7840786625811234e-09,0.0,0.0,-0.6,-0.17717186756464212,0.015868186950683594,0.015868186950683594,0.023647546768188477,0
1.874413251876831,-0.03634518012404442,-0.030097031965851784,-0.506156861782074,-0.17717186756464212,0.6758627455935747,-0.00043976877350360155,0.02776084654033184,-1.7840786625811234e-09,0.0,0.0,-0.6,-0.17717186756464212,0.00038123130798339844,0.00038123130798339844,0.0077059268951416016,0
1.8834359645843506,-0.03623799979686737,-0.031167469918727875,-0.5201356410980225,-0.17725748604992353,0.6764826141002771,-0.0019048230024054646,0.058514904230833054,-1.344293898419835e-09,0.0,0.0,-0.6,-0.17725748604992353,0.0005867481231689453,0.0005867481231689453,0.00842905044555664,0
1.8922996520996094,-0.03623799979686737,-0.031167469918727875,-0.5201356410980225,-0.17725748604992353,0.6769165013049986,-0.0013303906889632344,0.04682132229208946,-1.344293898419835e-09,0.0,0.0,-0.6,-0.17725748604992353,0.0003495216369628906,0.0003495216369628906,0.00577092170715332,0
1.9000957012176514,-0.03578700125217438,-0.03185945749282837,-0.5295474529266357,-0.17725714143532206,0.6775764431874206,-0.008079865016043186,0.06728003174066544,-2.04612193854814e-09,0.0,0.0,-0.6,-0.17725714143532206,0.000614166259765625,0.000614166259765625,0.011110067367553711,0
1.911741018295288,-0.03578700125217438,-0.03185945749282837,-0.5295474529266357,-0.17725714143532206,0.6780383586302157,-0.005642517935484648,0.05383655056357384,-2.04612193854814e-09,0.0,0.0,-0.6,-0.17725714143532206,0.0003666877746582031,0.0003666877746582031,0.0055119991302490234,0
1.9198503494262695,-0.035311561077833176,-0.032267261296510696,-0.5353261828422546,-0.1772638832607884,0.6786134711780936,-0.005181232001632452,0.06278736144304276,2.6930102592359617e-10,0.0,0.0,-0.6,-0.1772638832607884,0.00042319297790527344,0.00042319297790527344,0.005286455154418945,0
1.929788589477539,-0.035024967044591904,-0.032456669956445694,-0.53806471824646,-0.17726709278716607,0.6791381456455587,-0.005855030845850706,0.05872218310832977,-2.5075497234183786e-11,0.0,0.0,-0.6,-0.17726709278716607,0.0003077983856201172,0.0003077983856201172,0.004651784896850586,0
1.939671516418457,-0.036173559725284576,-0.03298800066113472,-0.5470429062843323,-0.17727100245659871,0.6795887136817721,-0.004666849039494991,0.05048803240060806,1.1142535782937557e-09,0.0,0.0,-0.6,-0.17727100245659871,0.0002205371856689453,0.0002205371856689453,0.003253459930419922,0
1.949747085571289,-0.03756885603070259,-0.03332618251442909,-0.5531864166259766,-0.17727528108769366,0.6798590417504948,-0.003076494438573718,0.035260558128356934,2.9562579051400917e-09,0.0,0.0,-0.6,-0.17727528108769366,0.00020885467529296875,0.00020885467529296875,0.003123044967651367,0
1.959512710571289,-0.04016023129224777,-0.033958446234464645,-0.5649227499961853,-0.17730526315882653,0.6799812097095673,-0.005602417979389429,0.018458565697073936,-1.1444094560886242e-09,0.0,0.0,-0.6,-0.17730526315882653,0.00018668174743652344,0.00018668174743652344,0.0029790401458740234,0
1.969714641571045,-0.04135960713028908,-0.0342521034181118,-0.5705232620239258,-0.1773284367592819,0.6800450708132191,-0.006927540060132742,0.010991044342517853,-1.7976461985647063e-10,0.0,0.0,-0.6,-0.1773284367592819,0.00020456314086914062,0.00020456314086914062,0.0031197071075439453,0
1.9796321392059326,-0.04249610751867294,-0.03453019633889198,-0.5759496092796326,-0.1773288838487898,0.6800718716887567,-0.007872914895415306,0.005191697273403406,-1.5037295852948773e-09,0.0,0.0,-0.6,-0.1773288838487898,0.0002117156982421875,0.0002117156982421875,0.0031890869140625,0
1.989668369293213,-0.04357242211699486,-0.03479352965950966,-0.5812066793441772,-0.03943046726997855,0.6800764385622732,-0.00834097433835268,0.00043268967419862747,-8.199630974203842e-10,0.0,0.0,-0.6,-0.03943046726997855,0.00019097328186035156,0.00019097328186035156,0.0029578208923339844,0
1.999511957168579,-0.044589389115571976,-0.03504141420125961,-0.5862982273101807,-0.03944551884428944,0.6800685066069518,-0.01028926856815815,-0.0019419281743466854,4.4379233621327785e-10,0.0,0.0,-0.6,-0.03944551884428944,0.0002067089080810547,0.0002067089080810547,0.0031321048736572266,0
2.009633779525757,-0.04644978046417236,-0.035491425544023514,-0.5959751009941101,-0.03945132990650714,0.6800532033137228,-0.015446151606738567,-0.005884306970983744,3.2158453677766374e-10,0.0,0.0,-0.6,-0.03945132990650714,0.000225067138671875,0.000225067138671875,0.0034818649291992188,0
2.0195987224578857,-0.04729669541120529,-0.03569364175200462,-0.6005690097808838,-0.03947247601727293,0.6800426671022554,-0.016180146485567093,-0.006438725627958775,3.190225583704631e-10,0.0,0.0,-0.6,-0.03947247601727293,0.00022125244140625,0.00022125244140625,0.0031862258911132812,0
2.0297322273254395,-0.048089317977428436,-0.03587973862886429,-0.6050128936767578,-0.03948386826958316,0.6800450307514304,-0.017242785543203354,-0.005667439661920071,5.6168181217230995e-11,0.0,0.0,-0.6,-0.03948386826958316,0.0002334117889404297,0.0002334117889404297,0.003131389617919922,0
2.039477586746216,-0.04882858693599701,-0.03605087101459503,-0.6093082427978516,-0.039504689173523004,0.6800672647278567,-0.015965016558766365,-0.005085704382508993,-6.576924560519615e-10,0.0,0.0,-0.6,-0.039504689173523004,0.00017523765563964844,0.00017523765563964844,0.002866983413696289,0
2.049593210220337,-0.050153519958257675,-0.036354586482048035,-0.6174662113189697,-0.03951435557690343,0.68012422888922,-0.01794356107711792,-0.004358517471700907,-3.9983388822051324e-10,0.0,0.0,-0.6,-0.03951435557690343,0.00020432472229003906,0.00020432472229003906,0.0030181407928466797,0
2.0596909523010254,-0.050153519958257675,-0.036354586482048035,-0.6174662113189697,-0.03951435557690343,0.6801640853051363,-0.012557917274534702,-0.0034700343385338783,-3.9983388822051324e-10,0.0,0.0,-0.6,-0.03951435557690343,0.00020742416381835938,0.00020742416381835938,0.0031599998474121094,0
2.0695114135742188,-0.05132986605167389,-0.03660988435149193,-0.6250179409980774,-0.039385360759897285,0.6802624157935585,-0.021393325179815292,-0.0062384516932070255,-3.7853808976251457e-10,0.0,0.0,-0.6,-0.039385360759897285,0.00018143653869628906,0.00018143653869628906,0.0028884410858154297,0
2.0798816680908203,-0.05132986605167389,-0.03660988435149193,-0.6250179409980774,-0.039385360759897285,0.6803312597865089,-0.014970052056014538,-0.004961525555700064,-3.7853808976251457e-10,0.0,0.0,-0.6,-0.039385360759897285,0.00020241737365722656,0.00020241737365722656,0.0032715797424316406,0
2.089738607406616,-0.05276358872652054,-0.03688380867242813,-0.635438084602356,-0.03902603403271994,0.6805076873420275,-0.02923402562737465,-0.004576064646244049,4.839084688512685e-10,0.0,0.0,-0.6,-0.03902603403271994,0.00022530555725097656,0.00022530555725097656,0.0037992000579833984,0
2.0995771884918213,-0.05276358872652054,-0.03688380867242813,-0.635438084602356,-0.03902603403271994,0.6806311949313837,-0.02045084722340107,-0.0036097648553550243,4.839084688512685e-10,0.0,0.0,-0.6,-0.03902603403271994,0.0002338886260986328,0.0002338886260986328,0.003295421600341797,0
2.1097331047058105,-0.05350439250469208,-0.03699358552694321,-0.6417772173881531,-0.03877707460994709,0.6808361703968382,-0.02726767398416996,-0.0015339456731453538,1.9256526928579376e-10,0.0,0.0,-0.6,-0.03877707460994709,0.0002186298370361328,0.0002186298370361328,0.003249645233154297,0
2.1195130348205566,-0.05350439250469208,-0.03699358552694321,-0.6417772173881531,-0.03877707460994709,0.6809796332171537,-0.019073359668254852,-0.0011699484894052148,1.9256526928579376e-10,0.0,0.0,-0.6,-0.03877707460994709,0.00018787384033203125,0.00018787384033203125,0.0031461715698242188,0
2.1296298503875732,-0.05432102829217911,-0.037059247493743896,-0.6503525376319885,-0.03839716311322026,0.6812967186031181,-0.03126838430762291,0.0017090720357373357,8.713363364165616e-10,0.0,0.0,-0.6,-0.03839716311322026,0.00020503997802734375,0.00020503997802734375,0.003044605255126953,0
2.1397082805633545,-0.05432102829217911,-0.037059247493743896,-0.6503525376319885,-0.03839716311322026,0.681518633814959,-0.02186301164329052,0.001452737022191286,8.713363364165616e-10,0.0,0.0,-0.6,-0.03839716311322026,0.00021696090698242188,0.00021696090698242188,0.003229379653930664,0
2.1496284008026123,-0.05468161776661873,-0.03703995794057846,-0.6554663181304932,-0.03823347780417462,0.6818368995513067,-0.027006221935153008,0.004931663163006306,-2.6869559355269246e-10,0.0,0.0,-0.6,-0.03823347780417462,0.000186920166015625,0.000186920166015625,0.0029692649841308594,0
2.1596779823303223,-0.05468161776661873,-0.03703995794057846,-0.6554663181304932,-0.03823347780417462,0.6820596204893844,-0.01888282783329487,0.00402861088514328,-2.6869559355269246e-10,0.0,0.0,-0.6,-0.03823347780417462,0.00020313262939453125,0.00020313262939453125,0.0031609535217285156,0
2.169590473175049,-0.05488967150449753,-0.03697037324309349,-0.6601758599281311,-0.038097974999305007,0.6823907671362182,-0.02646712400019169,0.009824034757912159,7.666529633354457e-10,0.0,0.0,-0.6,-0.038097974999305007,0.00021409988403320312,0.00021409988403320312,0.003289461135864258,0
2.1797163486480713,-0.05488967150449753,-0.03697037324309349,-0.6601758599281311,-0.038097974999305007,0.6826225543006028,-0.018505055457353592,0.007942303083837032,7.666529633354457e-10,0.0,0.0,-0.6,-0.038097974999305007,0.0001952648162841797,0.0001952648162841797,0.003136873245239258,0
2.189650535583496,-0.05492894724011421,-0.03677886351943016,-0.6664153933525085,-0.037815759751882415,0.6830664483298975,-0.0297426488250494,0.017199110239744186,8.257494688024281e-10,0.0,0.0,-0.6,-0.037815759751882415,0.00020074844360351562,0.00020074844360351562,0.0030891895294189453,0
2.199601650238037,-0.05492894724011421,-0.03677886351943016,-0.6664153933525085,-0.037815759751882415,0.6833771441649291,-0.020786870270967484,0.013863948173820972,8.257494688024281e-10,0.0,0.0,-0.6,-0.037815759751882415,0.0001766681671142578,0.0001766681671142578,0.0033271312713623047,0
2.2096474170684814,-0.05465678870677948,-0.03649183735251427,-0.6717145442962646,-0.03753816727301807,0.6838989092988969,-0.03320730850100517,0.025193767622113228,-5.582906359435924e-10,0.0,0.0,-0.6,-0.03753816727301807,0.00032711029052734375,0.00032711029052734375,0.00493311882019043,0
2.219931125640869,-0.05465678870677948,-0.03649183735251427,-0.6717145442962646,-0.03753816727301807,0.6842640658604728,-0.023201914504170418,0.02027103304862976,-5.582906359435924e-10,0.0,0.0,-0.6,-0.03753816727301807,0.00031638145446777344,0.00031638145446777344,0.003945112228393555,0
2.2296319007873535,-0.05430744215846062,-0.036245401948690414,-0.6747735738754272,-0.03733802518030034,0.6847425533256113,-0.03135762736201286,0.027117880061268806,-5.201084007921963e-10,0.0,0.0,-0.6,-0.03733802518030034,0.00019025802612304688,0.00019025802612304688,0.0034410953521728516,0
2.2399115562438965,-0.05430744215846062,-0.036245401948690414,-0.6747735738754272,-0.03733802518030034,0.6850774245257597,-0.021912967786192894,0.02180367521941662,-5.201084007921963e-10,0.0,0.0,-0.6,-0.03733802518030034,0.00034689903259277344,0.00034689903259277344,0.0041882991790771484,0
2.249582290649414,-0.053544797003269196,-0.035787321627140045,-0.6786874532699585,-0.03706932471210041,0.6856467479090078,-0.040592122822999954,0.0340384803712368,-6.521707618389883e-10,0.0,0.0,-0.6,-0.03706932471210041,0.0002257823944091797,0.0002257823944091797,0.0033614635467529297,0
2.2597544193267822,-0.053544797003269196,-0.035787321627140045,-0.6786874532699585,-0.03706932471210041,0.6860452038528063,-0.028357015922665596,0.02735745720565319,-6.521707618389883e-10,0.0,0.0,-0.6,-0.03706932471210041,0.0002739429473876953,0.0002739429473876953,0.0038127899169921875,0
2.269796371459961,-0.05288428068161011,-0.03542601317167282,-0.6808405518531799,-0.03689477319208544,0.686561385080656,-0.03452408313751221,0.033548593521118164,-6.194316171104219e-10,0.0,0.0,-0.6,-0.03689477319208544,0.00025582313537597656,0.00025582313537597656,0.003349781036376953,0
2.279527187347412,-0.05288428068161011,-0.03542601317167282,-0.6808405518531799,-0.03689477319208544,0.6869228043461443,-0.024122586473822594,0.02696225792169571,-6.194316171104219e-10,0.0,0.0,-0.6,-0.03689477319208544,0.0001842975616455078,0.0001842975616455078,0.003153562545776367,0
2.289736270904541,-0.0521121583878994,-0.035027842968702316,-0.6826412081718445,-0.03670598080943893,0.6874219405756992,-0.030215412378311157,0.032851457595825195,3.216382715720556e-11,0.0,0.0,-0.6,-0.03670598080943893,0.0002155303955078125,0.0002155303955078125,0.003628253936767578,0
2.299960136413574,-0.05168493464589119,-0.03481600433588028,-0.683413565158844,-0.036624344804091075,0.687895218287305,-0.027948640286922455,0.032439935952425,-5.388209323164972e-10,0.0,0.0,-0.6,-0.036624344804091075,0.0003914833068847656,0.0003914833068847656,0.004914999008178711,0
2.3095855712890625,-0.05123066529631615,-0.03459535166621208,-0.6841209530830383,-0.036532376023684504,0.6883448246167408,-0.02628004178404808,0.03275725990533829,7.277020097617992e-10,0.0,0.0,-0.6,-0.036532376023684504,0.00021219253540039062,0.00021219253540039062,0.0031218528747558594,0
2.319812774658203,-0.05075003579258919,-0.0343666709959507,-0.6847477555274963,-0.03644350283301168,0.6887848249047391,-0.024554627016186714,0.03200334683060646,-3.1174940406941687e-10,0.0,0.0,-0.6,-0.03644350283301168,0.0002498626708984375,0.0002498626708984375,0.0034041404724121094,0
