time,x,y,z,yaw,throttle,roll_rate,pitch_rate,yaw_rate,x_ref,y_ref,z_ref,yaw_ref,pred_time,nr_time,ctrl_callback_time,metadata
9.5367431640625e-07,0.006827784702181816,-0.00994293112307787,-0.009492754936218262,0.021353184029686584,-0.7237931838202996,0.06356998840634898,-0.8,0.0,0.8,0.0,-0.8,0.021353184029686584,0.0006201267242431641,0.0021567344665527344,0.0031502246856689453,Sim
0.010266542434692383,0.006747042294591665,-0.010016661137342453,-0.009567204862833023,0.021341339726811112,-0.744943916817223,0.03257017142232989,-0.8,0.0,0.8,0.0,-0.8,0.021341339726811112,0.0005095005035400391,0.0028536319732666016,0.003931760787963867,Flatness
0.019814491271972656,0.006669080816209316,-0.010092460550367832,-0.009639812633395195,0.021345493891077417,-0.7598334093011936,0.016039491963788184,-0.8,0.0,0.8,0.0,-0.8,0.021345493891077417,0.0004436969757080078,0.0020475387573242188,0.0028562545776367188,1x Speed
0.030102252960205078,0.006593920290470123,-0.010169531218707561,-0.00970926508307457,0.021350681960785114,-0.7703943906916738,0.005277988639980882,-0.8,0.0,0.8,0.0,-0.8,0.021350681960785114,0.0004677772521972656,0.002203702926635742,0.003184795379638672,1stOrderHold
0.03988504409790039,0.006455166265368462,-0.010323010385036469,-0.009837373159825802,0.02135471108497247,-0.7779192761370683,0.0007725654743367816,-0.8,0.0,0.8,0.0,-0.8,0.02135471108497247,0.00047087669372558594,0.002530336380004883,0.0036759376525878906,QuatYawError
0.049858808517456055,0.006387352477759123,-0.010402332991361618,-0.009896627627313137,0.021357770847856155,-0.7833142267578255,-0.0013194901131258763,-0.8,0.0,0.8,0.0,-0.8,0.021357770847856155,0.00043487548828125,0.0029230117797851562,0.0037915706634521484,NoPyJoules
0.06048178672790527,0.006321616470813751,-0.010483596473932266,-0.009959718212485313,0.021363915344046854,-0.7872025779182917,-0.0023718744772652134,-0.8,0.0,0.8,0.0,-0.8,0.021363915344046854,0.00045800209045410156,0.0024373531341552734,0.003753662109375,0
0.06975150108337402,0.006260243244469166,-0.01056656613945961,-0.01001973170787096,0.02136998531638392,-0.7899966114073055,-0.00227347085026955,-0.7458213031900451,0.0,0.8,0.0,-0.8,0.02136998531638392,0.0003559589385986328,0.0024890899658203125,0.003397226333618164,0
0.08010578155517578,0.006184100639075041,-0.010736790485680103,-0.01024138554930687,0.021395962374789964,-0.7915587837262623,-0.0014060184867976948,-0.5960273110597253,0.0,0.8,0.0,-0.8,0.021395962374789964,0.0003273487091064453,0.0023488998413085938,0.0032808780670166016,0
0.09062027931213379,0.006193902343511581,-0.010822158306837082,-0.010484016500413418,0.021392617188425812,-0.7923038395669464,-0.0018304877190599637,-0.47653677259942606,0.0,0.8,0.0,-0.8,0.021392617188425812,0.0005478858947753906,0.003883838653564453,0.0050275325775146484,0
0.10029053688049316,0.006244164425879717,-0.010908321477472782,-0.010849136859178543,0.021408291250236296,-0.7923975536127956,-0.00022284338079939337,-0.381201998591271,0.0,0.8,0.0,-0.8,0.021408291250236296,0.0004343986511230469,0.0022335052490234375,0.0032362937927246094,0
0.11023736000061035,0.006339509971439838,-0.010996061377227306,-0.011349518783390522,0.021431375277343283,-0.7919957218268575,0.0023875361238575076,-0.30520122115985804,0.0,0.8,0.0,-0.8,0.021431375277343283,0.0004413127899169922,0.003274202346801758,0.004286766052246094,0
0.11998724937438965,0.006638430058956146,-0.011175055988132954,-0.012772896327078342,0.02144740958256455,-0.7907116918310216,0.003160332306559878,-0.2535975197901905,0.0,0.8,0.0,-0.8,0.02144740958256455,0.0004315376281738281,0.0024576187133789062,0.0036361217498779297,0
0.12996864318847656,0.006828657351434231,-0.011267073452472687,-0.013694873079657555,0.02147448818481329,-0.7893233512100054,0.0047538921246554,-0.20855531031013513,0.0,0.8,0.0,-0.8,0.02147448818481329,0.00040531158447265625,0.002655506134033203,0.0035262107849121094,0
0.1401691436767578,0.007039296440780163,-0.011361146345734596,-0.014756367541849613,0.021491616971384554,-0.7878376743953138,0.004262195095894473,-0.1734512992013805,0.0,0.8,0.0,-0.8,0.021491616971384554,0.00040602684020996094,0.0022804737091064453,0.0034394264221191406,0
0.15000534057617188,0.007270192261785269,-0.011455235071480274,-0.015961257740855217,0.021501016460958262,-0.7862652278082565,0.0035929867096943864,-0.14594439026842568,0.0,0.8,0.0,-0.8,0.021501016460958262,0.00038886070251464844,0.0026078224182128906,0.0033943653106689453,0
0.1605057716369629,0.0078007071278989315,-0.011647727340459824,-0.018812986090779305,0.021538929404627403,-0.7840472170853866,0.0061078773877534616,-0.13750530330662986,0.0,0.8,0.0,-0.8,0.021538929404627403,0.0004723072052001953,0.002701997756958008,0.004117727279663086,0
0.1701343059539795,0.008099096827208996,-0.011746974661946297,-0.020460307598114014,0.021569847241072877,-0.7819313295635776,0.0068358704661549,-0.1129292960674335,0.0,0.8,0.0,-0.8,0.021569847241072877,0.0004723072052001953,0.0035996437072753906,0.004716157913208008,0
0.18022418022155762,0.008420782163739204,-0.011847849935293198,-0.02227199077606201,0.02160622146022028,-0.7798918464318118,0.006606755800854477,-0.09253820364386925,0.0,0.8,0.0,-0.8,0.02160622146022028,0.0005216598510742188,0.0028023719787597656,0.00390625,0
0.19034504890441895,0.008768047206103802,-0.011950346641242504,-0.024222267791628838,0.021647356698131007,-0.7779175793326559,0.0073383955228333905,-0.07500011526602085,0.0,0.8,0.0,-0.8,0.021647356698131007,0.0005257129669189453,0.002984762191772461,0.004121303558349609,0
0.20033574104309082,0.009549266658723354,-0.012161684222519398,-0.028516266494989395,0.02166622212662839,-0.7754690826662418,0.009882122155137564,-0.06468855064961697,0.0,0.8,0.0,-0.8,0.02166622212662839,0.0005550384521484375,0.002574920654296875,0.003953456878662109,0
0.21016454696655273,0.00998824555426836,-0.012269160710275173,-0.030854111537337303,0.021679064827754467,-0.7732216738350778,0.009140256633775518,-0.0454885218833565,0.0,0.8,0.0,-0.8,0.021679064827754467,0.00047588348388671875,0.0027818679809570312,0.0037882328033447266,0
0.22044062614440918,0.010463305748999119,-0.012378765270113945,-0.033312782645225525,0.021695891644538796,-0.7711301902791319,0.0099974103960918,-0.02751573848043233,0.0,0.8,0.0,-0.8,0.021695891644538796,0.0004673004150390625,0.0028700828552246094,0.0041811466217041016,0
0.22992944717407227,0.010977629572153091,-0.012490415014326572,-0.035887710750103,0.0217072764939108,-0.7691498394545985,0.009463208601870741,-0.012562185270353708,0.0,0.8,0.0,-0.8,0.0217072764939108,0.0004932880401611328,0.0028171539306640625,0.00366973876953125,0
0.24033236503601074,0.01213547307997942,-0.012716271914541721,-0.04139242321252823,0.02174662070470655,-0.7667546030170257,0.011133073235537411,0.002971048294519566,0.0,0.8,0.0,-0.8,0.02174662070470655,0.0004687309265136719,0.002620697021484375,0.0037767887115478516,0
0.25011706352233887,0.012780689634382725,-0.012831833213567734,-0.044314101338386536,0.021765304168162372,-0.7645759916549325,0.011327304662123755,0.017723351889751635,0.0,0.8,0.0,-0.8,0.021765304168162372,0.0004763603210449219,0.0026845932006835938,0.003602743148803711,0
0.2600240707397461,0.013471432961523533,-0.01295003667473793,-0.04733917862176895,0.021777886503723615,-0.7625500629720515,0.012210979175310704,0.03005123747370406,0.0,0.8,0.0,-0.8,0.021777886503723615,0.0004611015319824219,0.0023026466369628906,0.003197908401489258,0
0.2701270580291748,0.014209020882844925,-0.013070059940218925,-0.05046533793210983,0.021780279111916396,-0.7606357664228734,0.010486510953053682,0.040442506731727,0.0,0.8,0.0,-0.8,0.021780279111916396,0.00037860870361328125,0.002283811569213867,0.003260374069213867,0
0.2800121307373047,0.014994440600275993,-0.01318939495831728,-0.05368849262595177,0.02178840974851581,-0.7588124336407224,0.009114303803240104,0.04986935921313442,0.0,0.8,0.0,-0.8,0.02178840974851581,0.00045108795166015625,0.002777099609375,0.003847837448120117,0
0.2901129722595215,0.016710111871361732,-0.013429813086986542,-0.06040973961353302,0.021773780121544673,-0.7566037510442661,0.010729224838672297,0.06739697878535444,0.0,0.8,0.0,-0.8,0.021773780121544673,0.00039076805114746094,0.002590179443359375,0.0034410953521728516,0
0.30013322830200195,0.017639867961406708,-0.013550668954849243,-0.06386905163526535,0.02177784450920598,-0.7545818787598847,0.010542554726975281,0.07502859993844055,0.0,0.8,0.0,-0.8,0.02177784450920598,0.0004119873046875,0.001949310302734375,0.0029473304748535156,0
0.3099193572998047,0.018619002774357796,-0.013672365806996822,-0.0674152597784996,0.021783527032148885,-0.7527030784268541,0.009511130355504301,0.08179910815996823,0.0,0.8,0.0,-0.8,0.021783527032148885,0.00039124488830566406,0.002475261688232422,0.0034055709838867188,0
0.32001376152038574,0.02073102444410324,-0.013914243318140507,-0.07474856078624725,0.021775486274988827,-0.750507493400056,0.009309693992331603,0.10197917914861401,0.0,0.8,0.0,-0.8,0.021775486274988827,0.00044727325439453125,0.002525806427001953,0.003605365753173828,0
0.3302764892578125,0.021862104535102844,-0.01403386052697897,-0.07853011786937714,0.021757575045957385,-0.7485298172025674,0.007423145480164281,0.10706585345995531,0.0,0.8,0.0,-0.8,0.021757575045957385,0.0005123615264892578,0.0028603076934814453,0.0040934085845947266,0
0.33973193168640137,0.023042848333716393,-0.014151490293443203,-0.08238473534584045,0.02175314727539143,-0.7467091524228268,0.005479271519180189,0.10987741711465467,0.0,0.8,0.0,-0.8,0.02175314727539143,0.0004756450653076172,0.002841472625732422,0.0037343502044677734,0
0.35007786750793457,0.024272194132208824,-0.014267208985984325,-0.08630867302417755,0.02174301881623874,-0.7450137365851469,0.0048918693200304154,0.11272151960151465,0.0,0.8,0.0,-0.8,0.02174301881623874,0.00030922889709472656,0.0024118423461914062,0.003317117691040039,0
0.3601553440093994,0.025551386177539825,-0.01438216958194971,-0.09029798954725266,0.021743176816812346,-0.7434137133115649,0.005433493721515386,0.1153295515678344,0.0,0.8,0.0,-0.8,0.021743176816812346,0.0005567073822021484,0.002737283706665039,0.00394749641418457,0
0.36977696418762207,0.028254006057977676,-0.014610384590923786,-0.0984707772731781,0.021743601733893246,-0.7415118795660496,0.005741478878963096,0.13487381630495351,0.0,0.8,0.0,-0.8,0.021743601733893246,0.0004963874816894531,0.0021538734436035156,0.0028531551361083984,0
0.3807978630065918,0.029675906524062157,-0.014721999876201153,-0.10264778882265091,0.021758867599790604,-0.7397882038877798,0.004681531412472324,0.13480182293388138,0.0,0.8,0.0,-0.8,0.021758867599790604,0.0005328655242919922,0.0030808448791503906,0.0047435760498046875,0
0.390300989151001,0.030486492440104485,-0.01466894056648016,-0.10586056858301163,0.021776022603503805,-0.7382495831891353,0.0015912034736740833,0.1320014566625842,0.0,0.8,0.0,-0.8,0.021776022603503805,0.0004963874816894531,0.0028352737426757812,0.004007816314697266,0
0.40000057220458984,0.032285939902067184,-0.014567223377525806,-0.112502321600914,0.02177712117839464,-0.7365475459848272,-0.0020734968056902578,0.14587868216535957,0.0,0.8,0.0,-0.8,0.02177712117839464,0.0003483295440673828,0.0015864372253417969,0.002346515655517578,0
0.41025257110595703,0.03327179327607155,-0.014518547803163528,-0.11592701077461243,0.021768777963221776,-0.7350315542261364,-0.0023266847859304985,0.14090137215456125,0.0,0.8,0.0,-0.8,0.021768777963221776,0.0005202293395996094,0.003010988235473633,0.003950357437133789,0
0.4200291633605957,0.03431377187371254,-0.014471989125013351,-0.11941763758659363,0.021796620086721796,-0.7336611087270168,-0.0019492455157919797,0.1366445793143741,0.0,0.8,0.0,-0.8,0.021796620086721796,0.0002512931823730469,0.0015149116516113281,0.0022242069244384766,0
0.43027591705322266,0.03541066497564316,-0.01442740112543106,-0.1229701042175293,0.021790046999857496,-0.7323971959351382,-0.00260573050599397,0.1332246948197169,0.0,0.8,0.0,-0.8,0.021790046999857496,0.0004858970642089844,0.003073453903198242,0.004166126251220703,0
0.4399278163909912,0.03777196258306503,-0.014342161826789379,-0.13025610148906708,0.02176045470213663,-0.7309376792318713,-0.0034911450905530344,0.15121742253510007,0.0,0.8,0.0,-0.8,0.02176045470213663,0.00039839744567871094,0.002696990966796875,0.0036573410034179688,0
0.4501311779022217,0.03903291001915932,-0.014302403666079044,-0.1339821070432663,0.02175986496683876,-0.729633373120981,-0.003066813729860778,0.14620299757339336,0.0,0.8,0.0,-0.8,0.02175986496683876,0.00045871734619140625,0.0028586387634277344,0.0037469863891601562,0
0.46052002906799316,0.04034437611699104,-0.014264451339840889,-0.13775795698165894,0.02177088153800273,-0.7284375201276543,-0.0027837895153204474,0.14243730198461313,0.0,0.8,0.0,-0.8,0.02177088153800273,0.0004611015319824219,0.0025663375854492188,0.0038709640502929688,0
0.47014737129211426,0.04170694947242737,-0.014228307642042637,-0.1415821611881256,0.02176989592797654,-0.7273258610134721,-0.0020117716302367767,0.13866870349625665,0.0,0.8,0.0,-0.8,0.02176989592797654,0.0005719661712646484,0.003056764602661133,0.0041027069091796875,0
0.48014140129089355,0.04458212852478027,-0.014159954153001308,-0.14936445653438568,0.02179651734245351,-0.7260275714582964,-0.0037598876533798094,0.15676505879927402,0.0,0.8,0.0,-0.8,0.02179651734245351,0.0003795623779296875,0.0017790794372558594,0.002594470977783203,0
0.49033689498901367,0.046092648059129715,-0.014126225374639034,-0.15331798791885376,0.021817740840693076,-0.7248576792083793,-0.004560480725294902,0.15160369663248077,0.0,0.8,0.0,-0.8,0.021817740840693076,0.0004343986511230469,0.0031621456146240234,0.00426936149597168,0
0.5003869533538818,0.04765075445175171,-0.014092819765210152,-0.1573096215724945,0.021825010527873265,-0.7237851352273379,-0.003976270372970071,0.146921212869903,0.0,0.8,0.0,-0.8,0.021825010527873265,0.0005886554718017578,0.0025627613067626953,0.003888368606567383,0
0.5102076530456543,0.04925378039479256,-0.014061246067285538,-0.161336749792099,0.021838591261585116,-0.722789949349311,-0.0018239259718362084,0.14237843083046106,0.0,0.8,0.0,-0.8,0.021838591261585116,0.000499725341796875,0.002919435501098633,0.004016876220703125,0
0.5200924873352051,0.0525963231921196,-0.014000783674418926,-0.16951525211334229,0.021846363451937995,-0.7216190119760862,-0.004807419989110079,0.1621534986649629,0.0,0.8,0.0,-0.8,0.021846363451937995,0.0004792213439941406,0.002401113510131836,0.003565073013305664,0
0.5299715995788574,0.05433424562215805,-0.013970590196549892,-0.17365023493766785,0.021838442654698517,-0.7205614609042128,-0.0030328114193473314,0.15596498832307273,0.0,0.8,0.0,-0.8,0.021838442654698517,0.0005383491516113281,0.003523111343383789,0.004390239715576172,0
0.5404736995697021,0.05611416697502136,-0.013942232355475426,-0.17781266570091248,0.021846487064298672,-0.7195931951924784,-0.0020552294892574046,0.15044801418204212,0.0,0.8,0.0,-0.8,0.021846487064298672,0.00063323974609375,0.004725217819213867,0.006266593933105469,0
0.5500469207763672,0.05793459713459015,-0.013913949020206928,-0.182000070810318,0.021858750395973726,-0.7186931020423317,-0.003538206078329998,0.14535180646492396,0.0,0.8,0.0,-0.8,0.021858750395973726,0.0004947185516357422,0.003214597702026367,0.0041811466217041016,0
0.5602715015411377,0.06169454753398895,-0.013859419152140617,-0.19044192135334015,0.02187129996831688,-0.7176453824448935,-0.002145178960845719,0.1635670488407667,0.0,0.8,0.0,-0.8,0.02187129996831688,0.0005867481231689453,0.0028145313262939453,0.004210948944091797,0
0.5698809623718262,0.06363221257925034,-0.013835909776389599,-0.19469434022903442,0.021871554885910263,-0.7166971237644327,0.0009655329670412403,0.1565660698943173,0.0,0.8,0.0,-0.8,0.021871554885910263,0.0004706382751464844,0.0040283203125,0.005247354507446289,0
0.580125093460083,0.06560856103897095,-0.013816053047776222,-0.19896507263183594,0.021855708372099384,-0.7158297650972166,0.0021561910395343884,0.1522241959516333,0.0,0.8,0.0,-0.8,0.021855708372099384,0.0006580352783203125,0.002999544143676758,0.0043451786041259766,0
0.590745210647583,0.06762311607599258,-0.013797500170767307,-0.20323577523231506,0.021864275436051326,-0.7150187400686467,0.0005013859809981995,0.1473738859592777,0.0,0.8,0.0,-0.8,0.021864275436051326,0.0004992485046386719,0.003206968307495117,0.004391908645629883,0
0.6000807285308838,0.07176139205694199,-0.013762315735220909,-0.21182459592819214,0.021881194995415534,-0.7140724594584659,0.0008321690972348933,0.16488943237179168,0.0,0.8,0.0,-0.8,0.021881194995415534,0.0006361007690429688,0.002179861068725586,0.003121614456176758,0
0.610210657119751,0.07388098537921906,-0.013745924457907677,-0.2161397486925125,0.02187911143318182,-0.7132176152692561,-0.0015482548715918722,0.1560201119245769,0.0,0.8,0.0,-0.8,0.02187911143318182,0.000537872314453125,0.003361940383911133,0.004402637481689453,0
0.6200668811798096,0.07603304088115692,-0.01372876763343811,-0.22046788036823273,0.02187802035553171,-0.712426380947349,-0.001096458948084329,0.1501623497808244,0.0,0.8,0.0,-0.8,0.02187802035553171,0.0004253387451171875,0.0019376277923583984,0.0027496814727783203,0
0.6300883293151855,0.07821707427501678,-0.013713761232793331,-0.22480835020542145,0.021881153582600687,-0.7116862806413913,0.0005483625168440276,0.14381122249437775,0.0,0.8,0.0,-0.8,0.021881153582600687,0.0005056858062744141,0.0032775402069091797,0.004335641860961914,0
0.6403236389160156,0.08043094724416733,-0.013700105249881744,-0.22915908694267273,0.021886366792215277,-0.71098719178186,0.00024867427358965554,0.13916368721851996,0.0,0.8,0.0,-0.8,0.021886366792215277,0.0008723735809326172,0.0028886795043945312,0.004193305969238281,0
0.650249719619751,0.08494892716407776,-0.013673998415470123,-0.23788796365261078,0.02187414659357528,-0.7101507717465737,-0.0007677367835660278,0.1560000979767836,0.0,0.8,0.0,-0.8,0.02187414659357528,0.00042247772216796875,0.0027403831481933594,0.003656625747680664,0
0.660287618637085,0.08724924921989441,-0.013661856763064861,-0.24226567149162292,0.021885543881657595,-0.7093955627399574,-0.0009670350783558151,0.1484902658018628,0.0,0.8,0.0,-0.8,0.021885543881657595,0.0005266666412353516,0.002511739730834961,0.0037500858306884766,0
0.6699657440185547,0.08957613259553909,-0.013650546781718731,-0.24664773046970367,0.021899057188793897,-0.7087048014524299,-0.0004142369405659978,0.14261694887785498,0.0,0.8,0.0,-0.8,0.021899057188793897,0.00044345855712890625,0.002810239791870117,0.0037560462951660156,0
0.6803407669067383,0.0943133756518364,-0.013627905398607254,-0.2554173469543457,0.0219246349543562,-0.7079220869359629,-0.0019263907093065272,0.16068071312801313,0.0,0.8,0.0,-0.8,0.0219246349543562,0.0005388259887695312,0.0028464794158935547,0.004259586334228516,0
0.6898787021636963,0.0967206358909607,-0.01361746247857809,-0.2598029673099518,0.02193453742350174,-0.7072202170323185,-0.0009389626801941646,0.15142312016374845,0.0,0.8,0.0,-0.8,0.02193453742350174,0.00039124488830566406,0.003045320510864258,0.0037326812744140625,0
0.7001914978027344,0.09914989024400711,-0.013607216067612171,-0.2641887962818146,0.021926208472247074,-0.7065788001986762,-0.0016767181411618806,0.14322067184732212,0.0,0.8,0.0,-0.8,0.021926208472247074,0.0005900859832763672,0.0026862621307373047,0.0039234161376953125,0
0.7100362777709961,0.10160105675458908,-0.01359743531793356,-0.2685728967189789,0.021923111278522086,-0.7059882776872255,-4.9977252021982947e-05,0.137242083729079,0.0,0.8,0.0,-0.8,0.021923111278522086,0.0003390312194824219,0.002614259719848633,0.0034825801849365234,0
0.7203061580657959,0.1065666452050209,-0.013583777472376823,-0.2773325741291046,0.021935961796186374,-0.7053063842276815,0.0013002134635392375,0.15114022192366233,0.0,0.8,0.0,-0.8,0.021935961796186374,0.00046634674072265625,0.0020139217376708984,0.003122091293334961,0
0.7301554679870605,0.10907844454050064,-0.013579039834439754,-0.28173118829727173,0.02194651210688736,-0.704696385578802,0.0025694188198398683,0.14275460475921142,0.0,0.8,0.0,-0.8,0.02194651210688736,0.0006184577941894531,0.0032417774200439453,0.004372119903564453,0
0.7397866249084473,0.11161157488822937,-0.013576704077422619,-0.2861233353614807,0.02193138506102203,-0.7041389457597418,0.0027738589874307263,0.13477975539746376,0.0,0.8,0.0,-0.8,0.02193138506102203,0.0004324913024902344,0.0020618438720703125,0.0028765201568603516,0
0.7503080368041992,0.11416084319353104,-0.013575649820268154,-0.290508508682251,0.021914580831361472,-0.7036190580859275,0.002634986899852511,0.12793237653885384,0.0,0.8,0.0,-0.8,0.021914580831361472,0.00043201446533203125,0.0027434825897216797,0.003677845001220703,0
0.7605869770050049,0.11930717527866364,-0.013573423027992249,-0.29925599694252014,0.021919189913205805,-0.7030131995550415,0.00021650818967697413,0.14129873032471812,0.0,0.8,0.0,-0.8,0.021919189913205805,0.0005595684051513672,0.0026946067810058594,0.004271507263183594,0
0.7699966430664062,0.12190363556146622,-0.01357228122651577,-0.30361711978912354,0.02190326335378794,-0.7024619824935503,-0.000563316933403054,0.13389919319171145,0.0,0.8,0.0,-0.8,0.02190326335378794,0.0004508495330810547,0.001964569091796875,0.002882242202758789,0
0.7805066108703613,0.12451548874378204,-0.013571147806942463,-0.3079695999622345,0.021894713903931676,-0.7019550478671407,-0.000160762313856645,0.12746896358064028,0.0,0.8,0.0,-0.8,0.021894713903931676,0.0007541179656982422,0.0034410953521728516,0.0050237178802490234,0
0.7909610271453857,0.12686216831207275,-0.013497269712388515,-0.3122880458831787,0.021895728237368548,-0.7014922830638121,-0.0013285529820542344,0.11902656829444898,0.0,0.8,0.0,-0.8,0.021895728237368548,0.0015902519226074219,0.010452747344970703,0.01212000846862793,0
0.8047287464141846,0.12686216831207275,-0.013497269712388515,-0.3122880458831787,0.021895728237368548,-0.7011618188385407,-0.0006405057827394368,0.096633859990898,0.0,0.8,0.0,-0.8,0.021895728237368548,0.0014147758483886719,0.006861686706542969,0.008720159530639648,0
0.8139426708221436,0.13642261922359467,-0.013220112770795822,-0.32949745655059814,0.021972759983900858,-0.7005399768245038,-0.004217823802889609,0.1415198281117358,0.0,0.8,0.0,-0.8,0.021972759983900858,0.0004451274871826172,0.0029616355895996094,0.0037741661071777344,0
0.8197064399719238,0.13642261922359467,-0.013220112770795822,-0.32949745655059814,0.021972759983900858,-0.7000969754237502,-0.002607104947912234,0.11515507382730761,0.0,0.8,0.0,-0.8,0.021972759983900858,0.0006196498870849609,0.002918243408203125,0.0037543773651123047,0
0.8302087783813477,0.1388510763645172,-0.013156085275113583,-0.3337693214416504,0.02196700655018846,-0.6996967655368684,-0.001623785114231766,0.107048275668091,0.0,0.8,0.0,-0.8,0.02196700655018846,0.0005297660827636719,0.002705097198486328,0.0037016868591308594,0
0.8408904075622559,0.14374607801437378,-0.013036197982728481,-0.34226474165916443,0.021966110115874692,-0.6992432448627203,-0.0008497935740129747,0.11568856954481056,0.0,0.8,0.0,-0.8,0.021966110115874692,0.0006792545318603516,0.003561258316040039,0.005337238311767578,0
0.8499507904052734,0.14621174335479736,-0.01298060268163681,-0.34648749232292175,0.02196775339703216,-0.6988335588545601,0.00039954282389762527,0.10774784556416915,0.0,0.8,0.0,-0.8,0.02196775339703216,0.00044417381286621094,0.002924203872680664,0.0038580894470214844,0
0.8603777885437012,0.14868757128715515,-0.012927968986332417,-0.35069379210472107,0.021979016925950997,-0.6984658067225024,0.00021936229293472126,0.1001608708634143,0.0,0.8,0.0,-0.8,0.021979016925950997,0.0007326602935791016,0.0032341480255126953,0.004294395446777344,0
0.8701009750366211,0.15117141604423523,-0.012877192348241806,-0.35488125681877136,0.021975374867645236,-0.6981272269112846,-0.00044374656817878263,0.09367731856547283,0.0,0.8,0.0,-0.8,0.021975374867645236,0.00046896934509277344,0.002568483352661133,0.0038852691650390625,0
0.8801407814025879,0.1561640202999115,-0.012780044227838516,-0.3632877469062805,0.022004271201318513,-0.6977350812641364,-0.0023305508817787657,0.10101361568515886,0.0,0.8,0.0,-0.8,0.022004271201318513,0.0005176067352294922,0.00315093994140625,0.004254579544067383,0
0.8908753395080566,0.15867064893245697,-0.012734182178974152,-0.3674595057964325,0.022027380518983036,-0.6973899900666816,-0.0016513586519735124,0.09348690043563672,0.0,0.8,0.0,-0.8,0.022027380518983036,0.0008561611175537109,0.0035920143127441406,0.004886627197265625,0
0.8999536037445068,0.16118256747722626,-0.012690018862485886,-0.37160903215408325,0.02203341943122252,-0.6970809775479998,-0.0017531621369219173,0.08809389075117396,0.0,0.8,0.0,-0.8,0.02203341943122252,0.0004515647888183594,0.0029306411743164062,0.0037717819213867188,0
0.9103107452392578,0.16369909048080444,-0.012647585943341255,-0.37573543190956116,0.022048004788986154,-0.6968019113635281,-0.0008356812867773362,0.0823814727937716,0.0,0.8,0.0,-0.8,0.022048004788986154,0.0004892349243164062,0.0027823448181152344,0.0042002201080322266,0
0.9199728965759277,0.1687406599521637,-0.012567785568535328,-0.383918821811676,0.022045323104353497,-0.6964810789937804,-0.0007916160950829361,0.08869429063418531,0.0,0.8,0.0,-0.8,0.022045323104353497,0.00038433074951171875,0.0033431053161621094,0.0044400691986083984,0
0.9304277896881104,0.17126579582691193,-0.012532396242022514,-0.38797545433044434,0.022039752317728024,-0.696200760904663,0.0016563796887362327,0.08307279318242301,0.0,0.8,0.0,-0.8,0.022039752317728024,0.0004978179931640625,0.002760171890258789,0.004113912582397461,0
0.940399169921875,0.17379271984100342,-0.012499366886913776,-0.3920077681541443,0.022011844367871222,-0.6959458766916892,0.0007429772101968831,0.07762783187541597,0.0,0.8,0.0,-0.8,0.022011844367871222,0.0006287097930908203,0.0035521984100341797,0.004604339599609375,0
0.9502222537994385,0.17632053792476654,-0.012467624619603157,-0.3960373103618622,0.022008547717567804,-0.6957130559776006,-0.0002281475321573504,0.07334095207898639,0.0,0.8,0.0,-0.8,0.022008547717567804,0.0004634857177734375,0.002469778060913086,0.00356292724609375,0
0.9602930545806885,0.18138054013252258,-0.012405653484165668,-0.40401721000671387,0.022030631167312933,-0.6954532991109735,-0.0017325000418922925,0.08142580695745687,0.0,0.8,0.0,-0.8,0.022030631167312933,0.0005278587341308594,0.0035581588745117188,0.004545688629150391,0
0.9703705310821533,0.18391141295433044,-0.01237579807639122,-0.4079679250717163,0.022030404524828233,-0.6952239525962925,-0.0026431953549661915,0.07600712857400867,0.0,0.8,0.0,-0.8,0.022030404524828233,0.0004172325134277344,0.002300739288330078,0.003423929214477539,0
0.9800119400024414,0.1864418387413025,-0.012345965951681137,-0.41189244389533997,0.022030923020997472,-0.6950115265686427,-0.0030973143846316107,0.07154899622042397,0.0,0.8,0.0,-0.8,0.022030923020997472,0.0004589557647705078,0.003256559371948242,0.004358768463134766,0
0.9907829761505127,0.18897053599357605,-0.012316495180130005,-0.41579195857048035,0.022043978014493218,-0.6948147809058608,-0.003040118606683868,0.06662081984583251,0.0,0.8,0.0,-0.8,0.022043978014493218,0.0008285045623779297,0.0026683807373046875,0.004000663757324219,0
1.0000100135803223,0.19402144849300385,-0.012260583229362965,-0.4235090911388397,0.022074478132273815,-0.6945971807035427,-0.0025488134749600566,0.07261187482847548,0.0,0.8,0.0,-0.8,0.022074478132273815,0.0004425048828125,0.002757549285888672,0.0040111541748046875,0
1.0097298622131348,0.19654199481010437,-0.012234577909111977,-0.42733898758888245,0.02208449598521714,-0.6943966539854517,-0.0020422171086178996,0.06715054926193911,0.0,0.8,0.0,-0.8,0.02208449598521714,0.0003502368927001953,0.002435922622680664,0.0031785964965820312,0
1.0198867321014404,0.19906029105186462,-0.01220957562327385,-0.4311423897743225,0.022096356948382273,-0.6942172498903321,-0.0018895280927620313,0.0646404776119433,0.0,0.8,0.0,-0.8,0.022096356948382273,0.00038504600524902344,0.002116680145263672,0.003055572509765625,0
1.0303103923797607,0.2015770971775055,-0.01218536775559187,-0.43491724133491516,0.022121742680795555,-0.6940581880275968,-0.0008594142238862582,0.062143054963541076,0.0,0.8,0.0,-0.8,0.022121742680795555,0.0007035732269287109,0.002834796905517578,0.004058122634887695,0
1.0401420593261719,0.20659972727298737,-0.01214425079524517,-0.44237810373306274,0.02215870777913552,-0.6938916258775648,-6.866742150771403e-05,0.06800963931020843,0.0,0.8,0.0,-0.8,0.02215870777913552,0.0003833770751953125,0.0020194053649902344,0.0031423568725585938,0
1.0502521991729736,0.20910456776618958,-0.012124519795179367,-0.44606447219848633,0.022153826373096625,-0.6937487235008747,-0.0007169345211369754,0.06343623750913713,0.0,0.8,0.0,-0.8,0.022153826373096625,0.00070953369140625,0.002500295639038086,0.0035905838012695312,0
1.0600981712341309,0.21160569787025452,-0.012105659581720829,-0.44972044229507446,0.022159323056003682,-0.6936232529852798,-0.0006232045891662026,0.061181561811129034,0.0,0.8,0.0,-0.8,0.022159323056003682,0.0002617835998535156,0.0014417171478271484,0.0022437572479248047,0
1.0699925422668457,0.21410328149795532,-0.01208734605461359,-0.4533569812774658,0.0221464825213839,-0.6935100807313114,-0.001295496058977286,0.05832091216469076,0.0,0.8,0.0,-0.8,0.0221464825213839,0.0005767345428466797,0.0018930435180664062,0.0027310848236083984,0
1.0798289775848389,0.2190840244293213,-0.012055371887981892,-0.46054312586784363,0.022173390821560827,-0.6933712186228312,0.0006839052360356771,0.06319338256272945,0.0,0.8,0.0,-0.8,0.022173390821560827,0.000286102294921875,0.002236604690551758,0.0035276412963867188,0
1.0901496410369873,0.22156395018100739,-0.012040841393172741,-0.4640945494174957,0.02218534588468975,-0.6932441922567112,-0.0015837323864433695,0.05763617942428737,0.0,0.8,0.0,-0.8,0.02218534588468975,0.0006659030914306641,0.003344297409057617,0.004319190979003906,0
1.1002156734466553,0.22403913736343384,-0.012025326490402222,-0.4676177501678467,0.02219596292158279,-0.6931312387306067,-0.003698283750729248,0.05424456654956171,0.0,0.8,0.0,-0.8,0.02219596292158279,0.0004813671112060547,0.0024788379669189453,0.003448963165283203,0
1.1100959777832031,0.2265084683895111,-0.01200957503169775,-0.471110075712204,0.022192363210954573,-0.6930409096689484,-0.0029664267013490204,0.052486849413550626,0.0,0.8,0.0,-0.8,0.022192363210954573,0.0005269050598144531,0.0022368431091308594,0.0031681060791015625,0
1.120300054550171,0.2314259111881256,-0.011979909613728523,-0.47799983620643616,0.022213192279316462,-0.6929547443666185,-0.0022791185497521176,0.057616710614416054,0.0,0.8,0.0,-0.8,0.022213192279316462,0.00045180320739746094,0.0027647018432617188,0.003980875015258789,0
1.1299171447753906,0.23387368023395538,-0.01196743082255125,-0.4813978970050812,0.02223443399270146,-0.6928801260774873,-0.00021071946805026125,0.05365047801181938,0.0,0.8,0.0,-0.8,0.02223443399270146,0.00032258033752441406,0.0024242401123046875,0.0031752586364746094,0
1.1400146484375,0.23631268739700317,-0.011957055889070034,-0.48475927114486694,0.022246965791595737,-0.6928194635030068,0.0005449331310428172,0.04982528668350299,0.0,0.8,0.0,-0.8,0.022246965791595737,0.0004475116729736328,0.0023581981658935547,0.0033409595489501953,0
1.1500451564788818,0.23874279856681824,-0.011947582475841045,-0.4880884885787964,0.022250746587860377,-0.692772922477677,0.0002803110885864515,0.046974657463465054,0.0,0.8,0.0,-0.8,0.022250746587860377,0.0004520416259765625,0.0029964447021484375,0.00388336181640625,0
1.1599199771881104,0.24357691407203674,-0.011932343244552612,-0.4946534335613251,0.022222526476378523,-0.6927259635963563,0.001639705350168918,0.05177421472353796,0.0,0.8,0.0,-0.8,0.022222526476378523,0.00032711029052734375,0.0022606849670410156,0.003111124038696289,0
1.1701512336730957,0.24597805738449097,-0.011925905011594296,-0.4978898763656616,0.022204394387781927,-0.6926871442550767,0.0024048535677585743,0.046968466904050564,0.0,0.8,0.0,-0.8,0.022204394387781927,0.0004742145538330078,0.0031518936157226562,0.0042476654052734375,0
1.1803929805755615,0.24836960434913635,-0.011921713128685951,-0.5010956525802612,0.02217960357811017,-0.6926537644273804,0.002867652410533219,0.04494585705319184,0.0,0.8,0.0,-0.8,0.02217960357811017,0.00045108795166015625,0.002480030059814453,0.003749370574951172,0
1.1900739669799805,0.251176655292511,-0.011742816306650639,-0.5044963955879211,0.02216850265643026,-0.6926141192830321,-0.00018770815396292346,0.04611252516671999,0.0,0.8,0.0,-0.8,0.02216850265643026,0.00038313865661621094,0.0026628971099853516,0.0035839080810546875,0
1.200066089630127,0.2567335069179535,-0.01139770820736885,-0.5111901164054871,0.022202814629570543,-0.6925639543048973,-0.005623918800305832,0.054977256006812365,0.0,0.8,0.0,-0.8,0.022202814629570543,0.00037479400634765625,0.002519845962524414,0.003473520278930664,0
1.211082935333252,0.259482741355896,-0.011230064556002617,-0.5144960284233093,0.022211782214138855,-0.6925166716130423,-0.007181751437300914,0.05344434485002229,0.0,0.8,0.0,-0.8,0.022211782214138855,0.0006680488586425781,0.0028908252716064453,0.004676342010498047,0
1.2199954986572266,0.26221251487731934,-0.011065437458455563,-0.5177665948867798,0.022231267014085974,-0.6924691777158879,-0.007624626381618888,0.05057649933997672,0.0,0.8,0.0,-0.8,0.022231267014085974,0.000331878662109375,0.002125978469848633,0.0029501914978027344,0
1.2302381992340088,0.2649220824241638,-0.010904243215918541,-0.5210021138191223,0.022267654696104595,-0.692427010300171,-0.008232107973016399,0.04890795275167505,0.0,0.8,0.0,-0.8,0.022267654696104595,0.000621795654296875,0.002958059310913086,0.003912925720214844,0
1.240128517150879,0.27028441429138184,-0.01059444434940815,-0.5273639559745789,0.02230598932772489,-0.6923898116074325,-0.008402462057643067,0.055441894232639205,0.0,0.8,0.0,-0.8,0.02230598932772489,0.0004794597625732422,0.0033698081970214844,0.0046651363372802734,0
1.2498950958251953,0.27293625473976135,-0.010446010157465935,-0.5304915904998779,0.02232300712867268,-0.692359419042434,-0.008212678817075455,0.05115889164869539,0.0,0.8,0.0,-0.8,0.02232300712867268,0.0005509853363037109,0.0034170150756835938,0.004412651062011719,0
1.2603950500488281,0.27556702494621277,-0.010300950147211552,-0.5335838198661804,0.022331401386940123,-0.6923363254421101,-0.0072487806138689355,0.047902288584340376,0.0,0.8,0.0,-0.8,0.022331401386940123,0.0005121231079101562,0.003110170364379883,0.004141330718994141,0
1.2700328826904297,0.2781785726547241,-0.010159514844417572,-0.5366404056549072,0.022323754531957406,-0.6923197515178937,-0.006761060830139418,0.04617665063314355,0.0,0.8,0.0,-0.8,0.022323754531957406,0.0006814002990722656,0.0028107166290283203,0.0037784576416015625,0
1.2801063060760498,0.2833436131477356,-0.009887795895338058,-0.5426607728004456,0.022352994291282784,-0.6923096070109762,-0.00696889993181567,0.05074085450403717,0.0,0.8,0.0,-0.8,0.022352994291282784,0.0005049705505371094,0.0029158592224121094,0.004183053970336914,0
1.290536880493164,0.28589707612991333,-0.009757830761373043,-0.5456256866455078,0.022367501882821994,-0.6922961714159395,-0.0055174354674745124,0.04767994775315832,0.0,0.8,0.0,-0.8,0.022367501882821994,0.0005409717559814453,0.0030286312103271484,0.004228115081787109,0
1.3001527786254883,0.28843286633491516,-0.009631049819290638,-0.5485572814941406,0.02238833040794226,-0.6922863656711388,-0.005963221741474924,0.046211416996755225,0.0,0.8,0.0,-0.8,0.02238833040794226,0.00048422813415527344,0.003031015396118164,0.0042078495025634766,0
1.3102443218231201,0.2909514009952545,-0.009507354348897934,-0.5514547228813171,0.02242509298834505,-0.6922793882661754,-0.004871030005492921,0.04439950284109118,0.0,0.8,0.0,-0.8,0.02242509298834505,0.0005054473876953125,0.002612590789794922,0.0035257339477539062,0
1.3198983669281006,0.295937716960907,-0.009270546957850456,-0.5571467280387878,0.022453415620529635,-0.6922900367252056,-0.0022296359440717862,0.049567315729953695,0.0,0.8,0.0,-0.8,0.022453415620529635,0.0003135204315185547,0.001680135726928711,0.002428293228149414,0
1.3300442695617676,0.2984035015106201,-0.009159636683762074,-0.5599412322044373,0.022461024252780626,-0.6923007754601654,-0.0020022171050828705,0.04590697645274689,0.0,0.8,0.0,-0.8,0.022461024252780626,0.0004324913024902344,0.002379179000854492,0.0033483505249023438,0
1.3401989936828613,0.30085042119026184,-0.009051749482750893,-0.5627022981643677,0.022467504801665202,-0.6923161035444869,-0.0023825722270647935,0.042688628380820104,0.0,0.8,0.0,-0.8,0.022467504801665202,0.00045871734619140625,0.003253459930419922,0.004221916198730469,0
1.3498985767364502,0.3032783567905426,-0.008947807364165783,-0.5654295086860657,0.022489896029290718,-0.69233555922555,-0.0007505607271908748,0.04006984468027926,0.0,0.8,0.0,-0.8,0.022489896029290718,0.0004029273986816406,0.0022923946380615234,0.003067493438720703,0
1.3600859642028809,0.3080766499042511,-0.00875303614884615,-0.570800244808197,0.02252961320974322,-0.692376130161225,-0.0011609806434860399,0.04227653406583416,0.0,0.8,0.0,-0.8,0.02252961320974322,0.00040721893310546875,0.0023398399353027344,0.0032320022583007812,0
1.3700079917907715,0.3104461133480072,-0.008660315535962582,-0.5734342932701111,0.022565074610459004,-0.6924185965901097,-0.0010187553254868147,0.03951096813767019,0.0,0.8,0.0,-0.8,0.022565074610459004,0.00040459632873535156,0.002560138702392578,0.0035250186920166016,0
1.3799998760223389,0.3127969801425934,-0.008571303449571133,-0.5760349631309509,0.022605265757320827,-0.6924573416722117,-0.00032361941834324886,0.036163112778514646,0.0,0.8,0.0,-0.8,0.022605265757320827,0.00036716461181640625,0.002715587615966797,0.003513336181640625,0
1.390364646911621,0.3151262700557709,-0.008487055078148842,-0.5786038637161255,0.022624569694785587,-0.6924925559289697,0.0011240619458168098,0.03340237452120851,0.0,0.8,0.0,-0.8,0.022624569694785587,0.00054931640625,0.00275421142578125,0.0037674903869628906,0
1.4001100063323975,0.3197258710861206,-0.008332919329404831,-0.5836438536643982,0.0226272077531675,-0.6925532625147103,0.002422969433753181,0.0353013142957384,0.0,0.8,0.0,-0.8,0.0226272077531675,0.00045418739318847656,0.0025589466094970703,0.004040956497192383,0
1.4102754592895508,0.32199686765670776,-0.008261799812316895,-0.5861133933067322,0.02265537443686144,-0.6926143189894581,0.002894871400950917,0.03338490811786827,0.0,0.8,0.0,-0.8,0.02265537443686144,0.0004200935363769531,0.0018677711486816406,0.002839326858520508,0
1.4203269481658936,0.3242478370666504,-0.00819547101855278,-0.5885502696037292,0.022683015797479156,-0.6926746904226199,0.003664167897968066,0.029389578899940958,0.0,0.8,0.0,-0.8,0.022683015797479156,0.0003437995910644531,0.0022559165954589844,0.0037043094635009766,0
1.4301409721374512,0.32647693157196045,-0.008133000694215298,-0.5909613370895386,0.022709133376542154,-0.692736459843143,0.0023849758651842273,0.026046713238487996,0.0,0.8,0.0,-0.8,0.022709133376542154,0.0005397796630859375,0.0028831958770751953,0.003864288330078125,0
1.4403603076934814,0.3286847770214081,-0.008072638884186745,-0.5933413505554199,0.022741128842351032,-0.6927883872349395,0.0004319528104519584,0.023300998267602367,0.0,0.8,0.0,-0.8,0.022741128842351032,0.0005860328674316406,0.003535747528076172,0.004846334457397461,0
1.4500839710235596,0.33303892612457275,-0.0079579409211874,-0.5980086922645569,0.022796046676977173,-0.6928688961467634,-0.0011777240181167093,0.024102503013650477,0.0,0.8,0.0,-0.8,0.022796046676977173,0.000396728515625,0.002134084701538086,0.0029828548431396484,0
1.4603679180145264,0.3351866602897644,-0.0079049589112401,-0.6002942323684692,0.022817063132475703,-0.6929436186413882,-0.0009779331956183157,0.021903616889161027,0.0,0.8,0.0,-0.8,0.022817063132475703,0.00046062469482421875,0.0025854110717773438,0.003687143325805664,0
1.4700171947479248,0.33731359243392944,-0.007854108698666096,-0.6025490164756775,0.022829022591461936,-0.693015108051859,-0.0015037330600282657,0.019860446955335002,0.0,0.8,0.0,-0.8,0.022829022591461936,0.0003387928009033203,0.001985311508178711,0.002703428268432617,0
1.4801764488220215,0.33942002058029175,-0.007804592605680227,-0.6047728061676025,0.02284478305755803,-0.6930872355487819,-0.0030336670440785168,0.018443402859320848,0.0,0.8,0.0,-0.8,0.02284478305755803,0.0003311634063720703,0.0017971992492675781,0.0025916099548339844,0
1.4900388717651367,0.34357166290283203,-0.007707905024290085,-0.6091281175613403,0.02286498716740952,-0.6931887242867383,-0.004571372443432866,0.019287644742470595,0.0,0.8,0.0,-0.8,0.02286498716740952,0.00041866302490234375,0.003233671188354492,0.004080533981323242,0
1.5004351139068604,0.3456158936023712,-0.007662495132535696,-0.6112533211708069,0.022894068428235152,-0.6932872552695756,-0.002569372703894744,0.016436915146715577,0.0,0.8,0.0,-0.8,0.022894068428235152,0.0007593631744384766,0.002469301223754883,0.003887653350830078,0
1.5101568698883057,0.34763792157173157,-0.007620460819453001,-0.613348126411438,0.0229045110694229,-0.69338180338183,-0.0007434400255400567,0.014081476745655389,0.0,0.8,0.0,-0.8,0.0229045110694229,0.00035190582275390625,0.0032074451446533203,0.004205942153930664,0
1.5203735828399658,0.3516170382499695,-0.00754717318341136,-0.6174466609954834,0.022881286644253894,-0.6934998210865718,0.0011527739044031747,0.012501083749041294,0.0,0.8,0.0,-0.8,0.022881286644253894,0.0006105899810791016,0.002524852752685547,0.004046440124511719,0
1.5302555561065674,0.35357269644737244,-0.007514033932238817,-0.6194523572921753,0.022885466799993,-0.6936115000813815,0.00143493888847059,0.010720540128923036,0.0,0.8,0.0,-0.8,0.022885466799993,0.0004909038543701172,0.002450227737426758,0.0036668777465820312,0
1.5399534702301025,0.35550761222839355,-0.007483678869903088,-0.6214277744293213,0.022890242990112636,-0.6937202895119199,0.0014729778019279855,0.009795032680813531,0.0,0.8,0.0,-0.8,0.022890242990112636,0.0003039836883544922,0.0016586780548095703,0.0023412704467773438,0
1.5498473644256592,0.35742324590682983,-0.00745656993240118,-0.6233734488487244,0.0229169207523537,-0.6938252920583952,0.0027077432799817304,0.009949729734476703,0.0,0.8,0.0,-0.8,0.0229169207523537,0.0004570484161376953,0.0022950172424316406,0.0030901432037353516,0
1.5607211589813232,0.36119088530540466,-0.007414099760353565,-0.627178966999054,0.0229337821478126,-0.6939562328043809,0.005259758499047809,0.0075693749482545905,0.0,0.8,0.0,-0.8,0.0229337821478126,0.0004341602325439453,0.0027022361755371094,0.003661632537841797,0
1.5701031684875488,0.3630419969558716,-0.007397872395813465,-0.6290736794471741,0.022933620695990416,-0.6940825104967168,0.004899154275136328,0.006014715419806707,0.0,0.8,0.0,-0.8,0.022933620695990416,0.0005357265472412109,0.002569913864135742,0.0039026737213134766,0
1.5801713466644287,0.3630419969558716,-0.007397872395813465,-0.6290736794471741,0.022933620695990416,-0.6941707797694919,0.003435693339572553,0.004548272666942921,0.0,0.8,0.0,-0.8,0.022933620695990416,0.0004904270172119141,0.0030863285064697266,0.0040934085845947266,0
1.589839220046997,0.3672136664390564,-0.007180335465818644,-0.6330798864364624,0.02293224478456295,-0.6942750983339647,0.0008331791061912338,0.010992146788531783,0.0,0.8,0.0,-0.8,0.02293224478456295,0.00047469139099121094,0.0021796226501464844,0.002921581268310547,0
1.600578784942627,0.3718056380748749,-0.0067880647256970406,-0.6372580528259277,0.02295355972063489,-0.6943697576788488,-0.004493912219372533,0.018213375064212636,0.0,0.8,0.0,-0.8,0.02295355972063489,0.0007071495056152344,0.0035376548767089844,0.004479408264160156,0
1.6099519729614258,0.37405532598495483,-0.006600501015782356,-0.6392949223518372,0.022952248712745905,-0.6944532305085467,-0.005520697457129284,0.017941638171929605,0.0,0.8,0.0,-0.8,0.022952248712745905,0.0006518363952636719,0.002770662307739258,0.0038270950317382812,0
1.619947910308838,0.3762744069099426,-0.006418503820896149,-0.6412982940673828,0.02297090752890025,-0.694519320697654,-0.005552531463727304,0.017944224258299425,0.0,0.8,0.0,-0.8,0.02297090752890025,0.00046324729919433594,0.0018875598907470703,0.0028831958770751953,0
1.6300115585327148,0.37846243381500244,-0.006242481060326099,-0.6432688236236572,0.022997797034325553,-0.6945833477836187,-0.00487546487907427,0.01656747117545484,0.0,0.8,0.0,-0.8,0.022997797034325553,0.0007748603820800781,0.0033063888549804688,0.004484415054321289,0
1.640430212020874,0.38274702429771423,-0.005906602833420038,-0.6471217274665833,0.02305188298602951,-0.694676236874786,-0.0077999867376217676,0.019742786444454576,0.0,0.8,0.0,-0.8,0.02305188298602951,0.0005216598510742188,0.0031142234802246094,0.00402379035949707,0
1.6499667167663574,0.3848441243171692,-0.005745654460042715,-0.6490034461021423,0.023089725298060023,-0.6947666403979524,-0.007332972000293596,0.017760743568152253,0.0,0.8,0.0,-0.8,0.023089725298060023,0.0004057884216308594,0.0017235279083251953,0.0023250579833984375,0
1.660491704940796,0.3848441243171692,-0.005745654460042715,-0.6490034461021423,0.023089725298060023,-0.6948294084699524,-0.005095330141446057,0.013985036103669754,0.0,0.8,0.0,-0.8,0.023089725298060023,0.0003342628479003906,0.0022878646850585938,0.0036940574645996094,0
1.6700589656829834,0.3889487087726593,-0.005440042819827795,-0.6526674032211304,0.02310817699349881,-0.6949135805885989,-0.0055648767764710245,0.01445324487458239,0.0,0.8,0.0,-0.8,0.02310817699349881,0.00046706199645996094,0.002731800079345703,0.0036759376525878906,0
1.6808204650878906,0.3889487087726593,-0.005440042819827795,-0.6526674032211304,0.02310817699349881,-0.6949720887497159,-0.003865331470523663,0.011360352429734235,0.0,0.8,0.0,-0.8,0.02310817699349881,0.00041222572326660156,0.0028142929077148438,0.004179477691650391,0
1.689969539642334,0.3948916494846344,-0.00501928711310029,-0.6579191088676453,0.023130312064942808,-0.6950929385827309,-0.007170058370923192,0.01521946171835379,0.0,0.8,0.0,-0.8,0.023130312064942808,0.00040984153747558594,0.0031681060791015625,0.004065275192260742,0
1.7007203102111816,0.3948916494846344,-0.00501928711310029,-0.6579191088676453,0.023130312064942808,-0.6951771188387849,-0.004988017254961816,0.011891873030098936,0.0,0.8,0.0,-0.8,0.023130312064942808,0.0003743171691894531,0.0017735958099365234,0.003002166748046875,0
1.7099392414093018,0.39871472120285034,-0.004759869072586298,-0.6612610220909119,0.023117119298529838,-0.6952774043150605,-0.005114074686889555,0.013855913998615545,0.0,0.8,0.0,-0.8,0.023117119298529838,0.0005979537963867188,0.003249645233154297,0.004323720932006836,0
1.720153570175171,0.39871472120285034,-0.004759869072586298,-0.6612610220909119,0.023117119298529838,-0.6953472212068883,-0.003551750847773047,0.010851437164243475,0.0,0.8,0.0,-0.8,0.023117119298529838,0.0006525516510009766,0.004151344299316406,0.005234718322753906,0
1.7298173904418945,0.4042498767375946,-0.0044044372625648975,-0.6661755442619324,0.023149422736113177,-0.6954680230215436,-0.005614432643330702,0.0135586061085087,0.0,0.8,0.0,-0.8,0.023149422736113177,0.0005066394805908203,0.0027875900268554688,0.003571033477783203,0
1.7402253150939941,0.4042498767375946,-0.0044044372625648975,-0.6661755442619324,0.023149422736113177,-0.6955522226545331,-0.0039032364295342944,0.010570362652015188,0.0,0.8,0.0,-0.8,0.023149422736113177,0.0004162788391113281,0.002216339111328125,0.0031414031982421875,0
1.7498257160186768,0.4078124165534973,-0.0041902316734194756,-0.6693013310432434,0.02315572951224501,-0.6956602209149405,-0.0034243674038030064,0.010312993299701218,0.0,0.8,0.0,-0.8,0.02315572951224501,0.0004532337188720703,0.002727508544921875,0.0036056041717529297,0
1.7604105472564697,0.4078124165534973,-0.0041902316734194756,-0.6693013310432434,0.02315572951224501,-0.6957355537051428,-0.0023776960692485282,0.00800978560634542,0.0,0.8,0.0,-0.8,0.02315572951224501,0.0005140304565429688,0.0026979446411132812,0.0039806365966796875,0
1.7698974609375,0.41295671463012695,-0.0039014655631035566,-0.6737648248672485,0.023211410994134627,-0.6958806378632881,-0.002793177940161258,0.0072341976814362255,0.0,0.8,0.0,-0.8,0.023211410994134627,0.00045299530029296875,0.0031795501708984375,0.004237174987792969,0
1.7805700302124023,0.41295671463012695,-0.0039014655631035566,-0.6737648248672485,0.023211410994134627,-0.6959820470308155,-0.0019445834347920703,0.005475036049370377,0.0,0.8,0.0,-0.8,0.023211410994134627,0.0005006790161132812,0.002669095993041992,0.003990888595581055,0
1.7903344631195068,0.4162577986717224,-0.0037298535462468863,-0.6766089797019958,0.023228291406153165,-0.6961035999209918,-0.002339545872218381,0.00525991972199922,0.0,0.8,0.0,-0.8,0.023228291406153165,0.0005822181701660156,0.0029952526092529297,0.004119157791137695,0
1.8008534908294678,0.4162577986717224,-0.0037298535462468863,-0.6766089797019958,0.023228291406153165,-0.6961885891832003,-0.0016307415211838324,0.00394789616702792,0.0,0.8,0.0,-0.8,0.023228291406153165,0.0006649494171142578,0.0037202835083007812,0.005849599838256836,0
1.810317039489746,0.4210285246372223,-0.003497642930597067,-0.6806908249855042,0.023281215224817114,-0.6963298452623214,-0.0002342157564132676,0.0037471892533454325,0.0,0.8,0.0,-0.8,0.023281215224817114,0.0005507469177246094,0.0026962757110595703,0.0035619735717773438,0
1.8201591968536377,0.4210285246372223,-0.003497642930597067,-0.6806908249855042,0.023281215224817114,-0.6964286830492015,-0.0001619472799080308,0.0027039955593649244,0.0,0.8,0.0,-0.8,0.023281215224817114,0.00047516822814941406,0.002294301986694336,0.0035305023193359375,0
1.8297874927520752,0.4240930378437042,-0.0033666486851871014,-0.6832777857780457,0.023294003894298677,-0.6965447719133075,0.001145342469800439,0.0022029806553227893,0.0,0.8,0.0,-0.8,0.023294003894298677,0.00034236907958984375,0.0026552677154541016,0.003446817398071289,0
1.8406345844268799,0.4240930378437042,-0.0033666486851871014,-0.6832777857780457,0.023294003894298677,-0.6966260294502327,0.0008010360607844254,0.0015253905539688642,0.0,0.8,0.0,-0.8,0.023294003894298677,0.0009753704071044922,0.005103349685668945,0.006945371627807617,0
1.850106954574585,0.4285118579864502,-0.0031968075782060623,-0.6869641542434692,0.02332028612734467,-0.6967682021309634,-0.0004964962888497338,-0.0004429533926380761,0.0,0.8,0.0,-0.8,0.02332028612734467,0.00046896934509277344,0.003144502639770508,0.004110813140869141,0
1.860145092010498,0.4285118579864502,-0.0031968075782060623,-0.6869641542434692,0.02332028612734467,-0.696867817675713,-0.0003552283877280646,-0.000645535419848062,0.0,0.8,0.0,-0.8,0.02332028612734467,0.0006160736083984375,0.002989053726196289,0.004240989685058594,0
1.8702194690704346,0.43133947253227234,-0.003100878791883588,-0.6893002390861511,0.02333071150022023,-0.6970055287939996,0.00039824675443512683,-0.0034897015741425347,0.0,0.8,0.0,-0.8,0.02333071150022023,0.0004029273986816406,0.0026960372924804688,0.0037589073181152344,0
1.880251407623291,0.43133947253227234,-0.003100878791883588,-0.6893002390861511,0.02333071150022023,-0.6971021179041033,0.0002639623991691783,-0.003068422532077457,0.0,0.8,0.0,-0.8,0.02333071150022023,0.000751495361328125,0.0027675628662109375,0.004206180572509766,0
1.8899152278900146,0.43539878726005554,-0.002984510501846671,-0.692617654800415,0.0234026859265909,-0.6972572466545448,0.0022154985284614944,-0.008792052820202937,0.0,0.8,0.0,-0.8,0.0234026859265909,0.0004642009735107422,0.0030138492584228516,0.003873109817504883,0
1.9006907939910889,0.43539878726005554,-0.002984510501846671,-0.692617654800415,0.0234026859265909,-0.6973662094393736,0.0015221896871088164,-0.007335650945778991,0.0,0.8,0.0,-0.8,0.0234026859265909,0.000701904296875,0.0032110214233398438,0.004978656768798828,0
1.9106578826904297,0.43798670172691345,-0.002922452287748456,-0.6947069764137268,0.023389168205658645,-0.697513272203029,0.0013475164717909292,-0.009929885044620801,0.0,0.8,0.0,-0.8,0.023389168205658645,0.0005059242248535156,0.00336456298828125,0.0043048858642578125,0
1.9202370643615723,0.43798670172691345,-0.002922452287748456,-0.6947069764137268,0.023389168205658645,-0.6976166245792529,0.0009126508771717934,-0.008230853627590178,0.0,0.8,0.0,-0.8,0.023389168205658645,0.0006611347198486328,0.003005504608154297,0.0042493343353271484,0
1.9301698207855225,0.4416983723640442,-0.002855884376913309,-0.6976689696311951,0.023400895662529,-0.6977835904578019,0.003459292067202957,-0.013713691732369516,0.0,0.8,0.0,-0.8,0.023400895662529,0.0004973411560058594,0.0028781890869140625,0.0038251876831054688,0
1.940422773361206,0.4416983723640442,-0.002855884376913309,-0.6976689696311951,0.023400895662529,-0.6979010101140278,0.0023802840452811064,-0.011289384717197188,0.0,0.8,0.0,-0.8,0.023400895662529,0.0007762908935546875,0.003265857696533203,0.004622936248779297,0
1.9501550197601318,0.4440617561340332,-0.00282966042868793,-0.6995334029197693,0.023438960941094343,-0.6980531586824679,0.0035170673923698875,-0.011867301481880503,0.0,0.8,0.0,-0.8,0.023438960941094343,0.00042700767517089844,0.0025098323822021484,0.0033752918243408203,0
1.9599792957305908,0.4440617561340332,-0.00282966042868793,-0.6995334029197693,0.023438960941094343,-0.6981601397870242,0.002425773981635855,-0.009785134314876497,0.0,0.8,0.0,-0.8,0.023438960941094343,0.00048279762268066406,0.0021200180053710938,0.0029637813568115234,0
1.9705216884613037,0.44745343923568726,-0.0028200712986290455,-0.7021749019622803,0.023465709715082158,-0.6983074877281559,0.007909718223640517,-0.013540311205426678,0.0,0.8,0.0,-0.8,0.023465709715082158,0.0005116462707519531,0.0029163360595703125,0.003929853439331055,0
1.9806740283966064,0.44745343923568726,-0.0028200712986290455,-0.7021749019622803,0.023465709715082158,-0.6984111619357802,0.00549561331293735,-0.011102295924377587,0.0,0.8,0.0,-0.8,0.023465709715082158,0.0005469322204589844,0.002571582794189453,0.004136085510253906,0
1.9898982048034668,0.4499918520450592,-0.0026355322916060686,-0.7043131589889526,0.0234651224518746,-0.6985273773118236,0.0021647751639191962,-0.009715314102514782,0.0,0.8,0.0,-0.8,0.0234651224518746,0.00045037269592285156,0.0032160282135009766,0.0041353702545166016,0
2.000455379486084,0.4499918520450592,-0.0026355322916060686,-0.7043131589889526,0.0234651224518746,-0.6986091195942676,0.001486487197813768,-0.007997264025282889,0.0,0.8,0.0,-0.8,0.0234651224518746,0.0005257129669189453,0.002559661865234375,0.003724813461303711,0
2.0101022720336914,0.4528086483478546,-0.0022771607618778944,-0.7068198323249817,0.02345404038210623,-0.6986843069541594,-0.000571477890184768,-0.0039137358127488584,0.0,0.8,0.0,-0.8,0.02345404038210623,0.0004911422729492188,0.0030908584594726562,0.004193782806396484,0
2.0200634002685547,0.45417800545692444,-0.0021091836970299482,-0.7080308794975281,0.02344773741749957,-0.6987442038937457,-0.0011720790606131583,-0.0031332717096616766,0.0,0.8,0.0,-0.8,0.02344773741749957,0.0004627704620361328,0.0025870800018310547,0.003976583480834961,0
2.030428647994995,0.4568387567996979,-0.001793157891370356,-0.7103624939918518,0.023443251749903055,-0.6988154907369909,-0.004809099684468487,-0.002051135070632234,0.0,0.8,0.0,-0.8,0.023443251749903055,0.0005033016204833984,0.002897977828979492,0.003939628601074219,0
2.040468454360962,0.4568387567996979,-0.001793157891370356,-0.7103624939918518,0.023443251749903055,-0.6988655092719271,-0.0033740621143999268,-0.0017979686953844202,0.0,0.8,0.0,-0.8,0.023443251749903055,0.0004639625549316406,0.002544879913330078,0.0038635730743408203,0
2.0497756004333496,0.46063899993896484,-0.001361205941066146,-0.7136350870132446,0.02343936924649022,-0.6989510997276648,-0.0051922483951732925,-0.002627054065821828,0.0,0.8,0.0,-0.8,0.02343936924649022,0.00042748451232910156,0.0027675628662109375,0.0035545825958251953,0
2.060588836669922,0.46063899993896484,-0.001361205941066146,-0.7136350870132446,0.02343936924649022,-0.6990111586520003,-0.0036440810546454943,-0.0022886514384615813,0.0,0.8,0.0,-0.8,0.02343936924649022,0.0006694793701171875,0.002865314483642578,0.004225492477416992,0
2.0697975158691406,0.46304550766944885,-0.0011068745516240597,-0.7156774401664734,0.023411836245020693,-0.6990859196321378,-0.002108758612736045,-0.00408339430562734,0.0,0.8,0.0,-0.8,0.023411836245020693,0.0004563331604003906,0.0028645992279052734,0.0037178993225097656,0
2.080505847930908,0.46304550766944885,-0.0011068745516240597,-0.7156774401664734,0.023411836245020693,-0.6991384374719025,-0.0014890289440219475,-0.0034228544418679245,0.0,0.8,0.0,-0.8,0.023411836245020693,0.0008270740509033203,0.0028295516967773438,0.004359006881713867,0
2.090409278869629,0.46535390615463257,-0.0008781624492257833,-0.7176452875137329,0.023425228511505528,-0.6991988796381042,-0.0021252267090259088,-0.004598504428168936,0.0,0.8,0.0,-0.8,0.023425228511505528,0.0005517005920410156,0.004296064376831055,0.005370616912841797,0
2.1004042625427246,0.46535390615463257,-0.0008781624492257833,-0.7176452875137329,0.023425228511505528,-0.6992413832833148,-0.0015011434867920337,-0.003805066438480515,0.0,0.8,0.0,-0.8,0.023425228511505528,0.00055694580078125,0.0022165775299072266,0.0036139488220214844,0
2.1105337142944336,0.4686436951160431,-0.0005688417004421353,-0.7204105854034424,0.023405053578200285,-0.6993176847557468,-0.0040245273307617955,-0.005019803027390434,0.0,0.8,0.0,-0.8,0.023405053578200285,0.000507354736328125,0.003518819808959961,0.004591226577758789,0
2.1203038692474365,0.4686436951160431,-0.0005688417004421353,-0.7204105854034424,0.023405053578200285,-0.6993713154763396,-0.0028320698207743395,-0.004178978934366916,0.0,0.8,0.0,-0.8,0.023405053578200285,0.0004334449768066406,0.0024957656860351562,0.0038411617279052734,0
2.130181312561035,0.47174039483070374,-0.0003067546058446169,-0.72295743227005,0.023398876642552153,-0.6994632148054177,-0.001980938956245343,-0.00792462375756131,0.0,0.8,0.0,-0.8,0.023398876642552153,0.0007927417755126953,0.0034096240997314453,0.0045087337493896484,0
2.1403677463531494,0.47174039483070374,-0.0003067546058446169,-0.72295743227005,0.023398876642552153,-0.6995278691517619,-0.0014092818774684114,-0.006527561039801108,0.0,0.8,0.0,-0.8,0.023398876642552153,0.0005161762237548828,0.0027132034301757812,0.003969430923461914,0
2.149904727935791,0.47369202971458435,-0.00015491314115934074,-0.7245447635650635,0.02340646968033864,-0.6996066738959053,-0.002023177632002116,-0.009065821034158547,0.0,0.8,0.0,-0.8,0.02340646968033864,0.0005421638488769531,0.002907276153564453,0.0038292407989501953,0
2.1609065532684326,0.47369202971458435,-0.00015491314115934074,-0.7245447635650635,0.02340646968033864,-0.6996621939049169,-0.001440942417471507,-0.007412805077098969,0.0,0.8,0.0,-0.8,0.02340646968033864,0.0011298656463623047,0.0058252811431884766,0.0076389312744140625,0
2.1701886653900146,0.4764629602432251,4.2645842768251896e-05,-0.7267615795135498,0.023398773550173287,-0.6997557197598081,-0.0032286787492471418,-0.009128675258464596,0.0,0.8,0.0,-0.8,0.023398773550173287,0.001428365707397461,0.004121303558349609,0.00545048713684082,0
2.180358648300171,0.4764629602432251,4.2645842768251896e-05,-0.7267615795135498,0.023398773550173287,-0.6998215571175992,-0.002285379326840753,-0.0074964562791659545,0.0,0.8,0.0,-0.8,0.023398773550173287,0.0005793571472167969,0.003228425979614258,0.004279375076293945,0
2.190192461013794,0.47821325063705444,0.0001551759778521955,-0.7281318306922913,0.02337281810183133,-0.6999110110702987,-0.0022131660747438157,-0.008819144432448049,0.0,0.8,0.0,-0.8,0.02337281810183133,0.0005815029144287109,0.0030999183654785156,0.004067659378051758,0
2.200030565261841,0.47821325063705444,0.0001551759778521955,-0.7281318306922913,0.02337281810183133,-0.6999739852441171,-0.001573775305770395,-0.0072386811227618175,0.0,0.8,0.0,-0.8,0.02337281810183133,0.0005483627319335938,0.002938985824584961,0.004197597503662109,0
2.2099788188934326,0.48068931698799133,0.0002998441341333091,-0.7300097346305847,0.023368203140533512,-0.7000995292352538,-0.0032885312420029285,-0.014003442776370261,0.0,0.8,0.0,-0.8,0.023368203140533512,0.000732421875,0.0033121109008789062,0.004378080368041992,0
