time,x,y,z,yaw,throttle,roll_rate,pitch_rate,yaw_rate,x_ref,y_ref,z_ref,yaw_ref,pred_time,nr_time,ctrl_callback_time,metadata
1.9073486328125e-06,0.010288299061357975,-0.009754132479429245,-0.01549179945141077,-0.02225824550851763,0.7104853869749904,0.009665699675679207,0.0036882804706692696,0.008346841670572758,0.0,0.0,-0.6,0.0,0.436450719833374,0.436450719833374,0.5054655075073242,Sim
0.5054900646209717,0.010288299061357975,-0.009754132479429245,-0.01549179945141077,-0.02225824550851763,0.7238115682606066,0.015570323914289474,0.005888135172426701,0.014189629815518856,0.0,0.0,-0.6,0.0,0.00019502639770507812,0.00019502639770507812,0.003080606460571289,jax_reg_wardi
0.5092730522155762,0.010360145010054111,-0.009584684856235981,-0.013369476422667503,-0.02239044586054565,0.7344619523980707,0.020405393093824387,0.006853945553302765,0.018329158425331116,0.0,0.0,-0.6,0.0,0.00022411346435546875,0.00022411346435546875,0.003185749053955078,2x Speed
0.5192856788635254,0.010360145010054111,-0.009584684856235981,-0.013369476422667503,-0.02239044586054565,0.7428857796285331,0.023523716256022453,0.007463538087904453,0.021226828917860985,0.0,0.0,-0.6,0.0,0.0002129077911376953,0.0002129077911376953,0.0030465126037597656,helix
0.5291397571563721,0.010310906916856766,-0.009480253793299198,-0.013278582133352757,-0.022377486985601772,0.7495695233469714,0.0254066102206707,0.007853110320866108,0.023250337690114975,0.0,0.0,-0.6,0.0,0.000217437744140625,0.000217437744140625,0.003122568130493164,0
0.539311408996582,0.010310906916856766,-0.009480253793299198,-0.013278582133352757,-0.022377486985601772,0.7548789753526519,0.02666058950126171,0.008109678514301777,0.024666793644428253,0.0,0.0,-0.6,0.0,0.00022363662719726562,0.00022363662719726562,0.003168344497680664,0
0.5492672920227051,0.010249991901218891,-0.009332726709544659,-0.013120993971824646,-0.02239628566158619,0.7591140058222774,0.027228187769651413,0.008210740983486176,0.025665363296866417,0.0,0.0,-0.6,0.0,0.0002455711364746094,0.0002455711364746094,0.0033562183380126953,0
0.5593166351318359,0.010249991901218891,-0.009332726709544659,-0.013120993971824646,-0.02239628566158619,0.7624870651203994,0.02761341631412506,0.008278795517981052,0.026364361867308617,0.0,0.0,-0.6,0.0,0.0003247261047363281,0.0003247261047363281,0.005094051361083984,0
0.5692493915557861,0.010216515511274338,-0.009246054105460644,-0.013001865707337856,-0.022386384005735956,0.7651875880408826,0.027901578694581985,0.008253579959273338,0.02684994600713253,0.0,0.0,-0.6,0.0,0.00027489662170410156,0.00027489662170410156,0.003596782684326172,0
0.5798013210296631,0.010196858085691929,-0.009165981784462929,-0.01292232982814312,-0.02236228501332302,0.7672310462039513,0.02792745642364025,0.008251732215285301,0.02718081884086132,0.0,0.0,-0.6,0.0,0.0002467632293701172,0.0002467632293701172,0.0034914016723632812,0
0.5893909931182861,0.010188333690166473,-0.009127418510615826,-0.012937932275235653,-0.02234901567306433,0.7687086680815381,0.027708420529961586,0.008234945125877857,0.027407454326748848,0.0,0.0,-0.6,0.0,0.000232696533203125,0.000232696533203125,0.0032379627227783203,0
0.5993154048919678,0.010180504992604256,-0.009088951162993908,-0.013016829267144203,-0.02232825560997533,0.7696973252229766,0.027306238189339638,0.008188806474208832,0.02755831368267536,0.0,0.0,-0.6,0.0,0.00020837783813476562,0.00020837783813476562,0.002888202667236328,0
0.6092140674591064,0.010173724964261055,-0.009051567874848843,-0.013169602490961552,-0.022286151960087267,0.7702754592656281,0.026688646525144577,0.008275351487100124,0.02764812670648098,0.0,0.0,-0.6,0.0,0.000209808349609375,0.000209808349609375,0.003087282180786133,0
0.6191554069519043,0.010165850631892681,-0.008978347294032574,-0.013722666539251804,-0.022156119783238618,0.7702578640839737,0.025562671944499016,0.008509544655680656,0.027662232518196106,0.0,0.0,-0.6,0.0,0.00023365020751953125,0.00023365020751953125,0.003142833709716797,0
0.6293318271636963,0.010164078325033188,-0.008943906053900719,-0.014132119715213776,-0.02207991844977122,0.7699900143105092,0.024393273517489433,0.008703683502972126,0.027643531560897827,0.0,0.0,-0.6,0.0,0.0002608299255371094,0.0002608299255371094,0.004427433013916016,0
0.6397655010223389,0.0101625956594944,-0.00891103781759739,-0.014634248800575733,-0.02199944802764992,0.7695074036487556,0.023200197145342827,0.008818021975457668,0.02760026417672634,0.0,0.0,-0.6,0.0,0.00032401084899902344,0.00032401084899902344,0.0036313533782958984,0
0.6493966579437256,0.010163340717554092,-0.00887826643884182,-0.015247867442667484,-0.021902987413561673,0.7688489152321019,0.021987134590744972,0.008907195180654526,0.02753380499780178,0.0,0.0,-0.6,0.0,0.0004677772521972656,0.0004677772521972656,0.007779598236083984,0
0.6591229438781738,0.010166035033762455,-0.008813267573714256,-0.016763348132371902,-0.021655033558090037,0.7677597233681683,0.02038397081196308,0.009036758914589882,0.02739430032670498,0.0,0.0,-0.6,0.0,0.0002491474151611328,0.0002491474151611328,0.0033228397369384766,0
0.6695830821990967,0.010168430395424366,-0.00878339633345604,-0.017666975036263466,-0.021526209989847882,0.7665995326562323,0.018998820334672928,0.009231440722942352,0.027248339727520943,0.0,0.0,-0.6,0.0,0.0003097057342529297,0.0003097057342529297,0.00394892692565918,0
0.6791818141937256,0.010173211805522442,-0.008754960261285305,-0.01866755448281765,-0.021379234398861496,0.7653832243578564,0.01764683797955513,0.009513313882052898,0.027091050520539284,0.0,0.0,-0.6,0.0,0.0003829002380371094,0.0003829002380371094,0.0062732696533203125,0
0.6891319751739502,0.010178937576711178,-0.008725747466087341,-0.01976405270397663,-0.021223690633314807,0.7641218085432169,0.01628985069692135,0.009768822230398655,0.026922618970274925,0.0,0.0,-0.6,0.0,0.0002281665802001953,0.0002281665802001953,0.0032062530517578125,0
0.6995372772216797,0.010189655236899853,-0.008670655079185963,-0.02223837561905384,-0.020916728140999624,0.7625416294301395,0.014729343354701996,0.010058777406811714,0.02668960765004158,0.0,0.0,-0.6,0.0,0.0002765655517578125,0.0002765655517578125,0.003514528274536133,0
0.7092294692993164,0.010196416638791561,-0.00864439457654953,-0.023614751175045967,-0.020754641791496997,0.760987877382719,0.013212419115006924,0.010383416898548603,0.02646571584045887,0.0,0.0,-0.6,0.0,0.00022459030151367188,0.00022459030151367188,0.003711700439453125,0
0.7195849418640137,0.010208223946392536,-0.008615528233349323,-0.0250862967222929,-0.020585004261792605,0.7594526601273627,0.01163399312645197,0.010677380487322807,0.026245377957820892,0.0,0.0,-0.6,0.0,0.0002548694610595703,0.0002548694610595703,0.0032584667205810547,0
0.7292037010192871,0.01022031344473362,-0.008585345931351185,-0.026649050414562225,-0.02039905298565239,0.7579364778350435,0.010118826292455196,0.010884791612625122,0.026021409779787064,0.0,0.0,-0.6,0.0,0.00022029876708984375,0.00022029876708984375,0.003940105438232422,0
0.7390527725219727,0.010245557874441147,-0.008525079116225243,-0.030038774013519287,-0.02007172112992565,0.7561536807139241,0.008280477486550808,0.011097343638539314,0.025741880759596825,0.0,0.0,-0.6,0.0,0.0002117156982421875,0.0002117156982421875,0.0033376216888427734,0
0.7493927478790283,0.010259195230901241,-0.00849310401827097,-0.03186389058828354,-0.01988251744014003,0.7544425814529611,0.006538695190101862,0.01126810535788536,0.025475259870290756,0.0,0.0,-0.6,0.0,0.00026798248291015625,0.00026798248291015625,0.003283977508544922,0
0.7590787410736084,0.01027404423803091,-0.008460097014904022,-0.033772487193346024,-0.019683731340372955,0.7527955499414851,0.004952553194016218,0.011511416174471378,0.02521408163011074,0.0,0.0,-0.6,0.0,0.00019073486328125,0.00019073486328125,0.0028917789459228516,0
0.769171953201294,0.010291296988725662,-0.008425870910286903,-0.035762134939432144,-0.019495637249350672,0.7512028621309963,0.003385416232049465,0.011779366992413998,0.024960720911622047,0.0,0.0,-0.6,0.0,0.00021576881408691406,0.00021576881408691406,0.002928495407104492,0
0.7790689468383789,0.010329675860702991,-0.008349981158971786,-0.03997315466403961,-0.01911743817142432,0.7493951156558413,0.0014996423851698637,0.012186078354716301,0.02464154362678528,0.0,0.0,-0.6,0.0,0.0003006458282470703,0.0003006458282470703,0.003186464309692383,0
0.7892107963562012,0.010255983099341393,-0.008237611502408981,-0.04193274304270744,-0.018921850480941665,0.7476924560239993,-0.00016736448742449284,0.012483720667660236,0.024344773963093758,0.0,0.0,-0.6,0.0,0.0002009868621826172,0.0002009868621826172,0.003012418746948242,0
0.7991127967834473,0.010185115970671177,-0.0081271231174469,-0.043969761580228806,-0.018712820150035628,0.7460830337502342,-0.001595875364728272,0.012640544213354588,0.024058649316430092,0.0,0.0,-0.6,0.0,0.000247955322265625,0.000247955322265625,0.0034220218658447266,0
0.809272050857544,0.010116529650986195,-0.00801791436970234,-0.046079929918050766,-0.018502671639025397,0.7445543573388276,-0.0029302570037543774,0.012686814181506634,0.023779556155204773,0.0,0.0,-0.6,0.0,0.00029587745666503906,0.00029587745666503906,0.0037381649017333984,0
0.819077730178833,0.009985088370740414,-0.00780057068914175,-0.05051039159297943,-0.018068575297951726,0.7428633489480961,-0.0044752852991223335,0.012539513409137726,0.023421404883265495,0.0,0.0,-0.6,0.0,0.00023746490478515625,0.00023746490478515625,0.002835988998413086,0
0.8294177055358887,0.009922284632921219,-0.007691478356719017,-0.052826110273599625,-0.017867088211124406,0.74127644832124,-0.0058857291005551815,0.012341192923486233,0.02309514209628105,0.0,0.0,-0.6,0.0,0.00022840499877929688,0.00022840499877929688,0.003154277801513672,0
0.8391098976135254,0.009861172176897526,-0.007581416983157396,-0.05520578846335411,-0.01766039235283712,0.7397831193230786,-0.007219678722321987,0.012162485159933567,0.02278924733400345,0.0,0.0,-0.6,0.0,0.00020074844360351562,0.00020074844360351562,0.0027527809143066406,0
0.8492836952209473,0.009802685119211674,-0.007469819858670235,-0.05764693394303322,-0.017445119476360616,0.7383644419344132,-0.008501563221216202,0.012039963155984879,0.022494392469525337,0.0,0.0,-0.6,0.0,0.00021648406982421875,0.00021648406982421875,0.003038644790649414,0
0.8591351509094238,0.009748256765305996,-0.007357602007687092,-0.06014648452401161,-0.01725024177921397,0.7370166515667416,-0.009640540927648544,0.012036144733428955,0.022214915603399277,0.0,0.0,-0.6,0.0,0.0002617835998535156,0.0002617835998535156,0.0030312538146972656,0
0.8691685199737549,0.009651713073253632,-0.007129712961614132,-0.06537364423274994,-0.016815865955648764,0.7355152227817277,-0.010998913086950779,0.012023767456412315,0.021856391802430153,0.0,0.0,-0.6,0.0,0.0002002716064453125,0.0002002716064453125,0.0028390884399414062,0
0.8795106410980225,0.009607839398086071,-0.007013646885752678,-0.06806590408086777,-0.016628659189307168,0.7341053590524401,-0.012218396179378033,0.011973372660577297,0.021535221487283707,0.0,0.0,-0.6,0.0,0.0002262592315673828,0.0002262592315673828,0.0029892921447753906,0
0.8891816139221191,0.009566040709614754,-0.00689584668725729,-0.0708080306649208,-0.016429863521917144,0.7327751797454101,-0.01326304767280817,0.011920217424631119,0.02123585343360901,0.0,0.0,-0.6,0.0,0.0001761913299560547,0.0001761913299560547,0.003109455108642578,0
0.8996918201446533,0.009527869522571564,-0.0067773121409118176,-0.0735975131392479,-0.016229045310615694,0.7315113874746395,-0.01412811130285263,0.011953162029385567,0.020950989797711372,0.0,0.0,-0.6,0.0,0.0003230571746826172,0.0003230571746826172,0.004400968551635742,0
0.9094445705413818,0.009492849931120872,-0.006658679805696011,-0.07643275707960129,-0.016028283987704974,0.7303052526029208,-0.014900621958076954,0.01195837277919054,0.020676299929618835,0.0,0.0,-0.6,0.0,0.0003006458282470703,0.0003006458282470703,0.003510713577270508,0
0.9190511703491211,0.009430226869881153,-0.006417583674192429,-0.08222757279872894,-0.015609923447894854,0.7289747055851584,-0.015850376337766647,0.011966430582106113,0.02032713033258915,0.0,0.0,-0.6,0.0,0.00021314620971679688,0.00021314620971679688,0.002698183059692383,0
0.9292490482330322,0.009403601288795471,-0.006293502636253834,-0.08518289029598236,-0.015397693731752834,0.7277266305973248,-0.016744783148169518,0.011990339495241642,0.020003126934170723,0.0,0.0,-0.6,0.0,0.00020933151245117188,0.00020933151245117188,0.0031516551971435547,0
0.9391047954559326,0.009379581548273563,-0.006166832055896521,-0.0881877914071083,-0.015196613320138963,0.7265441231416505,-0.017517853528261185,0.011991996318101883,0.019700918346643448,0.0,0.0,-0.6,0.0,0.00023984909057617188,0.00023984909057617188,0.0031163692474365234,0
0.9492242336273193,0.009336397051811218,-0.0059068044647574425,-0.09430242329835892,-0.014816945210254957,0.7252539381911486,-0.01835591159760952,0.011830800212919712,0.019346997141838074,0.0,0.0,-0.6,0.0,0.00019669532775878906,0.00019669532775878906,0.0028319358825683594,0
0.9592146873474121,0.009317021816968918,-0.005774448625743389,-0.09740805625915527,-0.014629947486879187,0.7240521828136857,-0.018995866179466248,0.01169893890619278,0.019029127433896065,0.0,0.0,-0.6,0.0,0.0002532005310058594,0.0002532005310058594,0.0036797523498535156,0
0.9691386222839355,0.009298674762248993,-0.005643260665237904,-0.10054383426904678,-0.014436588609230526,0.7229280800896273,-0.019387857988476753,0.011451219208538532,0.01873411051928997,0.0,0.0,-0.6,0.0,0.00018644332885742188,0.00018644332885742188,0.003136873245239258,0
0.9790470600128174,0.009264028631150723,-0.0053797694854438305,-0.10689307004213333,-0.014046124451295888,0.7217269543467587,-0.019783370196819305,0.011134062893688679,0.01838117279112339,0.0,0.0,-0.6,0.0,0.0002167224884033203,0.0002167224884033203,0.0028209686279296875,0
0.9894089698791504,0.009249075315892696,-0.005246128886938095,-0.11010310053825378,-0.013867053053948,0.7206115097901077,-0.02008983865380287,0.010889549739658833,0.01806696690618992,0.0,0.0,-0.6,0.0,0.0002627372741699219,0.0002627372741699219,0.0031461715698242188,0
0.9991130828857422,0.009236261248588562,-0.005111463833600283,-0.11333753913640976,-0.013693455614953805,0.7195669588264281,-0.02030680701136589,0.010701464489102364,0.017781922593712807,0.0,0.0,-0.6,0.0,0.00022077560424804688,0.00022077560424804688,0.002804279327392578,0
1.009218692779541,0.00922482367604971,-0.004976534750312567,-0.11658021062612534,-0.013521232210197168,0.718586586745715,-0.020399967208504677,0.010477491654455662,0.017517808824777603,0.0,0.0,-0.6,0.0,0.0002162456512451172,0.0002162456512451172,0.003101825714111328,0
1.0191564559936523,0.009203794412314892,-0.0047066789120435715,-0.12312277406454086,-0.013203710270546912,0.7175332944290403,-0.020321495831012726,0.010116965509951115,0.017213858664035797,0.0,0.0,-0.6,0.0,0.0002512931823730469,0.0002512931823730469,0.0030307769775390625,0
1.029247760772705,0.009193413890898228,-0.0045724473893642426,-0.12641751766204834,-0.013030701062680741,0.7165627654993828,-0.020196489989757538,0.009710545651614666,0.01693621464073658,0.0,0.0,-0.6,0.0,0.0002040863037109375,0.0002040863037109375,0.0029587745666503906,0
1.0392765998840332,0.009183688089251518,-0.0044385772198438644,-0.1297263205051422,-0.012855604409526034,0.7156580165731223,-0.019979573786258698,0.009386989288032055,0.016676202416419983,0.0,0.0,-0.6,0.0,0.00023365020751953125,0.00023365020751953125,0.0030210018157958984,0
1.0491974353790283,0.009176140651106834,-0.004305770620703697,-0.1330498456954956,-0.012701979263190376,0.7148040025061242,-0.019704632461071014,0.009167677722871304,0.016436584293842316,0.0,0.0,-0.6,0.0,0.00019550323486328125,0.00019550323486328125,0.003113269805908203,0
1.0591800212860107,0.009176140651106834,-0.004305770620703697,-0.1330498456954956,-0.012701979263190376,0.7141201539085001,-0.019510867074131966,0.009013191796839237,0.01626885123550892,0.0,0.0,-0.6,0.0,0.0002465248107910156,0.0002465248107910156,0.003058195114135742,0
1.0693743228912354,0.009165091440081596,-0.003906764090061188,-0.14309395849704742,-0.012177417117098289,0.7132256759350384,-0.019149623811244965,0.008937027305364609,0.015954727306962013,0.0,0.0,-0.6,0.0,0.0002353191375732422,0.0002353191375732422,0.003152132034301758,0
1.0792694091796875,0.009165091440081596,-0.003906764090061188,-0.14309395849704742,-0.012177417117098289,0.7125093845611877,-0.0188949815928936,0.008883418515324593,0.01573484018445015,0.0,0.0,-0.6,0.0,0.0002288818359375,0.0002288818359375,0.003482341766357422,0
1.0892815589904785,0.009169729426503181,-0.003641356946900487,-0.14983779191970825,-0.011888986770457072,0.7117234365841607,-0.018396200612187386,0.008911855518817902,0.015472757630050182,0.0,0.0,-0.6,0.0,0.00023317337036132812,0.00023317337036132812,0.003674745559692383,0
1.0993266105651855,0.009169729426503181,-0.003641356946900487,-0.14983779191970825,-0.011888986770457072,0.711094129864099,-0.01804492622613907,0.008931966498494148,0.015289300121366978,0.0,0.0,-0.6,0.0,0.0002598762512207031,0.0002598762512207031,0.003429412841796875,0
1.109079122543335,0.009189526550471783,-0.003243544837459922,-0.15999093651771545,-0.011396776822826886,0.7102779615662763,-0.017620328813791275,0.008853206411004066,0.014976301230490208,0.0,0.0,-0.6,0.0,0.00018787384033203125,0.00018787384033203125,0.0028476715087890625,0
1.1194674968719482,0.009189526550471783,-0.003243544837459922,-0.15999093651771545,-0.011396776822826886,0.7096244499766543,-0.017321204766631126,0.008797813206911087,0.014757202006876469,0.0,0.0,-0.6,0.0,0.00023794174194335938,0.00023794174194335938,0.003223419189453125,0
1.129230260848999,0.00920283142477274,-0.002972252666950226,-0.16676686704158783,-0.01108686087994307,0.7089134301641925,-0.016861289739608765,0.008514991030097008,0.014487613923847675,0.0,0.0,-0.6,0.0,0.00021767616271972656,0.00021767616271972656,0.003083944320678711,0
1.1394710540771484,0.00920283142477274,-0.002972252666950226,-0.16676686704158783,-0.01108686087994307,0.7083441794804982,-0.016537517309188843,0.008316002786159515,0.014298902824521065,0.0,0.0,-0.6,0.0,0.00032711029052734375,0.00032711029052734375,0.0038568973541259766,0
1.1490585803985596,0.009221730753779411,-0.0025691241025924683,-0.17692013084888458,-0.010633235790613501,0.7076221656814528,-0.015822092071175575,0.007926261983811855,0.013996695168316364,0.0,0.0,-0.6,0.0,0.00023031234741210938,0.00023031234741210938,0.003154277801513672,0
1.1593079566955566,0.009221730753779411,-0.0025691241025924683,-0.17692013084888458,-0.010633235790613501,0.7070440663309532,-0.015318403020501137,0.007652047090232372,0.013785149902105331,0.0,0.0,-0.6,0.0,0.00021195411682128906,0.00021195411682128906,0.0029222965240478516,0
1.1691389083862305,0.009236185811460018,-0.0023060934618115425,-0.18367785215377808,-0.010363459550702801,0.7064166106920169,-0.014589831233024597,0.007378164678812027,0.013535902835428715,0.0,0.0,-0.6,0.0,0.0002124309539794922,0.0002124309539794922,0.002921581268310547,0
1.1792018413543701,0.009236185811460018,-0.0023060934618115425,-0.18367785215377808,-0.010363459550702801,0.7059143099610529,-0.014077290892601013,0.007185624446719885,0.013361428864300251,0.0,0.0,-0.6,0.0,0.0002582073211669922,0.0002582073211669922,0.0031909942626953125,0
1.1890842914581299,0.009256149642169476,-0.002049823058769107,-0.19041462242603302,-0.010099265591274012,0.7053653285931795,-0.013252947479486465,0.007138064131140709,0.013140224851667881,0.0,0.0,-0.6,0.0,0.00021004676818847656,0.00021004676818847656,0.002927064895629883,0
1.1993355751037598,0.009256149642169476,-0.002049823058769107,-0.19041462242603302,-0.010099265591274012,0.7049258894457303,-0.012673423625528812,0.007104740012437105,0.012985382229089737,0.0,0.0,-0.6,0.0,0.0002613067626953125,0.0002613067626953125,0.0032172203063964844,0
1.2090733051300049,0.009057734161615372,-0.0017656827112659812,-0.19962920248508453,-0.009716133802561174,0.7043876164511733,-0.011481569148600101,0.006561982445418835,0.012733316980302334,0.0,0.0,-0.6,0.0,0.0002002716064453125,0.0002002716064453125,0.0032110214233398438,0
1.2194507122039795,0.009057734161615372,-0.0017656827112659812,-0.19962920248508453,-0.009716133802561174,0.703956777445156,-0.010643675923347473,0.006180639378726482,0.012556871399283409,0.0,0.0,-0.6,0.0,0.0002522468566894531,0.0002522468566894531,0.0038323402404785156,0
1.2291316986083984,0.008882544934749603,-0.00149618461728096,-0.20883600413799286,-0.009379443046461051,0.7034537945644417,-0.009386277757585049,0.005814462900161743,0.012307100929319859,0.0,0.0,-0.6,0.0,0.00026679039001464844,0.00026679039001464844,0.0033941268920898438,0
1.2393648624420166,0.008882544934749603,-0.00149618461728096,-0.20883600413799286,-0.009379443046461051,0.7030512125636821,-0.008502578362822533,0.005557323340326548,0.012132261879742146,0.0,0.0,-0.6,0.0,0.0002434253692626953,0.0002434253692626953,0.0030546188354492188,0
1.249145269393921,0.008778574876487255,-0.001325104502029717,-0.21494536101818085,-0.009119882891912292,0.7026360087237551,-0.007341774180531502,0.0053497240878641605,0.011912539601325989,0.0,0.0,-0.6,0.0,0.00021338462829589844,0.00021338462829589844,0.0029630661010742188,0
1.2593638896942139,0.008778574876487255,-0.001325104502029717,-0.21494536101818085,-0.009119882891912292,0.7023037143127283,-0.006526539567857981,0.0052040875889360905,0.011758734472095966,0.0,0.0,-0.6,0.0,0.0002808570861816406,0.0002808570861816406,0.0032896995544433594,0
1.2690937519073486,0.008633670397102833,-0.0010816011345013976,-0.2240724116563797,-0.00878134900981052,0.7019112326186734,-0.005144109949469566,0.0046807145699858665,0.011524120345711708,0.0,0.0,-0.6,0.0,0.00021123886108398438,0.00021123886108398438,0.0028460025787353516,0
1.2793951034545898,0.008633670397102833,-0.0010816011345013976,-0.2240724116563797,-0.00878134900981052,0.7015971556835765,-0.00417335657402873,0.004313424229621887,0.01135988999158144,0.0,0.0,-0.6,0.0,0.00028896331787109375,0.00028896331787109375,0.003145933151245117,0
1.2891905307769775,0.008539527654647827,-0.0009276146884076297,-0.23014016449451447,-0.00855709119466622,0.7012648204557591,-0.0032018758356571198,0.0038027979899197817,0.011160831898450851,0.0,0.0,-0.6,0.0,0.00017499923706054688,0.00017499923706054688,0.002895832061767578,0
1.2993955612182617,0.008539527654647827,-0.0009276146884076297,-0.23014016449451447,-0.00855709119466622,0.7009988686009487,-0.002520004054531455,0.0034445456694811583,0.011021492071449757,0.0,0.0,-0.6,0.0,0.0002503395080566406,0.0002503395080566406,0.003006458282470703,0
1.3092539310455322,0.008408669382333755,-0.0007052865694276989,-0.23915903270244598,-0.008276711992166716,0.7006738568231138,-0.0015151292318478227,0.0028765432070940733,0.010818812064826488,0.0,0.0,-0.6,0.0,0.000232696533203125,0.000232696533203125,0.003092050552368164,0
1.3192732334136963,0.008408669382333755,-0.0007052865694276989,-0.23915903270244598,-0.008276711992166716,0.7004137601890662,-0.0008098521502688527,0.002478051697835326,0.010676935315132141,0.0,0.0,-0.6,0.0,0.00023984909057617188,0.00023984909057617188,0.002829313278198242,0
1.329052209854126,0.008329094387590885,-0.0005641847965307534,-0.24510890245437622,-0.008044647655649937,0.7001431121993116,0.0001437226019334048,0.0020588894840329885,0.010490598157048225,0.0,0.0,-0.6,0.0,0.00021219253540039062,0.00021219253540039062,0.00286865234375,0
1.339313268661499,0.008329094387590885,-0.0005641847965307534,-0.24510890245437622,-0.008044647655649937,0.6999265591290241,0.0008126925677061081,0.0017649602377787232,0.010360161773860455,0.0,0.0,-0.6,0.0,0.0002567768096923828,0.0002567768096923828,0.003204345703125,0
1.349043846130371,0.008214808069169521,-0.00036523581366054714,-0.2539840638637543,-0.007712832869661116,0.6996675090310972,0.0015153719577938318,0.0012023810995742679,0.010144425556063652,0.0,0.0,-0.6,0.0,0.00023651123046875,0.00023651123046875,0.0028901100158691406,0
1.3594553470611572,0.008214808069169521,-0.00036523581366054714,-0.2539840638637543,-0.007712832869661116,0.6994602476045948,0.0020083230920135975,0.0008078647078946233,0.009993409737944603,0.0,0.0,-0.6,0.0,0.0002448558807373047,0.0002448558807373047,0.0031418800354003906,0
1.3691067695617676,0.008135643787682056,-0.00023792931460775435,-0.25983670353889465,-0.007526873275594589,0.6992413590399336,0.0026636123657226562,0.00035673126694746315,0.009817964397370815,0.0,0.0,-0.6,0.0,0.00019216537475585938,0.00019216537475585938,0.0029506683349609375,0
1.3794682025909424,0.008135643787682056,-0.00023792931460775435,-0.25983670353889465,-0.007526873275594589,0.6990661737303112,0.003123152069747448,4.046336835017428e-05,0.009695152752101421,0.0,0.0,-0.6,0.0,0.0002455711364746094,0.0002455711364746094,0.003262042999267578,0
1.389082670211792,0.008014773018658161,-5.888988744118251e-05,-0.26848867535591125,-0.007204688215820062,0.6988580912777939,0.0036902923602610826,-0.0004033025470562279,0.009488364681601524,0.0,0.0,-0.6,0.0,0.00023412704467773438,0.00023412704467773438,0.0031843185424804688,0
1.3993566036224365,0.008014773018658161,-5.888988744118251e-05,-0.26848867535591125,-0.007204688215820062,0.6986915862834665,0.004087996669113636,-0.0007143766270019114,0.009343612939119339,0.0,0.0,-0.6,0.0,0.0002300739288330078,0.0002300739288330078,0.0031266212463378906,0
1.4090971946716309,0.007939481176435947,5.709750985261053e-05,-0.27417534589767456,-0.007049608390414205,0.6985018393842308,0.004372666124254465,-0.0008204102050513029,0.00918413233011961,0.0,0.0,-0.6,0.0,0.0002276897430419922,0.0002276897430419922,0.003023386001586914,0
1.419304609298706,0.007939481176435947,5.709750985261053e-05,-0.27417534589767456,-0.007049608390414205,0.6983499780797893,0.0045722429640591145,-0.0008947164751589298,0.009072495624423027,0.0,0.0,-0.6,0.0,0.0002422332763671875,0.0002422332763671875,0.0031218528747558594,0
1.4290969371795654,0.007842062041163445,0.0002231033140560612,-0.2826002240180969,-0.006754929465915074,0.6981757325301239,0.004812446888536215,-0.0008947852766141295,0.008883845061063766,0.0,0.0,-0.6,0.0,0.00021409988403320312,0.00021409988403320312,0.0029249191284179688,0
1.4394431114196777,0.007842062041163445,0.0002231033140560612,-0.2826002240180969,-0.006754929465915074,0.6980363008660696,0.004980820696800947,-0.0008948066388256848,0.008751790039241314,0.0,0.0,-0.6,0.0,0.00023794174194335938,0.00023794174194335938,0.0031251907348632812,0
1.4491894245147705,0.0077868616208434105,0.0003251633606851101,-0.28812023997306824,-0.006593189103402827,0.6978989989340756,0.005211623385548592,-0.0009010714711621404,0.008598699234426022,0.0,0.0,-0.6,0.0,0.00018835067749023438,0.00018835067749023438,0.002851724624633789,0
1.4594364166259766,0.0077868616208434105,0.0003251633606851101,-0.28812023997306824,-0.006593189103402827,0.6977890933699207,0.005373361054807901,-0.0009054407710209489,0.008491535671055317,0.0,0.0,-0.6,0.0,0.00022411346435546875,0.00022411346435546875,0.003071308135986328,0
1.4692184925079346,0.007713185157626867,0.0004696085525210947,-0.29625120759010315,-0.006361189915672455,0.6976575079568924,0.005470761097967625,-0.0007121734670363367,0.008329520933330059,0.0,0.0,-0.6,0.0,0.00023674964904785156,0.00023674964904785156,0.003322601318359375,0
1.4793879985809326,0.007713185157626867,0.0004696085525210947,-0.29625120759010315,-0.006361189915672455,0.697552231831872,0.005538993515074253,-0.0005767367547377944,0.008216110989451408,0.0,0.0,-0.6,0.0,0.00020694732666015625,0.00020694732666015625,0.003028392791748047,0
1.489151954650879,0.0076698861084878445,0.0005576004623435438,-0.30159372091293335,-0.006235179940468831,0.6974504686812842,0.005618862807750702,-0.0005197708960622549,0.00808947067707777,0.0,0.0,-0.6,0.0,0.000335693359375,0.000335693359375,0.004054069519042969,0
1.4994988441467285,0.0076698861084878445,0.0005576004623435438,-0.30159372091293335,-0.006235179940468831,0.6973690723247297,0.005674812477082014,-0.0004798572917934507,0.008000821806490421,0.0,0.0,-0.6,0.0,0.0003199577331542969,0.0003199577331542969,0.0036873817443847656,0
1.5092391967773438,0.007607039995491505,0.0006843709270469844,-0.3094486594200134,-0.0059967217212602624,0.6972738315660435,0.005647788289934397,-0.0002901674306485802,0.007849345915019512,0.0,0.0,-0.6,0.0,0.00019812583923339844,0.00019812583923339844,0.002851247787475586,0
1.5195097923278809,0.007607039995491505,0.0006843709270469844,-0.3094486594200134,-0.0059967217212602624,0.6971976307666751,0.0056288400664925575,-0.0001572870387462899,0.007743312977254391,0.0,0.0,-0.6,0.0,0.000247955322265625,0.000247955322265625,0.0032453536987304688,0
1.5291974544525146,0.0075696618296206,0.0007616591756232083,-0.314585417509079,-0.005841419699716686,0.6971111904872493,0.005694232881069183,-3.304619895061478e-05,0.0076108514331281185,0.0,0.0,-0.6,0.0,0.00020074844360351562,0.00020074844360351562,0.0029745101928710938,0
1.5394151210784912,0.0075696618296206,0.0007616591756232083,-0.314585417509079,-0.005841419699716686,0.6970420315140224,0.005740029271692038,5.398681605583988e-05,0.007518128026276827,0.0,0.0,-0.6,0.0,0.00022745132446289062,0.00022745132446289062,0.003125905990600586,0
1.5491373538970947,0.007514669094234705,0.0008618127903901041,-0.3222619295120239,-0.005614644290603626,0.6969551822405071,0.005895745940506458,1.8391428966424428e-05,0.007368181366473436,0.0,0.0,-0.6,0.0,0.00023746490478515625,0.00023746490478515625,0.003356456756591797,0
1.5594730377197266,0.007514669094234705,0.0008618127903901041,-0.3222619295120239,-0.005614644290603626,0.6968856567914873,0.006004825700074434,-6.5282101786579005e-06,0.007263218518346548,0.0,0.0,-0.6,0.0,0.00034546852111816406,0.00034546852111816406,0.004438161849975586,0
1.5691297054290771,0.007474296260625124,0.0009186899987980723,-0.3272709250450134,-0.005504127029531448,0.6968155369971146,0.006134453695267439,2.116279756592121e-05,0.007148300763219595,0.0,0.0,-0.6,0.0,0.0002372264862060547,0.0002372264862060547,0.0030431747436523438,0
1.5793945789337158,0.007474296260625124,0.0009186899987980723,-0.3272709250450134,-0.005504127029531448,0.6967594524070612,0.006225241348147392,4.0565872041042894e-05,0.00706785824149847,0.0,0.0,-0.6,0.0,0.00024700164794921875,0.00024700164794921875,0.003300189971923828,0
1.589087724685669,0.0074040708132088184,0.0010362527100369334,-0.33479446172714233,-0.005311294548986698,0.6966799859416577,0.006126323249191046,2.9475779228960164e-05,0.00693923607468605,0.0,0.0,-0.6,0.0,0.00020813941955566406,0.00020813941955566406,0.0030145645141601562,0
1.599398136138916,0.0074040708132088184,0.0010362527100369334,-0.33479446172714233,-0.005311294548986698,0.6966163992160844,0.0060570379719138145,2.1699992430512793e-05,0.006849200464785099,0.0,0.0,-0.6,0.0,0.0002510547637939453,0.0002510547637939453,0.0032901763916015625,0
1.6090900897979736,0.007353581953793764,0.001161050982773304,-0.3399258852005005,-0.005230224677805418,0.696555239766835,0.0059019215404987335,0.0003291642642579973,0.00675577437505126,0.0,0.0,-0.6,0.0,0.0001888275146484375,0.0001888275146484375,0.003193378448486328,0
1.6193509101867676,0.007353581953793764,0.001161050982773304,-0.3399258852005005,-0.005230224677805418,0.6965063166730068,0.005793270654976368,0.0005444845883175731,0.006690376438200474,0.0,0.0,-0.6,0.0,0.0002818107604980469,0.0002818107604980469,0.0033364295959472656,0
1.6291286945343018,0.007291748188436031,0.0013281834544613957,-0.3474480211734772,-0.005003368521706731,0.6964414212608483,0.005700794979929924,0.0007193891797214746,0.006559526547789574,0.0,0.0,-0.6,0.0,0.00023627281188964844,0.00023627281188964844,0.0032432079315185547,0
1.6392099857330322,0.007291748188436031,0.0013281834544613957,-0.3474480211734772,-0.005003368521706731,0.6963894697319898,0.005636014975607395,0.000841878354549408,0.006467931903898716,0.0,0.0,-0.6,0.0,0.0002391338348388672,0.0002391338348388672,0.0030927658081054688,0
1.6490862369537354,0.007253877818584442,0.0014294213615357876,-0.35233360528945923,-0.00486318670972197,0.696332648771856,0.0055313147604465485,0.0008949844050221145,0.006351247429847717,0.0,0.0,-0.6,0.0,0.0002384185791015625,0.0002384185791015625,0.003153562545776367,0
1.6592206954956055,0.007253877818584442,0.0014294213615357876,-0.35233360528945923,-0.00486318670972197,0.6962871655376596,0.005457988008856773,0.0009321674588136375,0.006269568111747503,0.0,0.0,-0.6,0.0,0.0002617835998535156,0.0002617835998535156,0.003351926803588867,0
1.6690905094146729,0.007203283719718456,0.0015610335394740105,-0.35947301983833313,-0.00463643655788577,0.6962472134959092,0.0053207105956971645,0.0009256571647711098,0.006127361208200455,0.0,0.0,-0.6,0.0,0.0001990795135498047,0.0001990795135498047,0.0030646324157714844,0
1.679471731185913,0.007203283719718456,0.0015610335394740105,-0.35947301983833313,-0.00463643655788577,0.6962152268702225,0.0052245864644646645,0.0009210866992361844,0.006027816329151392,0.0,0.0,-0.6,0.0,0.00025534629821777344,0.00025534629821777344,0.003115415573120117,0
1.6892247200012207,0.007177842780947685,0.0016448423266410828,-0.3641471862792969,-0.0045269832653861645,0.6961846126998437,0.004986477550119162,0.0011986523168161511,0.005917090456932783,0.0,0.0,-0.6,0.0,0.00018525123596191406,0.00018525123596191406,0.0028569698333740234,0
1.6994414329528809,0.007177842780947685,0.0016448423266410828,-0.3641471862792969,-0.0045269832653861645,0.6961601597668651,0.0048197428695857525,0.0013929796405136585,0.0058395820669829845,0.0,0.0,-0.6,0.0,0.00042724609375,0.00042724609375,0.00628662109375,0
1.7097535133361816,0.007146591320633888,0.0017668494256213307,-0.37096354365348816,-0.004327482813352605,0.6961427714298485,0.004410124849528074,0.0015308610163629055,0.005710513796657324,0.0,0.0,-0.6,0.0,0.0004296302795410156,0.0004296302795410156,0.0045223236083984375,0
1.7193069458007812,0.007146591320633888,0.0017668494256213307,-0.37096354365348816,-0.004327482813352605,0.6961288761877691,0.00412334268912673,0.0016273594228550792,0.005620165728032589,0.0,0.0,-0.6,0.0,0.00023746490478515625,0.00023746490478515625,0.0028901100158691406,0
1.7291979789733887,0.007131375838071108,0.001841936493292451,-0.37537881731987,-0.0041974721419023725,0.6961246761657373,0.003914437722414732,0.0016862319316715002,0.005508168134838343,0.0,0.0,-0.6,0.0,0.0002162456512451172,0.0002162456512451172,0.002963542938232422,0
1.7394039630889893,0.007131375838071108,0.001841936493292451,-0.37537881731987,-0.0041974721419023725,0.6961213004310336,0.003768195630982518,0.0017274300334975123,0.005429769866168499,0.0,0.0,-0.6,0.0,0.00030303001403808594,0.00030303001403808594,0.003305673599243164,0
1.74906325340271,0.007114872336387634,0.0019109823042526841,-0.37965619564056396,-0.00407811236091523,0.6961262462700247,0.0033635448198765516,0.0017632246017456055,0.005330131389200687,0.0,0.0,-0.6,0.0,0.0002052783966064453,0.0002052783966064453,0.0029163360595703125,0
1.7595055103302002,0.007114872336387634,0.0019109823042526841,-0.37965619564056396,-0.00407811236091523,0.69613021076957,0.0030802981927990913,0.0017882564570754766,0.005260384175926447,0.0,0.0,-0.6,0.0,0.0002491474151611328,0.0002491474151611328,0.003294706344604492,0
1.7690911293029785,0.007100365590304136,0.0020117394160479307,-0.3858396112918854,-0.0039027941863237,0.6961528983179047,0.0027868705801665783,0.001979395980015397,0.005145816598087549,0.0,0.0,-0.6,0.0,0.000194549560546875,0.000194549560546875,0.002903461456298828,0
1.779426097869873,0.007100365590304136,0.0020117394160479307,-0.3858396112918854,-0.0039027941863237,0.6961710714413077,0.0025814950931817293,0.002113149268552661,0.005065619479864836,0.0,0.0,-0.6,0.0,0.0002543926239013672,0.0002543926239013672,0.003139495849609375,0
1.789109230041504,0.007090419996529818,0.0020991219207644463,-0.39180123805999756,-0.003676495650356766,0.6962134214518115,0.002410309622064233,0.0022201852407306433,0.004924619570374489,0.0,0.0,-0.6,0.0,0.00022673606872558594,0.00022673606872558594,0.002981424331665039,0
1.7992920875549316,0.007090419996529818,0.0020991219207644463,-0.39180123805999756,-0.003676495650356766,0.6962472919891156,0.0022905105724930763,0.002295071491971612,0.004825919400900602,0.0,0.0,-0.6,0.0,0.0002110004425048828,0.0002110004425048828,0.0028264522552490234,0
1.809065818786621,0.007084098178893328,0.002150564454495907,-0.3956862986087799,-0.0035347287735619406,0.6962855957506704,0.0022251068148761988,0.002359311794862151,0.004703666549175978,0.0,0.0,-0.6,0.0,0.0002231597900390625,0.0002231597900390625,0.002899169921875,0
1.8193745613098145,0.007084098178893328,0.002150564454495907,-0.3956862986087799,-0.0035347287735619406,0.6963162845251879,0.0021793334744870663,0.0024042611476033926,0.004618090111762285,0.0,0.0,-0.6,0.0,0.00025391578674316406,0.00025391578674316406,0.0031664371490478516,0
1.829068899154663,0.00708641204982996,0.0022170497104525566,-0.4013405740261078,-0.0033948638553204396,0.6963613344456147,0.0020458416547626257,0.0026739563327282667,0.004505736753344536,0.0,0.0,-0.6,0.0,0.0002269744873046875,0.0002269744873046875,0.003225088119506836,0
1.8393433094024658,0.00708641204982996,0.0022170497104525566,-0.4013405740261078,-0.0033948638553204396,0.6963973568514652,0.0019524123053997755,0.002862666267901659,0.00442708982154727,0.0,0.0,-0.6,0.0,0.0002753734588623047,0.0002753734588623047,0.003583192825317383,0
1.8491365909576416,0.007094500120729208,0.0022555470932275057,-0.4049929976463318,-0.0032334079806109433,0.6964506419107213,0.0018048768397420645,0.003136799670755863,0.0043114908039569855,0.0,0.0,-0.6,0.0,0.0002532005310058594,0.0002532005310058594,0.0033996105194091797,0
1.8594574928283691,0.007094500120729208,0.0022555470932275057,-0.4049929976463318,-0.0032334079806109433,0.6964932516977153,0.0017016264609992504,0.00332860229536891,0.004230571910738945,0.0,0.0,-0.6,0.0,0.0002503395080566406,0.0002503395080566406,0.0033354759216308594,0
1.8692042827606201,0.00711546465754509,0.00229163677431643,-0.40854889154434204,-0.003116911744695369,0.6965523366358296,0.0015055494150146842,0.003647641045972705,0.004130242392420769,0.0,0.0,-0.6,0.0,0.0002532005310058594,0.0002532005310058594,0.003606557846069336,0
1.8792316913604736,0.00711546465754509,0.00229163677431643,-0.40854889154434204,-0.003116911744695369,0.6965996092768311,0.0013683404540643096,0.0038708520587533712,0.0040600113570690155,0.0,0.0,-0.6,0.0,0.0002758502960205078,0.0002758502960205078,0.004375934600830078,0
1.8895988464355469,0.007165962364524603,0.0023435649927705526,-0.4137071967124939,-0.0029656190652142395,0.6966842222612419,0.0011998674599453807,0.004316237289458513,0.003954114858061075,0.0,0.0,-0.6,0.0,0.000347137451171875,0.000347137451171875,0.004102945327758789,0
1.8993587493896484,0.007165962364524603,0.0023435649927705526,-0.4137071967124939,-0.0029656190652142395,0.6967518826460344,0.001081987051293254,0.004627787508070469,0.003879987634718418,0.0,0.0,-0.6,0.0,0.00029087066650390625,0.00029087066650390625,0.0034971237182617188,0
1.9091026782989502,0.007221618201583624,0.002384292660281062,-0.41864442825317383,-0.0028057695103473135,0.6968617744000524,0.001050723367370665,0.004981018602848053,0.0037681548856198788,0.0,0.0,-0.6,0.0,0.0002143383026123047,0.0002143383026123047,0.0030100345611572266,0
1.9193456172943115,0.007221618201583624,0.002384292660281062,-0.41864442825317383,-0.0028057695103473135,0.6969496925778941,0.001028834143653512,0.005228064488619566,0.0036898721009492874,0.0,0.0,-0.6,0.0,0.0003070831298828125,0.0003070831298828125,0.0032486915588378906,0
1.9292230606079102,0.007268922403454781,0.00240374100394547,-0.4218176305294037,-0.002731407632159412,0.697049010412785,0.0010823466582223773,0.005525944754481316,0.0036071883514523506,0.0,0.0,-0.6,0.0,0.0002048015594482422,0.0002048015594482422,0.00304412841796875,0
1.9394242763519287,0.007268922403454781,0.00240374100394547,-0.4218176305294037,-0.002731407632159412,0.6971284400898013,0.0011197614949196577,0.005734299775213003,0.003549309680238366,0.0,0.0,-0.6,0.0,0.00025153160095214844,0.00025153160095214844,0.0030536651611328125,0
1.9492344856262207,0.007349410559982061,0.0024247209075838327,-0.42643120884895325,-0.0025963915914368647,0.6972374567843637,0.001152536366134882,0.00594354560598731,0.003458163468167186,0.0,0.0,-0.6,0.0,0.0002372264862060547,0.0002372264862060547,0.003146648406982422,0
1.959320068359375,0.007349410559982061,0.0024247209075838327,-0.42643120884895325,-0.0025963915914368647,0.697324628053091,0.0011754474835470319,0.006089893635362387,0.0033943611197173595,0.0,0.0,-0.6,0.0,0.0002703666687011719,0.0002703666687011719,0.0029878616333007812,0
1.9691791534423828,0.007406756281852722,0.0024334476329386234,-0.42939478158950806,-0.0024955394618384405,0.6974318936435888,0.0012845993041992188,0.006178731564432383,0.0033118799328804016,0.0,0.0,-0.6,0.0,0.0002257823944091797,0.0002257823944091797,0.002906322479248047,0
1.9794366359710693,0.007406756281852722,0.0024334476329386234,-0.42939478158950806,-0.0024955394618384405,0.6975176722179891,0.0013609363231807947,0.006240870337933302,0.003254143288359046,0.0,0.0,-0.6,0.0,0.00030159950256347656,0.00030159950256347656,0.003250598907470703,0
1.9892032146453857,0.007351878564804792,0.002459465293213725,-0.4341481626033783,-0.002422650122421644,0.6976218558941323,0.001557941664941609,0.006392842158675194,0.0031863939948379993,0.0,0.0,-0.6,0.0,0.0001983642578125,0.0001983642578125,0.0027680397033691406,0
1.9994628429412842,0.007351878564804792,0.002459465293213725,-0.4341481626033783,-0.002422650122421644,0.6977051852031552,0.0016957258339971304,0.006499142851680517,0.0031389694195240736,0.0,0.0,-0.6,0.0,0.0002586841583251953,0.0002586841583251953,0.003184795379638672,0
2.0090928077697754,0.007129864301532507,0.0025033417623490095,-0.4378073513507843,-0.0023392821680448617,0.6977790264227307,0.0019138135248795152,0.006431001704186201,0.003074509324505925,0.0,0.0,-0.6,0.0,0.0002090930938720703,0.0002090930938720703,0.0029664039611816406,0
2.019500970840454,0.007129864301532507,0.0025033417623490095,-0.4378073513507843,-0.0023392821680448617,0.6978380553094718,0.0020663884934037924,0.0063833389431238174,0.0030293872114270926,0.0,0.0,-0.6,0.0,0.0002396106719970703,0.0002396106719970703,0.0032596588134765625,0
2.029155731201172,0.0068271406926214695,0.002553001046180725,-0.4430682361125946,-0.002245492700119206,0.697878358523403,0.0022119490895420313,0.006210087798535824,0.002962630707770586,0.0,0.0,-0.6,0.0,0.00023245811462402344,0.00023245811462402344,0.003100156784057617,0
2.0393059253692627,0.0068271406926214695,0.002553001046180725,-0.4430682361125946,-0.002245492700119206,0.6979105917958477,0.002313815988600254,0.006088856607675552,0.0029159013647586107,0.0,0.0,-0.6,0.0,0.00021195411682128906,0.00021195411682128906,0.003042459487915039,0
2.0490479469299316,0.006647289730608463,0.0025808329228311777,-0.446432501077652,-0.0021805684222550095,0.6979355785400222,0.0023792320862412453,0.005871204659342766,0.002858844120055437,0.0,0.0,-0.6,0.0,0.0002124309539794922,0.0002124309539794922,0.0029091835021972656,0
2.059417486190796,0.006647289730608463,0.0025808329228311777,-0.446432501077652,-0.0021805684222550095,0.6979555908695672,0.0024250217247754335,0.005718880333006382,0.0028189041186124086,0.0,0.0,-0.6,0.0,0.00024199485778808594,0.00024199485778808594,0.003330707550048828,0
2.069171905517578,0.006400321610271931,0.0026108180172741413,-0.4513039290904999,-0.002066665745416353,0.6979878993443447,0.0025458650197833776,0.005452094133943319,0.0027482325676828623,0.0,0.0,-0.6,0.0,0.0002110004425048828,0.0002110004425048828,0.0028543472290039062,0
2.079622507095337,0.006400321610271931,0.0026108180172741413,-0.4513039290904999,-0.002066665745416353,0.6980137451823747,0.002630445174872875,0.005265396554023027,0.0026987623423337936,0.0,0.0,-0.6,0.0,0.0004010200500488281,0.0004010200500488281,0.005547523498535156,0
2.0891828536987305,0.006258680950850248,0.002622846281155944,-0.4544176459312439,-0.001968929950514739,0.6980545485742188,0.002594109857454896,0.005076630972325802,0.0026274824049323797,0.0,0.0,-0.6,0.0,0.00017571449279785156,0.00017571449279785156,0.002966642379760742,0
2.0995609760284424,0.006258680950850248,0.002622846281155944,-0.4544176459312439,-0.001968929950514739,0.6980872054481265,0.002568691037595272,0.004944536369293928,0.002577586565166712,0.0,0.0,-0.6,0.0,0.00035953521728515625,0.00035953521728515625,0.004904270172119141,0
2.1090610027313232,0.006075511686503887,0.002632106887176633,-0.4588772654533386,-0.00185267753155146,0.6981395946198885,0.0026810569688677788,0.00482268026098609,0.002499064663425088,0.0,0.0,-0.6,0.0,0.0002231597900390625,0.0002231597900390625,0.0030853748321533203,0
2.1193301677703857,0.006075511686503887,0.002632106887176633,-0.4588772654533386,-0.00185267753155146,0.698181487820909,0.0027596864383667707,0.004737420938909054,0.0024440994020551443,0.0,0.0,-0.6,0.0,0.00021195411682128906,0.00021195411682128906,0.0028884410858154297,0
2.1291134357452393,0.005977320019155741,0.0026288365479558706,-0.4617171287536621,-0.0017925535768814507,0.6982314044185434,0.0027180060278624296,0.004800389986485243,0.002383077284321189,0.0,0.0,-0.6,0.0,0.00021123886108398438,0.00021123886108398438,0.0029344558715820312,0
2.1392922401428223,0.005977320019155741,0.0026288365479558706,-0.4617171287536621,-0.0017925535768814507,0.6982712963022033,0.0026888386346399784,0.0048444499261677265,0.0023403617087751627,0.0,0.0,-0.6,0.0,0.00022101402282714844,0.00022101402282714844,0.003134012222290039,0
2.1490585803985596,0.005851759109646082,0.0026121679693460464,-0.4658346474170685,-0.0017191192764146057,0.6983414839528258,0.0026934295892715454,0.0046648308634757996,0.0022829228546470404,0.0,0.0,-0.6,0.0,0.00021386146545410156,0.00021386146545410156,0.002949953079223633,0
2.159426212310791,0.005851759109646082,0.0026121679693460464,-0.4658346474170685,-0.0017191192764146057,0.6983976531152881,0.0026966475415974855,0.004539167042821646,0.002242715796455741,0.0,0.0,-0.6,0.0,0.00028252601623535156,0.00028252601623535156,0.003261566162109375,0
2.1691646575927734,0.005779345519840717,0.0025978670455515385,-0.46845170855522156,-0.001665029653742124,0.6984565579917295,0.0027112287934869528,0.004272401332855225,0.0021942872554063797,0.0,0.0,-0.6,0.0,0.00019979476928710938,0.00019979476928710938,0.0029528141021728516,0
2.1794540882110596,0.005779345519840717,0.0025978670455515385,-0.46845170855522156,-0.001665029653742124,0.6985036787642246,0.0027214386500418186,0.004085753113031387,0.00216038734652102,0.0,0.0,-0.6,0.0,0.000247955322265625,0.000247955322265625,0.003101348876953125,0
2.189209461212158,0.005692352540791035,0.0025634514167904854,-0.47220349311828613,-0.001529215676710387,0.6985648455197612,0.002988851862028241,0.003890210296958685,0.0020857269410043955,0.0,0.0,-0.6,0.0,0.0002288818359375,0.0002288818359375,0.0030558109283447266,0
2.1993420124053955,0.005692352540791035,0.0025634514167904854,-0.47220349311828613,-0.001529215676710387,0.698613799029293,0.0031759594567120075,0.003753408556804061,0.0020334648434072733,0.0,0.0,-0.6,0.0,0.0002655982971191406,0.0002655982971191406,0.0031206607818603516,0
2.2092294692993164,0.005646313540637493,0.0025308988988399506,-0.4746127724647522,-0.0014821053593554185,0.6986778527666834,0.003405013820156455,0.0035194060765206814,0.0019792148377746344,0.0,0.0,-0.6,0.0,0.00023555755615234375,0.00023555755615234375,0.003059864044189453,0
2.2193143367767334,0.005646313540637493,0.0025308988988399506,-0.4746127724647522,-0.0014821053593554185,0.6987290685833338,0.0035652786027640104,0.0033556942362338305,0.0019412398105487227,0.0,0.0,-0.6,0.0,0.0002734661102294922,0.0002734661102294922,0.0031442642211914062,0
2.229088544845581,0.005594639573246241,0.002468931023031473,-0.47809064388275146,-0.001394215869507814,0.6988096613086249,0.0038112320471554995,0.0031987910624593496,0.0018816988449543715,0.0,0.0,-0.6,0.0,0.0002162456512451172,0.0002162456512451172,0.0029320716857910156,0
2.239502429962158,0.005594639573246241,0.002468931023031473,-0.47809064388275146,-0.001394215869507814,0.6988741296349507,0.003983295988291502,0.003089037723839283,0.0018400201806798577,0.0,0.0,-0.6,0.0,0.00023984909057617188,0.00023984909057617188,0.003233194351196289,0
2.2490949630737305,0.005572363268584013,0.0024190337862819433,-0.48029032349586487,-0.0013210903450487973,0.6989542383641255,0.0041734762489795685,0.002848464297130704,0.0017834230093285441,0.0,0.0,-0.6,0.0,0.000179290771484375,0.000179290771484375,0.0027010440826416016,0
2.2594337463378906,0.005572363268584013,0.0024190337862819433,-0.48029032349586487,-0.0013210903450487973,0.6990183039205047,0.004306526388972998,0.002680176869034767,0.001743805012665689,0.0,0.0,-0.6,0.0,0.00025463104248046875,0.00025463104248046875,0.003137350082397461,0
2.2692301273345947,0.005552747752517462,0.0023248428478837013,-0.48342007398605347,-0.001225816204942675,0.6991067278530446,0.004625146277248859,0.0025726226158440113,0.0016803445760160685,0.0,0.0,-0.6,0.0,0.0002238750457763672,0.0002238750457763672,0.0030364990234375,0
2.2793185710906982,0.005552747752517462,0.0023248428478837013,-0.48342007398605347,-0.001225816204942675,0.6991774286727573,0.004848028998821974,0.002497399225831032,0.0016359222354367375,0.0,0.0,-0.6,0.0,0.0002512931823730469,0.0002512931823730469,0.0029256343841552734,0
2.2890543937683105,0.005552984774112701,0.002253633923828602,-0.4853745102882385,-0.0011872670113192297,0.699267281639878,0.005040103103965521,0.0025019352324306965,0.0015903706662356853,0.0,0.0,-0.6,0.0,0.0002262592315673828,0.0002262592315673828,0.0029516220092773438,0
2.299450397491455,0.005552984774112701,0.002253633923828602,-0.4853745102882385,-0.0011872670113192297,0.6993391411034493,0.005174459423869848,0.002505112672224641,0.0015584846260026097,0.0,0.0,-0.6,0.0,0.0002446174621582031,0.0002446174621582031,0.003233671188354492,0
2.3092217445373535,0.0055670179426670074,0.0021346721332520247,-0.48815277218818665,-0.001126186157685788,0.6994299922444742,0.005418038927018642,0.0024609072133898735,0.001513259019702673,0.0,0.0,-0.6,0.0,0.0002231597900390625,0.0002231597900390625,0.0029129981994628906,0
2.319417715072632,0.0055670179426670074,0.0021346721332520247,-0.48815277218818665,-0.001126186157685788,0.6995026579067765,0.005588423926383257,0.0024299919605255127,0.0014816011535003781,0.0,0.0,-0.6,0.0,0.0002295970916748047,0.0002295970916748047,0.0030519962310791016,0
2.3290905952453613,0.005588013678789139,0.0020507171284407377,-0.4899109899997711,-0.001089683034850882,0.6995883706633057,0.00562905753031373,0.0024627014063298702,0.0014457519864663482,0.0,0.0,-0.6,0.0,0.00019669532775878906,0.00019669532775878906,0.002883434295654297,0
2.3394923210144043,0.005588013678789139,0.0020507171284407377,-0.4899109899997711,-0.001089683034850882,0.6996569577012383,0.005657481495290995,0.002485583070665598,0.001420657499693334,0.0,0.0,-0.6,0.0,0.0003409385681152344,0.0003409385681152344,0.003915071487426758,0
2.3491427898406982,0.0056376070715487,0.001925823395140469,-0.49242836236953735,-0.0010592556787091248,0.6997555876641314,0.005474831443279982,0.002568401163443923,0.001391681144014001,0.0,0.0,-0.6,0.0,0.0002391338348388672,0.0002391338348388672,0.0030815601348876953,0
2.35937237739563,0.0056376070715487,0.001925823395140469,-0.49242836236953735,-0.0010592556787091248,0.6998344750634347,0.005347074009478092,0.002626325935125351,0.0013713976368308067,0.0,0.0,-0.6,0.0,0.0002276897430419922,0.0002276897430419922,0.0029916763305664062,0
2.3691391944885254,0.005680467002093792,0.0018414156511425972,-0.4940357208251953,-0.0010229830893148206,0.699933981650986,0.005335895344614983,0.002648632973432541,0.0013435970759019256,0.0,0.0,-0.6,0.0,0.0002186298370361328,0.0002186298370361328,0.0031862258911132812,0
2.380305051803589,0.005680467002093792,0.0018414156511425972,-0.4940357208251953,-0.0010229830893148206,0.7000135936345082,0.005328075960278511,0.0026642344892024994,0.0013241366250440478,0.0,0.0,-0.6,0.0,0.0004749298095703125,0.0004749298095703125,0.0061376094818115234,0
2.3891212940216064,0.005669920705258846,0.0018921924056485295,-0.4965114891529083,-0.0009224309108864083,0.7001313954595207,0.004917222540825605,0.002592480042949319,0.001272807247005403,0.0,0.0,-0.6,0.0,0.00028443336486816406,0.00028443336486816406,0.003455638885498047,0
2.399416923522949,0.005669920705258846,0.0018921924056485295,-0.4965114891529083,-0.0009224309108864083,0.7002256322438065,0.0046298932284116745,0.002542286179959774,0.001236876705661416,0.0,0.0,-0.6,0.0,0.0002803802490234375,0.0002803802490234375,0.0034093856811523438,0
2.4090523719787598,0.005564837716519833,0.0021536981221288443,-0.4983368217945099,-0.0008904875421213014,0.7003260273163682,0.0040205554105341434,0.002342471620067954,0.0011997465044260025,0.0,0.0,-0.6,0.0,0.00020885467529296875,0.00020885467529296875,0.0029418468475341797,0
2.4195027351379395,0.005564837716519833,0.0021536981221288443,-0.4983368217945099,-0.0008904875421213014,0.7004063421163029,0.003594359615817666,0.002202699426561594,0.0011737553868442774,0.0,0.0,-0.6,0.0,0.00022864341735839844,0.00022864341735839844,0.0032863616943359375,0
2.4291415214538574,0.0054185763001441956,0.0025201444514095783,-0.5008821487426758,-0.000831889990882745,0.7004979309779633,0.0028105322271585464,0.001710738055408001,0.0011335875606164336,0.0,0.0,-0.6,0.0,0.0003008842468261719,0.0003008842468261719,0.003468751907348633,0
2.439282178878784,0.0054185763001441956,0.0025201444514095783,-0.5008821487426758,-0.000831889990882745,0.7005711632953063,0.0022622591350227594,0.0013665950391441584,0.0011054700007662177,0.0,0.0,-0.6,0.0,0.00025343894958496094,0.00025343894958496094,0.003031492233276367,0
2.4490396976470947,0.005332511849701405,0.002747388556599617,-0.5024751424789429,-0.0008331331374001979,0.7006524683031958,0.0016220376128330827,0.0010717144468799233,0.0010862539056688547,0.0,0.0,-0.6,0.0,0.00023627281188964844,0.00023627281188964844,0.0030040740966796875,0
2.4593899250030518,0.005332511849701405,0.002747388556599617,-0.5024751424789429,-0.0008331331374001979,0.7007175297818826,0.001174172037281096,0.0008654221892356873,0.0010728026973083615,0.0,0.0,-0.6,0.0,0.0002868175506591797,0.0002868175506591797,0.003222227096557617,0
2.469090461730957,0.005217202007770538,0.003061081049963832,-0.5047205090522766,-0.0007753593390727896,0.7008067416674263,0.0005133314989507198,0.0003399499400984496,0.0010417216690257192,0.0,0.0,-0.6,0.0,0.0002117156982421875,0.0002117156982421875,0.0028505325317382812,0
2.4793827533721924,0.005217202007770538,0.003061081049963832,-0.5047205090522766,-0.0007753593390727896,0.7008781508444341,5.107690594741143e-05,-2.763471275102347e-05,0.0010199649259448051,0.0,0.0,-0.6,0.0,0.00024700164794921875,0.00024700164794921875,0.003186464309692383,0
2.4892566204071045,0.0051487646996974945,0.0032540748361498117,-0.5061345100402832,-0.0007151744531084397,0.7009575909497331,-0.0005510187475010753,-0.00041201076237484813,0.0009821659186854959,0.0,0.0,-0.6,0.0,0.0002522468566894531,0.0002522468566894531,0.003762960433959961,0
2.49944806098938,0.0051487646996974945,0.0032540748361498117,-0.5061345100402832,-0.0007151744531084397,0.7010211451640962,-0.000972214387729764,-0.0006809201440773904,0.0009557065786793828,0.0,0.0,-0.6,0.0,0.00030612945556640625,0.00030612945556640625,0.003452301025390625,0
2.509066104888916,0.005052957218140364,0.003526022657752037,-0.5081171989440918,-0.000630728610849748,0.7011119615883912,-0.001616098452359438,-0.0010178370866924524,0.0009055178379639983,0.0,0.0,-0.6,0.0,0.00022673606872558594,0.00022673606872558594,0.0030753612518310547,0
2.5193073749542236,0.005052957218140364,0.003526022657752037,-0.5081171989440918,-0.000630728610849748,0.7011845917140443,-0.0020664860494434834,-0.0012535296846181154,0.0008703856728971004,0.0,0.0,-0.6,0.0,0.00024890899658203125,0.00024890899658203125,0.002960681915283203,0
2.529057264328003,0.004998010583221912,0.0036941354628652334,-0.5093494057655334,-0.0005953573881968163,0.7012642354429656,-0.0026974997017532587,-0.0013739235000684857,0.0008325289818458259,0.0,0.0,-0.6,0.0,0.00020694732666015625,0.00020694732666015625,0.0029425621032714844,0
2.5393471717834473,0.004998010583221912,0.0036941354628652334,-0.5093494057655334,-0.0005953573881968163,0.7013279213280915,-0.003138930769637227,-0.0014581602299585938,0.0008060293039306998,0.0,0.0,-0.6,0.0,0.000278472900390625,0.000278472900390625,0.003231525421142578,0
2.549232244491577,0.004932245705276728,0.003929384518414736,-0.5110683441162109,-0.0005561203036365125,0.7014231092250834,-0.0037772932555526495,-0.0016987700946629047,0.0007727656047791243,0.0,0.0,-0.6,0.0,0.00020432472229003906,0.00020432472229003906,0.002927064895629883,0
2.5595109462738037,0.004932245705276728,0.003929384518414736,-0.5110683441162109,-0.0005561203036365125,0.7014992202117231,-0.004223808646202087,-0.0018670842982828617,0.0007494810270145535,0.0,0.0,-0.6,0.0,0.00023937225341796875,0.00023937225341796875,0.0030667781829833984,0
2.5691404342651367,0.004896876402199268,0.004075839649885893,-0.5121256113052368,-0.0005327156168301526,0.7015947386304379,-0.00458085210993886,-0.002037934260442853,0.0007244051084853709,0.0,0.0,-0.6,0.0,0.0001709461212158203,0.0001709461212158203,0.002844572067260742,0
2.5794434547424316,0.004896876402199268,0.004075839649885893,-0.5121256113052368,-0.0005327156168301526,0.7016711841522059,-0.0048305923119187355,-0.002157445764169097,0.0007068519480526447,0.0,0.0,-0.6,0.0,0.0002701282501220703,0.0002701282501220703,0.0031499862670898438,0
2.5892319679260254,0.004863891284912825,0.004265500698238611,-0.5135877132415771,-0.0005303091737691618,0.7017808304019247,-0.004905488807708025,-0.002032793592661619,0.0006936622667126358,0.0,0.0,-0.6,0.0,0.00031948089599609375,0.00031948089599609375,0.004761695861816406,0
2.5993893146514893,0.004863891284912825,0.004265500698238611,-0.5135877132415771,-0.0005303091737691618,0.7018685210182527,-0.004957871977239847,-0.001945612719282508,0.0006844295421615243,0.0,0.0,-0.6,0.0,0.00031113624572753906,0.00031113624572753906,0.00398564338684082,0
2.609100580215454,0.004855278413742781,0.004379048943519592,-0.514482855796814,-0.0005029116695437944,0.701972100512231,-0.0049868072383105755,-0.0017698933370411396,0.0006676925695501268,0.0,0.0,-0.6,0.0,0.00023603439331054688,0.00023603439331054688,0.0029435157775878906,0
2.6193935871124268,0.004855278413742781,0.004379048943519592,-0.514482855796814,-0.0005029116695437944,0.7020549778537628,-0.005007047671824694,-0.001646989956498146,0.0006559767061844468,0.0,0.0,-0.6,0.0,0.0002434253692626953,0.0002434253692626953,0.0032019615173339844,0
2.6290979385375977,0.0048534017987549305,0.004535806830972433,-0.5157034993171692,-0.0004996719614225687,0.7021608317538323,-0.005125143565237522,-0.001567199593409896,0.0006465606857091188,0.0,0.0,-0.6,0.0,0.0002129077911376953,0.0002129077911376953,0.002880096435546875,0
2.63950514793396,0.0048534017987549305,0.004535806830972433,-0.5157034993171692,-0.0004996719614225687,0.7022454814456732,-0.005207742564380169,-0.0015113931149244308,0.0006399694830179214,0.0,0.0,-0.6,0.0,0.0002391338348388672,0.0002391338348388672,0.0032644271850585938,0
2.6490938663482666,0.004860748536884785,0.004628975875675678,-0.5164507627487183,-0.0004885956051743408,0.7023385351583208,-0.005249924957752228,-0.001360034104436636,0.0006312020123004913,0.0,0.0,-0.6,0.0,0.00018405914306640625,0.00018405914306640625,0.0027997493743896484,0
2.6594855785369873,0.004860748536884785,0.004628975875675678,-0.5164507627487183,-0.0004885956051743408,0.7024129236247383,-0.005279431585222483,-0.0012541599571704865,0.0006250647711567581,0.0,0.0,-0.6,0.0,0.0002484321594238281,0.0002484321594238281,0.0033788681030273438,0
