time,x,y,z,yaw,throttle,roll_rate,pitch_rate,yaw_rate,x_ref,y_ref,z_ref,yaw_ref,pred_time,nr_time,ctrl_callback_time,metadata
4.76837158203125e-07,0.006998722441494465,-0.005180861800909042,-0.04122941568493843,-0.019300165533631296,0.7137518167080065,0.04559332696622371,0.0636489534898522,-0.019903926837664225,0.0,0.0,-0.6,-0.019300165533631296,0.0011620521545410156,0.0011620521545410156,0.0017614364624023438,Sim
0.010306358337402344,0.00710784737020731,-0.00508395629003644,-0.04125324264168739,-0.019273530298358942,0.7276303134525846,0.027697193712148703,0.04861444788578628,-0.019746411626962085,0.0,0.0,-0.6,-0.019273530298358942,0.0009403228759765625,0.0009403228759765625,0.0015172958374023438,flat wardi normal
0.020343542098999023,0.007327086757868528,-0.004899619147181511,-0.04132340848445892,-0.019261478559030105,0.737202572031944,0.018764294984241224,0.040586054819386846,-0.01966166792475025,0.0,0.0,-0.6,-0.019261478559030105,0.0008449554443359375,0.0008449554443359375,0.0013179779052734375,1x Speed
0.030221223831176758,0.007327086757868528,-0.004899619147181511,-0.04132340848445892,-0.019261478559030105,0.7438386312077782,0.012644972861247676,0.03176852238420456,-0.019578676726245862,0.0,0.0,-0.6,-0.019261478559030105,0.0008192062377929688,0.0008192062377929688,0.0013692378997802734,circle_horz_spin_ref_func
0.040572166442871094,0.007666993886232376,-0.004640208091586828,-0.04148072749376297,-0.01930325600815104,0.7484559399854386,0.0042863082574885495,0.029782350976774306,-0.019600130961304977,0.0,0.0,-0.6,-0.01930325600815104,0.001089334487915039,0.001089334487915039,0.001638650894165039,0
0.05017447471618652,0.007666993886232376,-0.004640208091586828,-0.04148072749376297,-0.01930325600815104,0.7516732174260126,0.0028943641870718584,0.023692651370696614,-0.019540252071398673,0.0,0.0,-0.6,-0.01930325600815104,0.0009984970092773438,0.0009984970092773438,0.0016202926635742188,0
0.060266733169555664,0.007781920023262501,-0.0045572854578495026,-0.04154185950756073,-0.019305690970823516,0.7539133257263841,0.0018772005548880273,0.019508403577151376,-0.019500991283000358,0.0,0.0,-0.6,-0.019305690970823516,0.0009188652038574219,0.0009188652038574219,0.001524209976196289,0
0.07022666931152344,0.007896149531006813,-0.004478595219552517,-0.04160742461681366,-0.01928586130006405,0.7554787942129814,0.00272381875193687,0.016700336513049772,-0.01945368698995966,0.0,0.0,-0.6,-0.01928586130006405,0.0010266304016113281,0.0010266304016113281,0.0016326904296875,0
0.08012080192565918,0.008242808282375336,-0.004267407115548849,-0.04183948040008545,-0.019292150762307368,0.7564816314992029,0.004149537672240948,0.017132291192794646,-0.019465857603721194,0.0,0.0,-0.6,-0.019292150762307368,0.0007472038269042969,0.0007472038269042969,0.0011162757873535156,0
0.09018063545227051,0.008242808282375336,-0.004267407115548849,-0.04183948040008545,-0.019292150762307368,0.7571829508880005,0.0028610691439755406,0.01372146402213629,-0.01943179811322322,0.0,0.0,-0.6,-0.019292150762307368,0.0009915828704833984,0.0009915828704833984,0.0015332698822021484,0
0.10004615783691406,0.008357883431017399,-0.004203563090413809,-0.04193790629506111,-0.019316939860328595,0.7575169604585142,0.0013322810258433527,0.011529326024563458,-0.019434353607469063,0.0,0.0,-0.6,-0.019316939860328595,0.0009303092956542969,0.0009303092956542969,0.0014717578887939453,0
0.1101539134979248,0.008473068475723267,-0.004140859004110098,-0.042092420160770416,-0.019348586848508563,0.7575423373912207,-0.000637385860563083,0.010864863425792582,-0.019458431477597064,0.0,0.0,-0.6,-0.019348586848508563,0.0007088184356689453,0.0007088184356689453,0.001146554946899414,0
0.12011170387268066,0.008710648864507675,-0.004017689265310764,-0.04260675981640816,-0.019455626322090726,0.7570667138578856,3.456520126420958e-05,0.009855184962548747,-0.01955453627094502,0.0,0.0,-0.6,-0.019455626322090726,0.0007441043853759766,0.0007441043853759766,0.0012288093566894531,0
0.13008999824523926,0.008828504011034966,-0.003961450885981321,-0.0429774671792984,-0.01950431834952404,0.7564573587600822,0.0015997832659731908,0.009595260550296168,-0.019601158142204388,0.0,0.0,-0.6,-0.01950431834952404,0.0007271766662597656,0.0007271766662597656,0.001146078109741211,0
0.1406552791595459,0.008970214053988457,-0.003891485510393977,-0.04377877339720726,-0.019593384286261162,0.7554687622926888,0.004905322968563118,0.008994945868577695,-0.019686554549222187,0.0,0.0,-0.6,-0.019593384286261162,0.0011317729949951172,0.0011317729949951172,0.0016486644744873047,0
0.1501753330230713,0.008970214053988457,-0.003891485510393977,-0.04377877339720726,-0.019593384286261162,0.7547760798050024,0.003429021401687662,0.00712570533644998,-0.019667354042475098,0.0,0.0,-0.6,-0.019593384286261162,0.0011479854583740234,0.0011479854583740234,0.001840353012084961,0
0.16066360473632812,0.00905166007578373,-0.0038433712907135487,-0.04532716050744057,-0.01976853216570725,0.7534187333995526,0.002092473716067474,0.006907890245260256,-0.019839636316258683,0.0,0.0,-0.6,-0.01976853216570725,0.001107931137084961,0.001107931137084961,0.0016584396362304688,0
0.17036652565002441,0.00905166007578373,-0.0038433712907135487,-0.04532716050744057,-0.01976853216570725,0.7524673154956867,0.0014600168227708844,0.0054269158048948435,-0.019824550344821144,0.0,0.0,-0.6,-0.01976853216570725,0.0012755393981933594,0.0012755393981933594,0.0020182132720947266,0
0.18078851699829102,0.0091092549264431,-0.003817535238340497,-0.04676060751080513,-0.01991821300764573,0.7512119869003927,0.001593852402862725,0.004498140648295398,-0.019965394142505994,0.0,0.0,-0.6,-0.01991821300764573,0.0011653900146484375,0.0011653900146484375,0.0017743110656738281,0
0.19055390357971191,0.0091092549264431,-0.003817535238340497,-0.04676060751080513,-0.01991821300764573,0.7503321602967542,0.0011136586728195687,0.0034962175694615545,-0.01995504873342752,0.0,0.0,-0.6,-0.01991821300764573,0.0011992454528808594,0.0011992454528808594,0.0018680095672607422,0
0.20036888122558594,0.009169764816761017,-0.0037959518376737833,-0.04853203147649765,-0.020098005140973582,0.7491170256576946,0.00036483262176038156,0.0036490085842183994,-0.020136039542398298,0.0,0.0,-0.6,-0.020098005140973582,0.001234292984008789,0.001234292984008789,0.0019578933715820312,0
0.21025395393371582,0.009201831184327602,-0.00378762767650187,-0.04954139515757561,-0.020215204086034434,0.7479699465322291,0.002527024804472303,0.0034076045656896542,-0.020252494259264515,0.0,0.0,-0.6,-0.020215204086034434,0.001291513442993164,0.001291513442993164,0.0019881725311279297,0
0.22033405303955078,0.009235288947820663,-0.0037823249585926533,-0.050631385296583176,-0.020304740949936936,0.746867360878417,0.002483153944471088,0.003486139332376352,-0.0203428597888084,0.0,0.0,-0.6,-0.020304740949936936,0.0013332366943359375,0.0013332366943359375,0.0021216869354248047,0
0.23037290573120117,0.009270262904465199,-0.0037781507708132267,-0.05179987847805023,-0.020421802022072003,0.7458091989487545,0.0017408798045873376,0.002942533152966664,-0.0204538205537403,0.0,0.0,-0.6,-0.020421802022072003,0.0014255046844482422,0.0014255046844482422,0.0022487640380859375,0
0.2405993938446045,0.009373321197926998,-0.0037670903839170933,-0.05573130398988724,-0.020760829128761444,0.7442084540485029,0.00020863860623869458,0.0013023944251876873,-0.020775130332299958,0.0,0.0,-0.6,-0.020760829128761444,0.001154184341430664,0.001154184341430664,0.001699209213256836,0
0.25028538703918457,0.009373321197926998,-0.0037670903839170933,-0.05573130398988724,-0.020760829128761444,0.7430861238954919,0.0001473042288794928,0.0008935214212114506,-0.020770970206364082,0.0,0.0,-0.6,-0.020760829128761444,0.0012831687927246094,0.0012831687927246094,0.0020265579223632812,0
0.26053571701049805,0.009433805011212826,-0.0037661567330360413,-0.058704838156700134,-0.021019514539337952,0.7417400754611315,0.0021793063628590048,0.0008120139995117921,-0.021029666663156213,0.0,0.0,-0.6,-0.021019514539337952,0.0010843276977539062,0.0010843276977539062,0.001657247543334961,0
0.27037668228149414,0.009433805011212826,-0.0037661567330360413,-0.058704838156700134,-0.021019514539337952,0.7407965586207909,0.0015334855560644944,0.0005180709454554275,-0.021026441244703598,0.0,0.0,-0.6,-0.021019514539337952,0.0011920928955078125,0.0011920928955078125,0.0018897056579589844,0
0.280864953994751,0.009496176615357399,-0.0037672477774322033,-0.061954256147146225,-0.02130276440138858,0.7395789628795961,0.0014869301606117006,0.0008786498056500207,-0.021313174674699516,0.0,0.0,-0.6,-0.02130276440138858,0.0011131763458251953,0.0011131763458251953,0.0016596317291259766,0
0.29041433334350586,0.009496176615357399,-0.0037672477774322033,-0.061954256147146225,-0.02130276440138858,0.7387255936466199,0.0010457981519414962,0.0005844985645225684,-0.021310071363901655,0.0,0.0,-0.6,-0.02130276440138858,0.0011577606201171875,0.0011577606201171875,0.0017418861389160156,0
0.300307035446167,0.00955988746136427,-0.0037773987278342247,-0.06546863913536072,-0.021612272636932887,0.7375891372487812,0.004241126020366031,0.0006198490983709903,-0.021620562923972703,0.0,0.0,-0.6,-0.021612272636932887,0.0012583732604980469,0.0012583732604980469,0.001989603042602539,0
0.3104519844055176,0.009591332636773586,-0.0037858483847230673,-0.06731821596622467,-0.021744866188193383,0.7365309351544249,0.004044761170996152,-0.00015713450941962269,-0.02174503803792147,0.0,0.0,-0.6,-0.021744866188193383,0.0014615058898925781,0.0014615058898925781,0.0028963088989257812,0
0.3205091953277588,0.009685637429356575,-0.003822555299848318,-0.07323403656482697,-0.022159368915461896,0.7350268295407243,0.0050917232534399455,0.00047266182907986377,-0.02216538024258909,0.0,0.0,-0.6,-0.022159368915461896,0.0010423660278320312,0.0010423660278320312,0.0015232563018798828,0
0.33037900924682617,0.009685637429356575,-0.003822555299848318,-0.07323403656482697,-0.022159368915461896,0.7339723403144519,0.003584729432806793,0.0002214393529772204,-0.022162810439354533,0.0,0.0,-0.6,-0.022159368915461896,0.0012469291687011719,0.0012469291687011719,0.0019521713256835938,0
0.3406381607055664,0.009749937802553177,-0.003852555761113763,-0.07744868099689484,-0.02247363833806265,0.732741825458565,0.003268852539728942,0.00022207626986142388,-0.022476665334909874,0.0,0.0,-0.6,-0.02247363833806265,0.0011518001556396484,0.0011518001556396484,0.0017521381378173828,0
0.35033226013183594,0.009749937802553177,-0.003852555761113763,-0.07744868099689484,-0.02247363833806265,0.7318793805341876,0.0023000795349018936,5.026446796898027e-05,-0.02247502491834921,0.0,0.0,-0.6,-0.02247363833806265,0.0011448860168457031,0.0011448860168457031,0.0018091201782226562,0
0.36060237884521484,0.009845742955803871,-0.003910627216100693,-0.08414319902658463,-0.022957290015960346,0.7305582944973685,0.004805566825017814,0.0006324810532422976,-0.022963482618302195,0.0,0.0,-0.6,-0.022957290015960346,0.0009598731994628906,0.0009598731994628906,0.0014569759368896484,0
0.37030863761901855,0.009845742955803871,-0.003910627216100693,-0.08414319902658463,-0.022957290015960346,0.7296322818603455,0.0033807264834981392,0.00036694528593918274,-0.022961211642262197,0.0,0.0,-0.6,-0.022957290015960346,0.0011551380157470703,0.0011551380157470703,0.0018444061279296875,0
0.3804771900177002,0.009910810738801956,-0.003955197054892778,-0.08882090449333191,-0.023289627817514282,0.7285363028429442,0.005356669045116754,0.0004840866213755606,-0.02329328343938864,0.0,0.0,-0.6,-0.023289627817514282,0.0007007122039794922,0.0007007122039794922,0.0010554790496826172,0
0.39032649993896484,0.009910810738801956,-0.003955197054892778,-0.08882090449333191,-0.023289627817514282,0.7277682536239006,0.0037652885199235325,0.0002678189908663521,-0.023291823511325478,0.0,0.0,-0.6,-0.023289627817514282,0.0010957717895507812,0.0010957717895507812,0.0017368793487548828,0
0.4002878665924072,0.010044282302260399,-0.0040266141295433044,-0.0961238220334053,-0.023783509171359435,0.7265782865329081,0.002264886827725492,0.0029451039401140063,-0.02381337410999498,0.0,0.0,-0.6,-0.023783509171359435,0.0009658336639404297,0.0009658336639404297,0.0014193058013916016,0
0.4103837013244629,0.010044282302260399,-0.0040266141295433044,-0.0961238220334053,-0.023783509171359435,0.725744292493624,0.0015877612695408764,0.00224119289378152,-0.023806667230006337,0.0,0.0,-0.6,-0.023783509171359435,0.0014615058898925781,0.0014615058898925781,0.002223491668701172,0
0.4201076030731201,0.010092982091009617,-0.004051548428833485,-0.09863382577896118,-0.023930272400950983,0.724958184895905,0.0031057371356875154,0.0009618704211857476,-0.023938970907626627,0.0,0.0,-0.6,-0.023930272400950983,0.0013127326965332031,0.0013127326965332031,0.002034425735473633,0
0.4304544925689697,0.010140194557607174,-0.004078497178852558,-0.10117832571268082,-0.024091303881956305,0.7242046887359174,0.003062472302711491,0.00046896014474689647,-0.024094901620545527,0.0,0.0,-0.6,-0.024091303881956305,0.0014820098876953125,0.0014820098876953125,0.0022902488708496094,0
0.4405217170715332,0.010233711451292038,-0.004134126007556915,-0.10636699944734573,-0.02440272928277295,0.7232824804185172,0.0024093580180767266,0.0014853834868657882,-0.02441705462147508,0.0,0.0,-0.6,-0.02440272928277295,0.002187013626098633,0.002187013626098633,0.003357410430908203,0
0.4502077102661133,0.010281338356435299,-0.0041631534695625305,-0.10904482752084732,-0.024571326522360323,0.7224373377898892,0.0029798699195652464,0.0012737644172086029,-0.024582773968134006,0.0,0.0,-0.6,-0.024571326522360323,0.0012671947479248047,0.0012671947479248047,0.001911163330078125,0
0.4603919982910156,0.010329128243029118,-0.004193518776446581,-0.11175251752138138,-0.024741126410934986,0.7216517849626963,0.0028964875856064137,0.0018328312681399489,-0.02475822324610783,0.0,0.0,-0.6,-0.024741126410934986,0.0013763904571533203,0.0013763904571533203,0.0021882057189941406,0
0.4704091548919678,0.010378354229032993,-0.00422517117112875,-0.11448770761489868,-0.024902611397517562,0.7209125828648166,0.003111955639070213,0.0026377785744704507,-0.024927632675211597,0.0,0.0,-0.6,-0.024902611397517562,0.0014352798461914062,0.0014352798461914062,0.0022156238555908203,0
0.4802095890045166,0.010477796196937561,-0.004290057346224785,-0.12003733217716217,-0.02520334312401137,0.7200225202841996,0.0022844314975725027,0.002942655984336991,-0.02523205207221241,0.0,0.0,-0.6,-0.02520334312401137,0.0014522075653076172,0.0014522075653076172,0.0022084712982177734,0
0.49053239822387695,0.010528679005801678,-0.004323048982769251,-0.12284945696592331,-0.02535131083078272,0.7192176930572176,0.0022383519558964583,0.0034209417286566062,-0.025384864323726282,0.0,0.0,-0.6,-0.02535131083078272,0.001710653305053711,0.001710653305053711,0.0025777816772460938,0
0.5002069473266602,0.010582015849649906,-0.004357515834271908,-0.1256842166185379,-0.02551429704820109,0.7184804345343433,0.0032430669503580958,0.005463308029361792,-0.025567381958576274,0.0,0.0,-0.6,-0.02551429704820109,0.0015499591827392578,0.0015499591827392578,0.0024194717407226562,0
0.5102198123931885,0.01063995249569416,-0.004392616916447878,-0.12849803268909454,-0.025675121501241585,0.7177959224745428,0.0009948445993483448,0.007114857654516188,-0.02574813153962853,0.0,0.0,-0.6,-0.025675121501241585,0.0018045902252197266,0.0018045902252197266,0.002733469009399414,0
0.5206317901611328,0.01083438191562891,-0.0044948686845600605,-0.13705871999263763,-0.02625460908478225,0.7168322393642943,0.001213747946886089,0.012627654004201723,-0.026382684249816223,0.0,0.0,-0.6,-0.02625460908478225,0.0008707046508789062,0.0008707046508789062,0.0013015270233154297,0
0.5302150249481201,0.01083438191562891,-0.0044948686845600605,-0.13705871999263763,-0.02625460908478225,0.71615700982176,0.0008220897381438679,0.01002433517254876,-0.02635686883725455,0.0,0.0,-0.6,-0.02625460908478225,0.0010552406311035156,0.0010552406311035156,0.0016322135925292969,0
0.5407965183258057,0.010861159302294254,-0.004490399267524481,-0.14211085438728333,-0.026611805507390427,0.7154177623814213,0.0003750512080937325,0.008362380175017132,-0.02669687870458109,0.0,0.0,-0.6,-0.026611805507390427,0.0010988712310791016,0.0010988712310791016,0.0016367435455322266,0
0.550347089767456,0.010861159302294254,-0.004490399267524481,-0.14211085438728333,-0.026611805507390427,0.7148999064445468,0.00024320960375422785,0.006619708342944484,-0.026679534862399285,0.0,0.0,-0.6,-0.026611805507390427,0.0013608932495117188,0.0013608932495117188,0.0021195411682128906,0
0.5606091022491455,0.01074301265180111,-0.004378252197057009,-0.148784801363945,-0.027153062371392134,0.7142006468474075,-0.0026801085268378633,0.003774246423682284,-0.027196901803023563,0.0,0.0,-0.6,-0.027153062371392134,0.001094818115234375,0.001094818115234375,0.00162506103515625,0
0.5704054832458496,0.01074301265180111,-0.004378252197057009,-0.148784801363945,-0.027153062371392134,0.71371081406252,-0.0018888124817661776,0.002950798015724078,-0.027187191269522997,0.0,0.0,-0.6,-0.027153062371392134,0.0013196468353271484,0.0013196468353271484,0.0020782947540283203,0
0.5803773403167725,0.010676260106265545,-0.004312278237193823,-0.15341289341449738,-0.02753413071462431,0.7131616499862534,-0.0019100312495858637,0.0008610493541737399,-0.027547417996499794,0.0,0.0,-0.6,-0.02753413071462431,0.0012392997741699219,0.0012392997741699219,0.0018587112426757812,0
0.59086012840271,0.010676260106265545,-0.004312278237193823,-0.15341289341449738,-0.02753413071462431,0.7127770149734233,-0.001340265337286959,0.000629681724136939,-0.02754408983517439,0.0,0.0,-0.6,-0.02753413071462431,0.0016353130340576172,0.0016353130340576172,0.0026175975799560547,0
0.600574254989624,0.010589975863695145,-0.00422693369910121,-0.1605120301246643,-0.028143699654600746,0.7122183858854091,-0.002825916257923936,0.0008035407294395254,-0.02815797207152504,0.0,0.0,-0.6,-0.028143699654600746,0.0009984970092773438,0.0009984970092773438,0.0014719963073730469,0
0.6102919578552246,0.010589975863695145,-0.00422693369910121,-0.1605120301246643,-0.028143699654600746,0.7118271174359503,-0.0019825579850340416,0.0005848855693030909,-0.02815430253294149,0.0,0.0,-0.6,-0.028143699654600746,0.001455068588256836,0.001455068588256836,0.0022220611572265625,0
0.6203556060791016,0.010566044598817825,-0.004199764225631952,-0.1629168838262558,-0.028339691128823542,0.7114548116459933,-0.0022285633036057875,0.0008168420668020681,-0.028352969238683953,0.0,0.0,-0.6,-0.028339691128823542,0.0012867450714111328,0.0012867450714111328,0.0020592212677001953,0
0.6305592060089111,0.010546324774622917,-0.004174359142780304,-0.1653394252061844,-0.028548163423280086,0.7110977395159995,-0.0015419327793091057,0.0019357047019537739,-0.0285710730496638,0.0,0.0,-0.6,-0.028548163423280086,0.0015566349029541016,0.0015566349029541016,0.002492666244506836,0
0.6407053470611572,0.010505987331271172,-0.004109862260520458,-0.17269116640090942,-0.02913818253450107,0.7105813216092256,-0.0013576158356740958,0.002506411269088469,-0.02916626756459996,0.0,0.0,-0.6,-0.02913818253450107,0.0012476444244384766,0.0012476444244384766,0.0018296241760253906,0
0.6504099369049072,0.010505987331271172,-0.004109862260520458,-0.17269116640090942,-0.02913818253450107,0.7102196372682271,-0.0009576233770068511,0.001949553108452661,-0.029160127207243255,0.0,0.0,-0.6,-0.02913818253450107,0.001344919204711914,0.001344919204711914,0.0021333694458007812,0
0.6603658199310303,0.010492460802197456,-0.004072766285389662,-0.17763864994049072,-0.029522148079313824,0.7098014442068474,-0.00089186673036,0.0030268614084066666,-0.029554368550546613,0.0,0.0,-0.6,-0.029522148079313824,0.001249551773071289,0.001249551773071289,0.0018839836120605469,0
0.670360803604126,0.010492460802197456,-0.004072766285389662,-0.17763864994049072,-0.029522148079313824,0.7095085859007881,-0.000632711711873436,0.0023758749088151013,-0.029547590200588586,0.0,0.0,-0.6,-0.029522148079313824,0.0013341903686523438,0.0013341903686523438,0.0020744800567626953,0
0.6802370548248291,0.010490790009498596,-0.004042953718453646,-0.1826310008764267,-0.029887706807288868,0.7091383431407288,-0.0006583339766439857,0.0034341057269923533,-0.029923454535284322,0.0,0.0,-0.6,-0.029887706807288868,0.0013523101806640625,0.0013523101806640625,0.0021486282348632812,0
0.6903021335601807,0.01048983447253704,-0.004029281437397003,-0.18514221906661987,-0.03008644164634388,0.7087971333891803,-0.0021841199426308826,0.002958842268011199,-0.030120460861818875,0.0,0.0,-0.6,-0.03008644164634388,0.001363515853881836,0.001363515853881836,0.002082347869873047,0
0.7005507946014404,0.010493938811123371,-0.004002968315035105,-0.19018882513046265,-0.030464230312752114,0.7084065851569856,-0.0011951169386880147,0.003457681857354404,-0.030501222944915578,0.0,0.0,-0.6,-0.030464230312752114,0.0010504722595214844,0.0010504722595214844,0.0015559196472167969,0
0.7104508876800537,0.010493938811123371,-0.004002968315035105,-0.19018882513046265,-0.030464230312752114,0.7081330956343738,-0.0008468632617951753,0.002723853675394323,-0.030493459638501856,0.0,0.0,-0.6,-0.030464230312752114,0.0013737678527832031,0.0013737678527832031,0.002195119857788086,0
0.7207961082458496,0.010516338050365448,-0.003980226349085569,-0.19776113331317902,-0.031052143533069895,0.7077125762927652,0.001787984344406618,0.002773990106746186,-0.031076786804838608,0.0,0.0,-0.6,-0.031052143533069895,0.0011556148529052734,0.0011556148529052734,0.0017032623291015625,0
0.7303252220153809,0.010516338050365448,-0.003980226349085569,-0.19776113331317902,-0.031052143533069895,0.70741808726092,0.0012466379094397786,0.002162840463532349,-0.031072008261512945,0.0,0.0,-0.6,-0.031052143533069895,0.0012955665588378906,0.0012955665588378906,0.0020699501037597656,0
0.7401618957519531,0.01052692998200655,-0.003976575564593077,-0.2002893090248108,-0.03125726520122548,0.707145628717861,0.0008584425578401932,0.001342855154720126,-0.03127002572036923,0.0,0.0,-0.6,-0.03125726520122548,0.0012898445129394531,0.0012898445129394531,0.002057790756225586,0
0.7503910064697266,0.010537966154515743,-0.0039734733290970325,-0.20282134413719177,-0.03147223266335029,0.7068909186056124,-0.00041887347876198074,0.0006916308789833554,-0.031481345460026955,0.0,0.0,-0.6,-0.03147223266335029,0.0015099048614501953,0.0015099048614501953,0.0023412704467773438,0
0.7607595920562744,0.010586394928395748,-0.003970509395003319,-0.21043460071086884,-0.03212918270371493,0.7065197088825234,-0.00039848391674466644,0.005700506996886572,-0.03218729727986593,0.0,0.0,-0.6,-0.03212918270371493,0.0011417865753173828,0.0011417865753173828,0.0017316341400146484,0
0.7701411247253418,0.010586394928395748,-0.003970509395003319,-0.21043460071086884,-0.03212918270371493,0.7062597723383576,-0.0002961095606352885,0.004518544118768468,-0.032175510293158606,0.0,0.0,-0.6,-0.03212918270371493,0.0012683868408203125,0.0012683868408203125,0.0018858909606933594,0
0.7802014350891113,0.010611537843942642,-0.003969717770814896,-0.21297778189182281,-0.032368039971471224,0.7060165549085954,-0.00130327692460968,0.004861293199154456,-0.03242002993387334,0.0,0.0,-0.6,-0.032368039971471224,0.0011873245239257812,0.0011873245239257812,0.0018613338470458984,0
0.7904691696166992,0.010639953427016735,-0.003969489596784115,-0.21552224457263947,-0.03258358526483196,0.7057877146161078,-0.0014638990282525037,0.005553916121349093,-0.03264266371185862,0.0,0.0,-0.6,-0.03258358526483196,0.0013799667358398438,0.0013799667358398438,0.0021314620971679688,0
0.8007104396820068,0.010746979154646397,-0.003967922646552324,-0.22318023443222046,-0.03324217170388968,0.70545331663248,-0.0032982916296518464,0.007671522526947293,-0.03332642219255043,0.0,0.0,-0.6,-0.03324217170388968,0.0011720657348632812,0.0011720657348632812,0.0017681121826171875,0
0.8101871013641357,0.010746979154646397,-0.003967922646552324,-0.22318023443222046,-0.03324217170388968,0.7052191734290765,-0.0023358533634582944,0.006108893561445229,-0.03330875020414383,0.0,0.0,-0.6,-0.03324217170388968,0.0010399818420410156,0.0010399818420410156,0.0016393661499023438,0
0.8205928802490234,0.010828224942088127,-0.003973921295255423,-0.2282823920249939,-0.033662832265057396,0.7049404137197374,0.0013305792885010422,0.006957682534078694,-0.03372915344996662,0.0,0.0,-0.6,-0.033662832265057396,0.001064300537109375,0.001064300537109375,0.0016388893127441406,0
0.8301446437835693,0.010828224942088127,-0.003973921295255423,-0.2282823920249939,-0.033662832265057396,0.7047452405412266,0.0009103445358135568,0.005527353209751836,-0.03371626176681317,0.0,0.0,-0.6,-0.033662832265057396,0.0011377334594726562,0.0011377334594726562,0.0017554759979248047,0
0.8408815860748291,0.010959540493786335,-0.003999741747975349,-0.2359207421541214,-0.03433981026109801,0.7044491115699183,0.001359317449506253,0.007557449881801216,-0.03441210963020965,0.0,0.0,-0.6,-0.03433981026109801,0.00116729736328125,0.00116729736328125,0.0017547607421875,0
0.8501214981079102,0.010959540493786335,-0.003999741747975349,-0.2359207421541214,-0.03433981026109801,0.7042417743521343,0.0009281601061497428,0.006004299325517323,-0.034398029840327145,0.0,0.0,-0.6,-0.03433981026109801,0.0010571479797363281,0.0010571479797363281,0.0016508102416992188,0
0.8605272769927979,0.011058224365115166,-0.0040212166495621204,-0.24096962809562683,-0.03481100679382396,0.7039904664861328,-0.0011066645967527729,0.006957507818154228,-0.03488367044602571,0.0,0.0,-0.6,-0.03481100679382396,0.001329183578491211,0.001329183578491211,0.0019345283508300781,0
0.8702957630157471,0.011058224365115166,-0.0040212166495621204,-0.24096962809562683,-0.03481100679382396,0.7038145212009909,-0.0007984199016654628,0.005537135038076142,-0.03486893672523044,0.0,0.0,-0.6,-0.03481100679382396,0.0015034675598144531,0.0015034675598144531,0.0024881362915039062,0
0.8806960582733154,0.011228750459849834,-0.004054238088428974,-0.24846848845481873,-0.03555303390587523,0.7035535144330892,-0.002444083008006274,0.008617557967745262,-0.03564521809055703,0.0,0.0,-0.6,-0.03555303390587523,0.0011374950408935547,0.0011374950408935547,0.0016505718231201172,0
0.8904540538787842,0.011228750459849834,-0.004054238088428974,-0.24846848845481873,-0.03555303390587523,0.7033707814606631,-0.0017419739221507162,0.006868793404916007,-0.0356262472016446,0.0,0.0,-0.6,-0.03555303390587523,0.0012896060943603516,0.0012896060943603516,0.002015829086303711,0
0.9000940322875977,0.011291010305285454,-0.0040656994096934795,-0.2509585916996002,-0.035800761218479055,0.7032043794342648,-4.190533088370466e-05,0.007459523649236064,-0.03587574044852568,0.0,0.0,-0.6,-0.035800761218479055,0.001260519027709961,0.001260519027709961,0.0019843578338623047,0
0.910383939743042,0.011354535818099976,-0.004079517908394337,-0.25344204902648926,-0.03604744095332448,0.7030479536593085,0.0012449040631363865,0.007566627346438487,-0.03612055970307305,0.0,0.0,-0.6,-0.03604744095332448,0.0012295246124267578,0.0012295246124267578,0.001953601837158203,0
0.9202737808227539,0.011486348696053028,-0.004111607559025288,-0.25839394330978394,-0.036571891903086996,0.702847597349391,0.002148030377373348,0.007151092605521106,-0.03663886751187701,0.0,0.0,-0.6,-0.036571891903086996,0.0012366771697998047,0.0012366771697998047,0.0019652843475341797,0
0.9302091598510742,0.011554282158613205,-0.0041293790563941,-0.2608613669872284,-0.036838498924968974,0.7026690442367663,0.0021972519067963844,0.006677162893241862,-0.03690087320465302,0.0,0.0,-0.6,-0.036838498924968974,0.0012850761413574219,0.0012850761413574219,0.0019428730010986328,0
0.940281867980957,0.01162438653409481,-0.004149129148572683,-0.26330676674842834,-0.037103442599750014,0.7025065144085597,0.002986791952467184,0.006657167884901599,-0.0371641454545658,0.0,0.0,-0.6,-0.037103442599750014,0.0013649463653564453,0.0013649463653564453,0.002153158187866211,0
0.9503068923950195,0.011379117146134377,-0.004149101208895445,-0.2656411826610565,-0.03737487980889813,0.7023600306845079,0.003428876568957713,0.0023060747941598594,-0.037391663187831645,0.0,0.0,-0.6,-0.03737487980889813,0.0013530254364013672,0.0013530254364013672,0.002132415771484375,0
0.960839033126831,0.010682841762900352,-0.004155573435127735,-0.2726151943206787,-0.03816745835559909,0.7021628752776802,0.002725147080026264,-0.004726046295134578,-0.03811629141794245,0.0,0.0,-0.6,-0.03816745835559909,0.0011355876922607422,0.0011355876922607422,0.0016787052154541016,0
0.9703695774078369,0.010682841762900352,-0.004155573435127735,-0.2726151943206787,-0.03816745835559909,0.7020248252202932,0.0019285491924609052,-0.003824642094743707,-0.03812695486155391,0.0,0.0,-0.6,-0.03816745835559909,0.0011932849884033203,0.0011932849884033203,0.0019183158874511719,0
0.9806256294250488,0.010246068239212036,-0.004163153003901243,-0.27724072337150574,-0.03869560971436481,0.7018598816409322,0.0017483093959300019,-0.007746447505974452,-0.03861653394474409,0.0,0.0,-0.6,-0.03869560971436481,0.0011699199676513672,0.0011699199676513672,0.0017676353454589844,0
0.9904496669769287,0.010246068239212036,-0.004163153003901243,-0.27724072337150574,-0.03869560971436481,0.7017443822823152,0.0012557475273944677,-0.006232188671632524,-0.03863261602606906,0.0,0.0,-0.6,-0.03869560971436481,0.001299142837524414,0.001299142837524414,0.002009868621826172,0
1.000305414199829,0.009833612479269505,-0.004171463660895824,-0.2818481922149658,-0.03920639161164543,0.7015943868034639,-0.001636365154643189,-0.009168097058473384,-0.03912044326344498,0.0,0.0,-0.6,-0.03920639161164543,0.0012974739074707031,0.0012974739074707031,0.002044200897216797,0
1.0102546215057373,0.009634061716496944,-0.004174664616584778,-0.28413885831832886,-0.03947138561640817,0.7014632888098301,-0.0017715779297309533,-0.010374681622167328,-0.039373822876090876,0.0,0.0,-0.6,-0.03947138561640817,0.0012519359588623047,0.0012519359588623047,0.001960277557373047,0
1.0202035903930664,0.009439608082175255,-0.004178304225206375,-0.2864229083061218,-0.03974946628802202,0.7013411760249678,-0.0017114823218192146,-0.009868378297209794,-0.03965705472068696,0.0,0.0,-0.6,-0.03974946628802202,0.0012946128845214844,0.0012946128845214844,0.0020339488983154297,0
1.0304484367370605,0.009250927716493607,-0.004181317985057831,-0.288699746131897,-0.04000737259291698,0.7012314059760477,-0.0026677146446808003,-0.00922497982126639,-0.03992367381039425,0.0,0.0,-0.6,-0.04000737259291698,0.001489877700805664,0.001489877700805664,0.0024521350860595703,0
1.0404222011566162,0.008723298087716103,-0.004190657287836075,-0.29548028111457825,-0.04084313381984537,0.7010752505194908,-0.003046794998617238,-0.009862117122769907,-0.04075452719757364,0.0,0.0,-0.6,-0.04084313381984537,0.0012166500091552734,0.0012166500091552734,0.0017786026000976562,0
1.0501773357391357,0.008723298087716103,-0.004190657287836075,-0.29548028111457825,-0.04084313381984537,0.700965903488621,-0.002093256301418228,-0.007902301744307706,-0.040771997149176044,0.0,0.0,-0.6,-0.04084313381984537,0.0010290145874023438,0.0010290145874023438,0.001641988754272461,0
1.0603950023651123,0.008400477468967438,-0.0041989791207015514,-0.29996222257614136,-0.04139363376296098,0.7008374978402301,-0.0020799314211660687,-0.009923693133609758,-0.04130313731481468,0.0,0.0,-0.6,-0.04139363376296098,0.0013399124145507812,0.0013399124145507812,0.0019876956939697266,0
1.0703837871551514,0.008400477468967438,-0.0041989791207015514,-0.29996222257614136,-0.04139363376296098,0.700747582041508,-0.0014151731351139867,-0.007950054406239906,-0.04132112428728552,0.0,0.0,-0.6,-0.04139363376296098,0.0014252662658691406,0.0014252662658691406,0.002198934555053711,0
1.0803203582763672,0.008092576637864113,-0.004205258563160896,-0.30441802740097046,-0.041997220123434306,0.7006416495907918,-0.003469067503239727,-0.010504490957457693,-0.04190481120238846,0.0,0.0,-0.6,-0.041997220123434306,0.0012636184692382812,0.0012636184692382812,0.0020356178283691406,0
1.0902431011199951,0.007944445125758648,-0.0042078630067408085,-0.3066347539424896,-0.04231133144045253,0.7005432297482013,-0.003207735306065858,-0.009027607404831868,-0.042232880627005656,0.0,0.0,-0.6,-0.04231133144045253,0.0012896060943603516,0.0012896060943603516,0.001975536346435547,0
1.1006929874420166,0.007662497460842133,-0.004214505665004253,-0.31103792786598206,-0.042896827878830014,0.7004373100418209,-0.002171727554869608,-0.00962058485902871,-0.04281036368732785,0.0,0.0,-0.6,-0.042896827878830014,0.0011546611785888672,0.0011546611785888672,0.0017218589782714844,0
1.1104536056518555,0.007662497460842133,-0.004214505665004253,-0.31103792786598206,-0.042896827878830014,0.7003631403722824,-0.0014793472305421086,-0.007701992500916246,-0.04282751698979524,0.0,0.0,-0.6,-0.042896827878830014,0.0013935565948486328,0.0013935565948486328,0.0021991729736328125,0
1.1200783252716064,0.007397748995572329,-0.004223387688398361,-0.31539905071258545,-0.043473594238739366,0.7002653422571048,9.315852187674256e-05,-0.008419582641091753,-0.043393085054868066,0.0,0.0,-0.6,-0.043473594238739366,0.0012850761413574219,0.0012850761413574219,0.001949310302734375,0
1.130232572555542,0.0072713796980679035,-0.0042290110141038895,-0.31756478548049927,-0.04376877273559481,0.7001767387917208,0.0010477388157082,-0.007235834467210556,-0.04369720929728664,0.0,0.0,-0.6,-0.04376877273559481,0.001056671142578125,0.001056671142578125,0.0016946792602539062,0
1.140244483947754,0.007150222081691027,-0.004235869273543358,-0.3197198212146759,-0.044077819978505045,0.7000952982296921,0.0003995806021638775,-0.0063221032689401435,-0.044016790575127265,0.0,0.0,-0.6,-0.044077819978505045,0.0012211799621582031,0.0012211799621582031,0.0019304752349853516,0
1.1502985954284668,0.007032864727079868,-0.00424235500395298,-0.32186397910118103,-0.04437409756037152,0.7000189076899248,-9.716776916293357e-05,-0.006396013326962947,-0.044313625573831734,0.0,0.0,-0.6,-0.04437409756037152,0.001191854476928711,0.001191854476928711,0.0018467903137207031,0
1.1609010696411133,0.0067089758813381195,-0.0042617665603756905,-0.3282361924648285,-0.04529630056781322,0.6999110863204883,-0.0018624706356533927,-0.004601137352905191,-0.045259074744601405,0.0,0.0,-0.6,-0.04529630056781322,0.0012078285217285156,0.0012078285217285156,0.0018265247344970703,0
1.1700987815856934,0.0067089758813381195,-0.0042617665603756905,-0.3282361924648285,-0.04529630056781322,0.6998355944474414,-0.0012831965099742936,-0.0036858557559101405,-0.04526633397888204,0.0,0.0,-0.6,-0.04529630056781322,0.0011303424835205078,0.0011303424835205078,0.0017695426940917969,0
1.180494785308838,0.006521064322441816,-0.0042761084623634815,-0.33242616057395935,-0.045934885322053,0.6997493317752966,-0.0008810651525252573,-0.003448561707836963,-0.04590623134992875,0.0,0.0,-0.6,-0.045934885322053,0.001065969467163086,0.001065969467163086,0.001592874526977539,0
1.1905341148376465,0.006521064322441816,-0.0042761084623634815,-0.33242616057395935,-0.045934885322053,0.6996889360701158,-0.0006008255659475941,-0.00276510576889418,-0.04591205442904959,0.0,0.0,-0.6,-0.045934885322053,0.0015757083892822266,0.0015757083892822266,0.002397775650024414,0
1.2005105018615723,0.006280666217207909,-0.004301310516893864,-0.3386193811893463,-0.04689334757840598,0.6996047624487319,-0.00040374710686653286,-0.0009957144256904438,-0.046887430467053834,0.0,0.0,-0.6,-0.04689334757840598,0.0012264251708984375,0.0012264251708984375,0.0017657279968261719,0
1.210541009902954,0.006280666217207909,-0.004301310516893864,-0.3386193811893463,-0.04689334757840598,0.6995458336547445,-0.0002776678251326079,-0.0008045710913662897,-0.046888876666009605,0.0,0.0,-0.6,-0.04689334757840598,0.0015926361083984375,0.0015926361083984375,0.0024924278259277344,0
1.2202773094177246,0.006211032159626484,-0.004310910124331713,-0.34065932035446167,-0.0472101230539287,0.6994909194771489,-6.3670291363396424e-06,-0.00042171900277530877,-0.047208513493593285,0.0,0.0,-0.6,-0.0472101230539287,0.0019297599792480469,0.0019297599792480469,0.0028946399688720703,0
1.2303805351257324,0.00614509591832757,-0.004321733955293894,-0.34267547726631165,-0.047528193806680344,0.6994439322536338,0.0008854270369486376,-0.0013000443182320674,-0.047514684392733875,0.0,0.0,-0.6,-0.047528193806680344,0.0015528202056884766,0.0015528202056884766,0.002379894256591797,0
1.2403664588928223,0.00602128216996789,-0.0043463013134896755,-0.346667617559433,-0.0481650977199892,0.6993888269254253,0.001687593845564788,-0.0027210392821099476,-0.04813429114667055,0.0,0.0,-0.6,-0.0481650977199892,0.0014252662658691406,0.0014252662658691406,0.002252817153930664,0
1.2501296997070312,0.005965004209429026,-0.004359575919806957,-0.3486463725566864,-0.04848625789937161,0.6993316324654645,0.0008465484088335482,-0.0008965452815383833,-0.04847672141315116,0.0,0.0,-0.6,-0.04848625789937161,0.0013659000396728516,0.0013659000396728516,0.0020482540130615234,0
1.2607862949371338,0.005868678912520409,-0.004386821296066046,-0.3525668978691101,-0.0491770199947257,0.6992702671380954,-0.003426330186548703,-0.000541617169758182,-0.04918823677639528,0.0,0.0,-0.6,-0.0491770199947257,0.0011818408966064453,0.0011818408966064453,0.001764059066772461,0
1.2702152729034424,0.005868678912520409,-0.004386821296066046,-0.3525668978691101,-0.0491770199947257,0.6992273080715964,-0.0023967657239832123,-0.0004235290523931993,-0.04918524814951069,0.0,0.0,-0.6,-0.0491770199947257,0.0008702278137207031,0.0008702278137207031,0.001453399658203125,0
1.2802624702453613,0.005760345607995987,-0.004422466736286879,-0.3583577275276184,-0.05026514591959224,0.6991547249610267,-0.005210645453463185,0.0010799658350691345,-0.05030009771055141,0.0,0.0,-0.6,-0.05026514591959224,0.0009415149688720703,0.0009415149688720703,0.00139617919921875,0
1.2902746200561523,0.005760345607995987,-0.004422466736286879,-0.3583577275276184,-0.05026514591959224,0.6991039158675383,-0.0036546926149302744,0.0008816527378914812,-0.050291668106127195,0.0,0.0,-0.6,-0.05026514591959224,0.001013040542602539,0.001013040542602539,0.0015957355499267578,0
1.3002259731292725,0.005710283759981394,-0.0044419229961931705,-0.3622015714645386,-0.05100958642940742,0.6990469667172994,-0.004731054424879108,0.0026294167455016976,-0.05105798029121373,0.0,0.0,-0.6,-0.05100958642940742,0.0008857250213623047,0.0008857250213623047,0.0013244152069091797,0
1.310300588607788,0.005710283759981394,-0.0044419229961931705,-0.3622015714645386,-0.05100958642940742,0.699007105851648,-0.003326681275493833,0.0021206980770160076,-0.051047019122177385,0.0,0.0,-0.6,-0.05100958642940742,0.0010983943939208984,0.0010983943939208984,0.0017368793487548828,0
1.3205757141113281,0.005673007573932409,-0.004470100626349449,-0.36786365509033203,-0.05209090728966901,0.6989592006986577,-0.0018783935895051536,0.006232893907226032,-0.05216263219960854,0.0,0.0,-0.6,-0.05209090728966901,0.0009264945983886719,0.0009264945983886719,0.0013782978057861328,0
1.330045461654663,0.005673007573932409,-0.004470100626349449,-0.36786365509033203,-0.05209090728966901,0.6989256784318411,-0.001347722392616732,0.004989510259676938,-0.05214815044735023,0.0,0.0,-0.6,-0.05209090728966901,0.0009505748748779297,0.0009505748748779297,0.0015177726745605469,0
1.3403549194335938,0.005670294631272554,-0.0044822911731898785,-0.36972057819366455,-0.05247546083538423,0.6989058464144242,0.00020039115223976283,0.0047558576431046195,-0.052523791859759215,0.0,0.0,-0.6,-0.05247546083538423,0.0011706352233886719,0.0011706352233886719,0.0018908977508544922,0
1.3501644134521484,0.0055705183185637,-0.004335354082286358,-0.3715016841888428,-0.05284163036090576,0.6988914063640516,-8.235681661627045e-05,0.0027604306875317793,-0.052871829906152634,0.0,0.0,-0.6,-0.05284163036090576,0.0009212493896484375,0.0009212493896484375,0.0014982223510742188,0
1.3600032329559326,0.005385534837841988,-0.004055328201502562,-0.3750227391719818,-0.05361272952139992,0.698885600560233,-0.0024655876550615675,0.0008352742625660034,-0.05363484647616811,0.0,0.0,-0.6,-0.05361272952139992,0.0009415149688720703,0.0009415149688720703,0.001436471939086914,0
1.3703291416168213,0.0053003765642642975,-0.0039205183275043964,-0.3767577111721039,-0.05402134310451075,0.6988823449251579,-0.0037488076402511657,0.00047470021634294095,-0.05404569508199412,0.0,0.0,-0.6,-0.05402134310451075,0.001148223876953125,0.001148223876953125,0.0018224716186523438,0
1.3801631927490234,0.0052211694419384,-0.0037891019601374865,-0.37847909331321716,-0.0544171893776753,0.6988822726734017,-0.004535298088559487,0.0009526357509913991,-0.05444972926039799,0.0,0.0,-0.6,-0.0544171893776753,0.0013399124145507812,0.0013399124145507812,0.0020940303802490234,0
1.390319585800171,0.005148636177182198,-0.0036601421888917685,-0.38018640875816345,-0.054804654515932326,0.6988850674166486,-0.0054047590776574285,0.0011795437962535558,-0.05484326425834662,0.0,0.0,-0.6,-0.054804654515932326,0.001220703125,0.001220703125,0.001880645751953125,0
1.4002621173858643,0.00502212205901742,-0.0034104790538549423,-0.38355952501296997,-0.05557705478772228,0.6988920287077042,-0.007249309278649339,0.0034723733459336554,-0.0556455711608311,0.0,0.0,-0.6,-0.05557705478772228,0.001186370849609375,0.001186370849609375,0.0019307136535644531,0
1.4101970195770264,0.00497416453436017,-0.003294592723250389,-0.3852258324623108,-0.05597136490563405,0.6988961716162106,-0.006093149101341527,0.0049709124900741515,-0.05604880453248499,0.0,0.0,-0.6,-0.05597136490563405,0.001222848892211914,0.001222848892211914,0.0018322467803955078,0
1.4202618598937988,0.00493351137265563,-0.0031813913956284523,-0.38687852025032043,-0.0563743010233219,0.6989049578744225,-0.0065741281941820206,0.005262035527953467,-0.056456315126876246,0.0,0.0,-0.6,-0.0563743010233219,0.0012943744659423828,0.0012943744659423828,0.002045869827270508,0
1.4304900169372559,0.0048997486010193825,-0.003070274367928505,-0.38851654529571533,-0.05678988991887542,0.6989161182287794,-0.006496172672286404,0.005782780251305481,-0.05687625152161022,0.0,0.0,-0.6,-0.05678988991887542,0.0014524459838867188,0.0014524459838867188,0.0023038387298583984,0
1.4403939247131348,0.004831194411963224,-0.002752067055553198,-0.3932972252368927,-0.0580200258756427,0.6989298459457411,-0.008060964842309722,0.006494879284697211,-0.058120009000831564,0.0,0.0,-0.6,-0.0580200258756427,0.0012264251708984375,0.0012264251708984375,0.001772165298461914,0
1.4503529071807861,0.004831194411963224,-0.002752067055553198,-0.3932972252368927,-0.0580200258756427,0.6989394724079744,-0.0056828157391613865,0.005241899869243292,-0.05809736716718197,0.0,0.0,-0.6,-0.0580200258756427,0.0012378692626953125,0.0012378692626953125,0.0018856525421142578,0
1.4602200984954834,0.004810325335711241,-0.0025535852182656527,-0.39642491936683655,-0.058832899556965836,0.6989435864142156,-0.006121122034008985,0.004966653439607803,-0.05890952264325861,0.0,0.0,-0.6,-0.058832899556965836,0.0009000301361083984,0.0009000301361083984,0.001355886459350586,0
1.4700093269348145,0.004810325335711241,-0.0025535852182656527,-0.39642491936683655,-0.058832899556965836,0.6989464790815626,-0.0043160248009239755,0.004008008412192847,-0.05889240566844983,0.0,0.0,-0.6,-0.058832899556965836,0.0007271766662597656,0.0007271766662597656,0.001163482666015625,0
1.4800922870635986,0.0048064496368169785,-0.0024585954379290342,-0.3979698419570923,-0.059260551721659074,0.6989500102393297,-0.003554923714929297,0.0039202298815736985,-0.05931599113648644,0.0,0.0,-0.6,-0.059260551721659074,0.0007927417755126953,0.0007927417755126953,0.0012912750244140625,0
1.4901316165924072,0.004816635046154261,-0.002281000604853034,-0.40100765228271484,-0.06009909589514006,0.6989659839727264,-0.001412602568618438,0.005143382385787517,-0.06015702133112928,0.0,0.0,-0.6,-0.06009909589514006,0.0009362697601318359,0.0009362697601318359,0.0014734268188476562,0
1.5004336833953857,0.004842350725084543,-0.0021170438267290592,-0.4039762318134308,-0.06094597035512326,0.6989964746049039,-0.0022748428611465356,0.004367982450503735,-0.061000820634862174,0.0,0.0,-0.6,-0.06094597035512326,0.0008223056793212891,0.0008223056793212891,0.0012161731719970703,0
1.510246753692627,0.004842350725084543,-0.0021170438267290592,-0.4039762318134308,-0.06094597035512326,0.699017827971218,-0.0016198716179493086,0.003510397455347264,-0.060989731732117455,0.0,0.0,-0.6,-0.06094597035512326,0.0011830329895019531,0.0011830329895019531,0.0018680095672607422,0
1.5203156471252441,0.004916081670671701,-0.0018923007883131504,-0.4083273112773895,-0.06230391535624402,0.6990530884106901,-3.596155005398408e-05,0.006779806674624101,-0.06237319418510459,0.0,0.0,-0.6,-0.06230391535624402,0.0010263919830322266,0.0010263919830322266,0.0014851093292236328,0
1.5303337574005127,0.004916081670671701,-0.0018923007883131504,-0.4083273112773895,-0.06230391535624402,0.6990777862916294,-6.7617638339722e-05,0.005425685394452125,-0.06236021240668959,0.0,0.0,-0.6,-0.06230391535624402,0.0010950565338134766,0.0010950565338134766,0.0017430782318115234,0
1.5401959419250488,0.004949233029037714,-0.0018242659280076623,-0.40975141525268555,-0.06277395127251091,0.6990989953548408,-0.00018226117714392978,0.005706559898246117,-0.06283380885316624,0.0,0.0,-0.6,-0.06277395127251091,0.0011661052703857422,0.0011661052703857422,0.001870870590209961,0
1.5502204895019531,0.0049873236566782,-0.0017588813789188862,-0.4111626446247101,-0.06324242375527836,0.6991208267425775,-0.0004942707807191384,0.006056740017918971,-0.06330731021160152,0.0,0.0,-0.6,-0.06324242375527836,0.0009865760803222656,0.0009865760803222656,0.0015382766723632812,0
1.5602960586547852,0.00506616709753871,-0.0016317269764840603,-0.41395801305770874,-0.06415613558608738,0.6991590464089975,0.00024103121925085033,0.008044777981577551,-0.0642377389991338,0.0,0.0,-0.6,-0.06415613558608738,0.0013473033905029297,0.0013473033905029297,0.002104520797729492,0
1.570225715637207,0.005113107152283192,-0.0015735498163849115,-0.4153420031070709,-0.06463415044483911,0.6991968289874353,0.0006401421292012501,0.00769521765969671,-0.06471091438953572,0.0,0.0,-0.6,-0.06463415044483911,0.00141143798828125,0.00141143798828125,0.002054452896118164,0
1.5803701877593994,0.0051649571396410465,-0.0015180682530626655,-0.4167115092277527,-0.065081736654812,0.6992339778400549,0.00019470330788667602,0.008083336513423411,-0.06516429234063714,0.0,0.0,-0.6,-0.065081736654812,0.0014739036560058594,0.0014739036560058594,0.0023157596588134766,0
1.5904200077056885,0.00522100692614913,-0.0014648729702457786,-0.4180671274662018,-0.0655532698215689,0.699265213441474,-0.00029094159360887247,0.007078464574662474,-0.06562809150084534,0.0,0.0,-0.6,-0.0655532698215689,0.0013921260833740234,0.0013921260833740234,0.002126932144165039,0
1.600052833557129,0.0053437636233866215,-0.0013676449889317155,-0.42073822021484375,-0.06651740897683547,0.6993069630235297,0.0018105088733413961,0.008156699994819125,-0.06659490452311108,0.0,0.0,-0.6,-0.06651740897683547,0.0010805130004882812,0.0010805130004882812,0.001615285873413086,0
1.6104800701141357,0.0054116565734148026,-0.0013237341772764921,-0.42205119132995605,-0.06698149214271353,0.6993534415746976,0.000620258083279337,0.008498540421900855,-0.06706764105385206,0.0,0.0,-0.6,-0.06698149214271353,0.0014843940734863281,0.0014843940734863281,0.002328157424926758,0
1.6203455924987793,0.0054835728369653225,-0.0012806595768779516,-0.42335018515586853,-0.06745231202078196,0.699390075990689,-0.0012132077656690447,0.0072464078824676014,-0.0675334505800121,0.0,0.0,-0.6,-0.06745231202078196,0.0016889572143554688,0.0016889572143554688,0.0026106834411621094,0
1.6304395198822021,0.0055604055523872375,-0.001240826677531004,-0.42466026544570923,-0.06793950899776252,0.6994268224735365,-0.0002836689242942519,0.0076093047640191916,-0.06802055081849015,0.0,0.0,-0.6,-0.06793950899776252,0.0015625953674316406,0.0015625953674316406,0.0025434494018554688,0
1.640449047088623,0.0057276831939816475,-0.0011696675792336464,-0.4272339940071106,-0.06892763359875442,0.6994768349647762,0.00029236138475949254,0.00905525994426536,-0.0690208198530739,0.0,0.0,-0.6,-0.06892763359875442,0.001413583755493164,0.001413583755493164,0.002225160598754883,0
1.6501266956329346,0.0058165197260677814,-0.001136797247454524,-0.4284999966621399,-0.06941177933561295,0.6995128609108694,-0.0003621679032653131,0.008836943514514275,-0.06950537490389774,0.0,0.0,-0.6,-0.06941177933561295,0.0013613700866699219,0.0013613700866699219,0.001960277557373047,0
1.6602709293365479,0.005909262225031853,-0.0011064813006669283,-0.4297542870044708,-0.06989204289095072,0.6995413297967177,0.0006472541923323932,0.008755941980326552,-0.06998097160540134,0.0,0.0,-0.6,-0.06989204289095072,0.001271963119506836,0.001271963119506836,0.0020329952239990234,0
1.6704692840576172,0.006005933508276939,-0.001078249653801322,-0.43099480867385864,-0.07039400633379682,0.6995721629035869,-0.0002252526000912861,0.008423864423778174,-0.07048305311729341,0.0,0.0,-0.6,-0.07039400633379682,0.0013072490692138672,0.0013072490692138672,0.0020897388458251953,0
1.680079460144043,0.006207666825503111,-0.0010286704637110233,-0.4334268867969513,-0.07138628267545616,0.6996057536941487,0.0017182989363251195,0.009665403108117653,-0.07148109964794648,0.0,0.0,-0.6,-0.07138628267545616,0.0012264251708984375,0.0012264251708984375,0.0018258094787597656,0
1.6904499530792236,0.006314513273537159,-0.0010081477230414748,-0.4346188008785248,-0.07187649452480742,0.6996420104592791,0.0018333654506572832,0.00954681150775877,-0.0719700617103375,0.0,0.0,-0.6,-0.07187649452480742,0.0012907981872558594,0.0012907981872558594,0.002027750015258789,0
1.7002055644989014,0.006419981364160776,-0.00099312758538872,-0.43579599261283875,-0.07238322995094607,0.699683010255619,0.002681043077158714,0.009227160480524254,-0.0724710115353538,0.0,0.0,-0.6,-0.07238322995094607,0.0012204647064208984,0.0012204647064208984,0.0019686222076416016,0
1.7103569507598877,0.006529487669467926,-0.000982093159109354,-0.43695908784866333,-0.07290917432751592,0.6997214688823832,0.004596644871674293,0.009985567063802108,-0.07299859024046942,0.0,0.0,-0.6,-0.07290917432751592,0.0012421607971191406,0.0012421607971191406,0.001953601837158203,0
1.7203986644744873,0.006643275730311871,-0.0009752344340085983,-0.4381093680858612,-0.07343531098033029,0.6997558049323629,0.004843384655849073,0.009705156350396208,-0.07352195468302254,0.0,0.0,-0.6,-0.07343531098033029,0.001493215560913086,0.001493215560913086,0.002372264862060547,0
1.7302765846252441,0.006760042626410723,-0.0009706224664114416,-0.43924644589424133,-0.07395795498243252,0.6997951517815957,0.0034993589469962923,0.008805190506322383,-0.07404067161888858,0.0,0.0,-0.6,-0.07395795498243252,0.0013036727905273438,0.0013036727905273438,0.002001047134399414,0
1.7403216361999512,0.006999711971729994,-0.0009676582994870842,-0.4414779841899872,-0.07499110180025227,0.6998481125116274,0.0038318216512715493,0.008395496884401199,-0.07506925906651213,0.0,0.0,-0.6,-0.07499110180025227,0.001642465591430664,0.001642465591430664,0.0024878978729248047,0
1.7504656314849854,0.007155179046094418,-0.0008314878796227276,-0.44249576330184937,-0.07552564009633166,0.6998971797645791,0.00018064027835385915,0.008288219264593957,-0.0756148565012224,0.0,0.0,-0.6,-0.07552564009633166,0.0014920234680175781,0.0014920234680175781,0.002332925796508789,0
1.7602593898773193,0.007473877165466547,-0.0005719056352972984,-0.444497674703598,-0.07657302127492678,0.699957754644779,-0.0021181351135038124,0.010763863153969327,-0.07669466650468466,0.0,0.0,-0.6,-0.07657302127492678,0.001299142837524414,0.001299142837524414,0.0019567012786865234,0
1.770435094833374,0.007637509610503912,-0.0004473669396247715,-0.4454825222492218,-0.07710446296847777,0.7000149472692601,-0.0036564324627980137,0.009713244485057605,-0.07721935539085457,0.0,0.0,-0.6,-0.07710446296847777,0.001371622085571289,0.001371622085571289,0.002177715301513672,0
1.7802841663360596,0.007802907843142748,-0.000326366163790226,-0.4464575946331024,-0.0776185866976741,0.7000621007989042,-0.004384438824770912,0.009552527481852304,-0.07773312291428994,0.0,0.0,-0.6,-0.0776185866976741,0.0015544891357421875,0.0015544891357421875,0.002435445785522461,0
1.7903926372528076,0.007970360107719898,-0.00020848363055847585,-0.4474230408668518,-0.07812515786108347,0.7001093386723923,-0.005154823769106325,0.009317778666515198,-0.07823862322053024,0.0,0.0,-0.6,-0.07812515786108347,0.001333475112915039,0.001333475112915039,0.002078533172607422,0
1.800365924835205,0.008314731530845165,1.7032274627126753e-05,-0.44931814074516296,-0.07922527296655069,0.7001860637497012,-0.007541779098019919,0.012216140737174605,-0.07937230250096676,0.0,0.0,-0.6,-0.07922527296655069,0.0014889240264892578,0.0014889240264892578,0.0022974014282226562,0
1.8100628852844238,0.008490120060741901,0.0001261302240891382,-0.4502463638782501,-0.07978394276561544,0.7002597882271488,-0.007981235660414948,0.010623269170051707,-0.07991481227059721,0.0,0.0,-0.6,-0.07978394276561544,0.0010285377502441406,0.0010285377502441406,0.0015485286712646484,0
1.8203608989715576,0.008666830137372017,0.00023297558072954416,-0.45116302371025085,-0.08035505477991853,0.7003285775332299,-0.007460308496247539,0.009904279334706296,-0.08047606502902231,0.0,0.0,-0.6,-0.08035505477991853,0.001116037368774414,0.001116037368774414,0.0018002986907958984,0
1.8303921222686768,0.008844641968607903,0.0003362445277161896,-0.4520920217037201,-0.08095913836843249,0.7003994599837148,-0.0057279380388271526,0.00921252342077979,-0.0810677985299479,0.0,0.0,-0.6,-0.08095913836843249,0.001161336898803711,0.001161336898803711,0.0018842220306396484,0
1.8402540683746338,0.009209157899022102,0.0005298570031300187,-0.4539116621017456,-0.08212937225526887,0.7004815503076842,-0.007749650257905008,0.013052310445044653,-0.08227861009904248,0.0,0.0,-0.6,-0.08212937225526887,0.0012712478637695312,0.0012712478637695312,0.001971006393432617,0
1.8502652645111084,0.0093965670093894,0.0006233947351574898,-0.45480477809906006,-0.08272079509310291,0.7005511698261896,-0.00934194634334543,0.012265904835266914,-0.08286502138074382,0.0,0.0,-0.6,-0.08272079509310291,0.0012211799621582031,0.0012211799621582031,0.001951456069946289,0
1.8602361679077148,0.009586524218320847,0.000716542184818536,-0.4556872546672821,-0.08330902111717291,0.7006113777821261,-0.009240544934877089,0.012183646605102329,-0.08345080820704398,0.0,0.0,-0.6,-0.08330902111717291,0.0014719963073730469,0.0014719963073730469,0.002354860305786133,0
1.870335340499878,0.009779070504009724,0.0008072301279753447,-0.4565591514110565,-0.08390626628331951,0.7006677259013273,-0.007920621238826597,0.01168470865862073,-0.08403908888157535,0.0,0.0,-0.6,-0.08390626628331951,0.0014019012451171875,0.0014019012451171875,0.0021712779998779297,0
1.8805756568908691,0.010167413391172886,0.0009814717341214418,-0.4582674205303192,-0.0850477048885208,0.7007383891017808,-0.008147806103647416,0.012010239571116396,-0.08518289602919285,0.0,0.0,-0.6,-0.0850477048885208,0.0015554428100585938,0.0015554428100585938,0.002495288848876953,0
1.8902778625488281,0.010364106856286526,0.001065563876181841,-0.4591059982776642,-0.08564171715118751,0.700798362168289,-0.00836234505894835,0.011624175449669477,-0.08577283080845215,0.0,0.0,-0.6,-0.08564171715118751,0.0014982223510742188,0.0014982223510742188,0.002254009246826172,0
1.9003243446350098,0.01056266576051712,0.001148023409768939,-0.4599210321903229,-0.08623980266876387,0.7008571936767506,-0.007268821085936118,0.010674370915898925,-0.08635897218146048,0.0,0.0,-0.6,-0.08623980266876387,0.0011496543884277344,0.0011496543884277344,0.0018146038055419922,0
1.9104478359222412,0.010762247256934643,0.0012280880473554134,-0.4607256352901459,-0.08682816350995404,0.7009110336555441,-0.005911435599404207,0.0100771643562405,-0.08693820885211577,0.0,0.0,-0.6,-0.08682816350995404,0.0014331340789794922,0.0014331340789794922,0.0022401809692382812,0
1.920274257659912,0.011165637522935867,0.0013797355350106955,-0.4623028337955475,-0.08804353542972973,0.7009816161916038,-0.004322038298816812,0.012219792325076135,-0.08817088333096566,0.0,0.0,-0.6,-0.08804353542972973,0.001329183578491211,0.001329183578491211,0.002020120620727539,0
1.9303436279296875,0.011371206492185593,0.001450711744837463,-0.4630753695964813,-0.08863302870935406,0.701047368345056,-0.003425283965527795,0.011957158590840842,-0.08875637245751002,0.0,0.0,-0.6,-0.08863302870935406,0.0016849040985107422,0.0016849040985107422,0.0026090145111083984,0
1.9402856826782227,0.011577523313462734,0.001519182464107871,-0.46383824944496155,-0.08923821131388149,0.701103367335434,-0.0037168902767544918,0.01018401019287942,-0.08934483391846665,0.0,0.0,-0.6,-0.08923821131388149,0.0014657974243164062,0.0014657974243164062,0.0023059844970703125,0
1.952437162399292,0.011783204972743988,0.0015858316328376532,-0.46459075808525085,-0.08986121790580891,0.701164561058279,-0.003737723824244702,0.008293554083852454,-0.08994987848924522,0.0,0.0,-0.6,-0.08986121790580891,0.001247406005859375,0.001247406005859375,0.0034227371215820312,0
1.9603681564331055,0.011988140642642975,0.0016506832325831056,-0.4653315544128418,-0.09051269708737951,0.7012244956975937,-0.004383043301852415,0.00741602702064733,-0.09059354211856661,0.0,0.0,-0.6,-0.09051269708737951,0.0028786659240722656,0.0028786659240722656,0.004230022430419922,0
1.9704744815826416,0.012194152921438217,0.0017146922182291746,-0.4660719633102417,-0.09114266112933495,0.7012859460693885,-0.005053390343116089,0.007788364373925593,-0.0912276650581669,0.0,0.0,-0.6,-0.09114266112933495,0.0027773380279541016,0.0027773380279541016,0.004160642623901367,0
1.9803426265716553,0.012611144222319126,0.0018366544973105192,-0.46752235293388367,-0.09240749487087933,0.7013482744595259,-0.00506734489110026,0.009846855447461954,-0.09251228147944611,0.0,0.0,-0.6,-0.09240749487087933,0.0014710426330566406,0.0014710426330566406,0.002220630645751953,0
1.990736961364746,0.012823771685361862,0.0018976232968270779,-0.4682347774505615,-0.09306132971871216,0.7014013648603015,-0.00580281834581795,0.009770276748521725,-0.09316590551013991,0.0,0.0,-0.6,-0.09306132971871216,0.0009541511535644531,0.0009541511535644531,0.0018112659454345703,0
2.0000829696655273,0.0130381528288126,0.0019572116434574127,-0.4689382016658783,-0.09370695101683141,0.7014505474686891,-0.005068070944849446,0.010045021313259045,-0.09381316144231587,0.0,0.0,-0.6,-0.09370695101683141,0.0007822513580322266,0.0007822513580322266,0.0012505054473876953,0
2.01029372215271,0.01325529720634222,0.0020142204593867064,-0.4696313440799713,-0.09435154768715494,0.701501777237932,-0.003295245036506712,0.010969435397855753,-0.09446480759725795,0.0,0.0,-0.6,-0.09435154768715494,0.0009052753448486328,0.0009052753448486328,0.001607656478881836,0
2.020219564437866,0.01369487401098013,0.0021184678189456463,-0.4710042476654053,-0.0957173424670344,0.701567419114107,-0.0021228029228389576,0.012662832697469206,-0.0958460341219045,0.0,0.0,-0.6,-0.0957173424670344,0.0007529258728027344,0.0007529258728027344,0.0012841224670410156,0
2.030258893966675,0.013917342759668827,0.0021665424574166536,-0.47168266773223877,-0.09640074686355786,0.7016293779082076,-0.002113743418004628,0.012675496521378048,-0.09652939991580695,0.0,0.0,-0.6,-0.09640074686355786,0.0007734298706054688,0.0007734298706054688,0.0012700557708740234,0
2.0402071475982666,0.014364242553710938,0.002254477934911847,-0.4730060398578644,-0.09775233491803449,0.7017097039355029,0.00014722522413036828,0.012494190929990198,-0.09787925417558702,0.0,0.0,-0.6,-0.09775233491803449,0.0008344650268554688,0.0008344650268554688,0.0013689994812011719,0
2.0501222610473633,0.014587699435651302,0.002293128753080964,-0.4736522436141968,-0.09845275368352034,0.7017749276215212,0.0005491874203659411,0.010941772319310424,-0.09856482640935588,0.0,0.0,-0.6,-0.09845275368352034,0.0007767677307128906,0.0007767677307128906,0.0012462139129638672,0
