time,x,y,z,yaw,throttle,roll_rate,pitch_rate,yaw_rate,x_ref,y_ref,z_ref,yaw_ref,pred_time,nr_time,ctrl_callback_time,metadata
2.384185791015625e-06,0.010311078280210495,-0.014648448675870895,-0.01320816483348608,-0.02302061669915298,0.7155678419564708,0.17257325565412457,0.09046050204620489,-0.0006410595701766394,0.0,0.0,-0.6,0.0,0.0035812854766845703,0.0035812854766845703,0.004681110382080078,Sim
0.010233879089355469,0.010311078280210495,-0.014648448675870895,-0.01320816483348608,-0.02302061669915298,0.7306575074885683,0.11206443624880875,0.06733043545027974,-0.0005252904995662799,0.0,0.0,-0.6,0.0,0.0018124580383300781,0.0018124580383300781,0.0027120113372802734,flat wardi normal
0.019839763641357422,0.01056821271777153,-0.014685303904116154,-0.0131312794983387,-0.023038972226452976,0.7410516398189332,0.07816358584123596,0.05673821253541433,-0.0004572259776156652,0.0,0.0,-0.6,0.0,0.0033769607543945312,0.0033769607543945312,0.004169464111328125,1x Speed
0.030092954635620117,0.01056821271777153,-0.014685303904116154,-0.0131312794983387,-0.023038972226452976,0.7482520507749434,0.052746277772976476,0.0442017097622649,-0.00036496395618248974,0.0,0.0,-0.6,0.0,0.0018184185028076172,0.0018184185028076172,0.002749204635620117,hover
0.03996396064758301,0.010748562403023243,-0.01471731998026371,-0.013088490813970566,-0.02301817715095483,0.753246257861433,0.03522022647122603,0.03587473041499752,-0.0002945256064855834,0.0,0.0,-0.6,0.0,0.003171205520629883,0.003171205520629883,0.0041027069091796875,0
0.050019264221191406,0.010748562403023243,-0.01471731998026371,-0.013088490813970566,-0.02301817715095483,0.7567249970636974,0.024169030808462447,0.028492326372587702,-0.00023392848321739725,0.0,0.0,-0.6,0.0,0.0017681121826171875,0.0017681121826171875,0.0026504993438720703,0
0.059885501861572266,0.011016793549060822,-0.014772173948585987,-0.013042100705206394,-0.022987341235112348,0.7591539950359599,0.015475599238290182,0.02377585091983383,-0.0001894779686152602,0.0,0.0,-0.6,0.0,0.0026009082794189453,0.0026009082794189453,0.0034444332122802734,0
0.07030296325683594,0.011016793549060822,-0.014772173948585987,-0.013042100705206394,-0.022987341235112348,0.7608502757297008,0.010689950528173833,0.019028243499582424,-0.00015063282414693436,0.0,0.0,-0.6,0.0,0.0022344589233398438,0.0022344589233398438,0.0034027099609375,0
0.07990312576293945,0.011189538054168224,-0.014807572588324547,-0.013012781739234924,-0.022984678904932207,0.7620124478637343,0.004127798732419135,0.015864135465872245,-0.00011742190750962574,0.0,0.0,-0.6,0.0,0.0019845962524414062,0.0019845962524414062,0.0026874542236328125,0
0.09057998657226562,0.011189538054168224,-0.014807572588324547,-0.013012781739234924,-0.022984678904932207,0.7628250722047512,0.0028401487548286026,0.012735330957895363,-9.377219686265649e-05,0.0,0.0,-0.6,0.0,0.00247955322265625,0.00247955322265625,0.0036652088165283203,0
0.10028743743896484,0.011441248469054699,-0.014854728244245052,-0.013180422596633434,-0.022968399926821204,0.7628503162065736,-0.0013465708645120592,0.010139544010627746,-6.414189527248699e-05,0.0,0.0,-0.6,0.0,0.003114938735961914,0.003114938735961914,0.00434112548828125,0
0.1102755069732666,0.011441248469054699,-0.014854728244245052,-0.013180422596633434,-0.022968399926821204,0.7628680073167332,-0.0009659261346283314,0.008115868727502664,-5.148559723081435e-05,0.0,0.0,-0.6,0.0,0.0017652511596679688,0.0017652511596679688,0.0025866031646728516,0
0.12009811401367188,0.011603040620684624,-0.01488832850009203,-0.013640070334076881,-0.023012549677388874,0.7623214670018721,0.0004510984066171842,0.007214913119036172,-4.5288755771090415e-05,0.0,0.0,-0.6,0.0,0.0021507740020751953,0.0021507740020751953,0.0029642581939697266,0
0.13064050674438477,0.011683465912938118,-0.014906533062458038,-0.013997807167470455,-0.023014267098380843,0.7616391623725971,-0.00020378682266453143,0.007055514472275752,-4.151022281490552e-05,0.0,0.0,-0.6,0.0,0.0031549930572509766,0.0031549930572509766,0.00427556037902832,0
0.13997387886047363,0.011683912016451359,-0.014368940144777298,-0.014913004823029041,-0.022995886497146394,0.76052931722612,-0.007421767308986796,0.004977028743138002,-9.872507421158959e-06,0.0,0.0,-0.6,0.0,0.0028841495513916016,0.0028841495513916016,0.003758668899536133,0
0.1502997875213623,0.011683912016451359,-0.014368940144777298,-0.014913004823029041,-0.022995886497146394,0.7597515827687449,-0.005223372705241411,0.003901355344024365,-8.980346984374827e-06,0.0,0.0,-0.6,0.0,0.002568483352661133,0.002568483352661133,0.003931283950805664,0
0.15987467765808105,0.011686478741466999,-0.013855034485459328,-0.01618075743317604,-0.02298868374238448,0.7585418740134945,-0.009618563473605048,0.001874930895527478,1.4691936413774254e-05,0.0,0.0,-0.6,0.0,0.003221273422241211,0.003221273422241211,0.00411224365234375,0
0.1701216697692871,0.011686478741466999,-0.013855034485459328,-0.01618075743317604,-0.02298868374238448,0.7576940667779491,-0.006761649067319437,0.00140433444679971,9.964115844497723e-06,0.0,0.0,-0.6,0.0,0.0022072792053222656,0.0022072792053222656,0.003194093704223633,0
0.17989873886108398,0.011691994965076447,-0.013126734644174576,-0.01874580979347229,-0.023029815250255967,0.7560842722398862,-0.012220591902045304,0.0019029529867325091,2.2296240633430724e-05,0.0,0.0,-0.6,0.0,0.0024924278259277344,0.0024924278259277344,0.003283262252807617,0
0.1901252269744873,0.011691994965076447,-0.013126734644174576,-0.01874580979347229,-0.023029815250255967,0.7549556174650992,-0.008600892705293385,0.0013919236126424068,1.554704700070307e-05,0.0,0.0,-0.6,0.0,0.0016088485717773438,0.0016088485717773438,0.0024101734161376953,0
0.19980931282043457,0.01170116662979126,-0.012667866423726082,-0.020900677889585495,-0.023021587165045505,0.7534884537324372,-0.012012428143051939,0.0008715984828134607,2.6659421474739007e-05,0.0,0.0,-0.6,0.0,0.0032672882080078125,0.0032672882080078125,0.004186153411865234,0
0.21097731590270996,0.011705765500664711,-0.01244418602436781,-0.022104542702436447,-0.023012653213127433,0.7521269538533933,-0.012401253032364749,2.487359656227611e-05,3.1309204635742895e-05,0.0,0.0,-0.6,0.0,0.0025522708892822266,0.0025522708892822266,0.0035698413848876953,0
0.21997451782226562,0.011715157888829708,-0.012008883990347385,-0.024757621809840202,-0.023010737343456808,0.7505050083579972,-0.01446459957638328,-0.0005452953190017984,3.803527176507185e-05,0.0,0.0,-0.6,0.0,0.002051830291748047,0.002051830291748047,0.002927541732788086,0
0.23033404350280762,0.011715157888829708,-0.012008883990347385,-0.024757621809840202,-0.023010737343456808,0.7493678053554991,-0.010175147720013324,-0.0005752279710797048,2.7561939607122955e-05,0.0,0.0,-0.6,0.0,0.002759218215942383,0.002759218215942383,0.003966093063354492,0
0.23993134498596191,0.011728478595614433,-0.011586213484406471,-0.027728108689188957,-0.023032236962188313,0.7479243038234196,-0.0164199288933612,0.0012739217430413421,3.3592104417436455e-05,0.0,0.0,-0.6,0.0,0.002266407012939453,0.002266407012939453,0.0031003952026367188,0
0.25025272369384766,0.011728478595614433,-0.011586213484406471,-0.027728108689188957,-0.023032236962188313,0.7469123959484987,-0.011549297712920457,0.0009097119981615257,2.3674793616159403e-05,0.0,0.0,-0.6,0.0,0.002547740936279297,0.002547740936279297,0.003676176071166992,0
0.260204553604126,0.011748573742806911,-0.011169277131557465,-0.03099760413169861,-0.023041541137665798,0.7455670094741809,-0.015879137579673994,-0.00030493885504232735,3.7117631279775745e-05,0.0,0.0,-0.6,0.0,0.0023632049560546875,0.0023632049560546875,0.0033719539642333984,0
0.2702052593231201,0.011748573742806911,-0.011169277131557465,-0.03099760413169861,-0.023041541137665798,0.7446239676144181,-0.0111619764023221,-0.00035089880605254756,2.659036002310677e-05,0.0,0.0,-0.6,0.0,0.0028078556060791016,0.0028078556060791016,0.0040471553802490234,0
0.28044557571411133,0.011776728555560112,-0.010567787103354931,-0.036469604820013046,-0.02306529777401262,0.7430401652289418,-0.014930907853160133,-0.00013019984985140602,3.020005243017668e-05,0.0,0.0,-0.6,0.0,0.0027570724487304688,0.0027570724487304688,0.004018068313598633,0
0.29021787643432617,0.011776728555560112,-0.010567787103354931,-0.036469604820013046,-0.02306529777401262,0.7419297336664816,-0.010503491144828039,-0.00023868623937893613,2.178365335895085e-05,0.0,0.0,-0.6,0.0,0.001491546630859375,0.001491546630859375,0.0023851394653320312,0
0.300140380859375,0.011806141585111618,-0.010000390000641346,-0.04252566397190094,-0.0230917845281516,0.7402697099641841,-0.01554031211218449,-0.0004972756144023137,2.957918034887176e-05,0.0,0.0,-0.6,0.0,0.0023517608642578125,0.0023517608642578125,0.0032596588134765625,0
0.3108365535736084,0.011816330254077911,-0.009816080331802368,-0.044664476066827774,-0.02308624682754575,0.7388208851994259,-0.014565607534115284,-0.0004944248004442817,2.6959085696705358e-05,0.0,0.0,-0.6,0.0,0.0022792816162109375,0.0022792816162109375,0.0033464431762695312,0
0.3200960159301758,0.011827414855360985,-0.009634071961045265,-0.046860553324222565,-0.023093395025527076,0.7375206216403171,-0.01446412640952936,0.0005398069040131307,2.2056476573379654e-05,0.0,0.0,-0.6,0.0,0.0019185543060302734,0.0019185543060302734,0.0026366710662841797,0
0.3301982879638672,0.011827414855360985,-0.009634071961045265,-0.046860553324222565,-0.023093395025527076,0.7366092389842905,-0.010167887642626284,0.00032788444841966264,1.5724844809917908e-05,0.0,0.0,-0.6,0.0,0.0024521350860595703,0.0024521350860595703,0.003663301467895508,0
0.3399059772491455,0.01186219323426485,-0.009095694869756699,-0.05376991257071495,-0.02308267616973338,0.735151937570049,-0.01927174861607202,-8.354423161734943e-05,2.8178115883031327e-05,0.0,0.0,-0.6,0.0,0.003051280975341797,0.003051280975341797,0.003957509994506836,0
0.35021090507507324,0.01186219323426485,-0.009095694869756699,-0.05376991257071495,-0.02308267616973338,0.7341303186686872,-0.01355364751671686,-0.00017952342646170396,2.022070858398298e-05,0.0,0.0,-0.6,0.0,0.0016758441925048828,0.0016758441925048828,0.0025098323822021484,0
0.35994720458984375,0.011889846995472908,-0.008743966929614544,-0.058627545833587646,-0.023077022465509082,0.7328958000369222,-0.013911640044998917,0.001549445803299639,1.2761279755632964e-05,0.0,0.0,-0.6,0.0,0.0034313201904296875,0.0034313201904296875,0.0044209957122802734,0
0.369952917098999,0.011889846995472908,-0.008743966929614544,-0.058627545833587646,-0.023077022465509082,0.732030552993762,-0.00977996249040434,0.0011429818994277436,8.898236530110358e-06,0.0,0.0,-0.6,0.0,0.0022072792053222656,0.0022072792053222656,0.0033948421478271484,0
0.38006019592285156,0.011932075023651123,-0.008242035284638405,-0.06625144183635712,-0.02311442709356425,0.7306778557559594,-0.011734467109670204,0.00042958402679670304,1.0551052695124026e-05,0.0,0.0,-0.6,0.0,0.003031015396118164,0.003031015396118164,0.0038597583770751953,0
0.3907968997955322,0.011932075023651123,-0.008242035284638405,-0.06625144183635712,-0.02311442709356425,0.729729657504636,-0.008249948456327486,0.0002246229605136107,7.710943638931955e-06,0.0,0.0,-0.6,0.0,0.005162239074707031,0.005162239074707031,0.006800174713134766,0
0.4000108242034912,0.011958126910030842,-0.007922419346868992,-0.07153831422328949,-0.023129927128460685,0.7285957015401998,-0.009117172533992905,0.0003655523014389045,6.768298572002168e-06,0.0,0.0,-0.6,0.0,0.0024127960205078125,0.0024127960205078125,0.0032405853271484375,0
0.410353422164917,0.011958126910030842,-0.007922419346868992,-0.07153831422328949,-0.023129927128460685,0.7278010089352861,-0.006405023321135237,0.00019030538804740252,5.003755870130878e-06,0.0,0.0,-0.6,0.0,0.001783132553100586,0.001783132553100586,0.002857208251953125,0
0.41998863220214844,0.012006969191133976,-0.007466533686965704,-0.07975596189498901,-0.023111271119795142,0.7265689146437305,-0.008264511102885643,0.0032064133771417687,-6.387761892364438e-06,0.0,0.0,-0.6,0.0,0.0033559799194335938,0.0033559799194335938,0.0041844844818115234,0
0.4301931858062744,0.012006969191133976,-0.007466533686965704,-0.07975596189498901,-0.023111271119795142,0.7257053605305801,-0.005814120557377388,0.0024582035579573743,-5.097038300286635e-06,0.0,0.0,-0.6,0.0,0.002104043960571289,0.002104043960571289,0.003224611282348633,0
0.43993616104125977,0.012050015851855278,-0.007179078180342913,-0.08539213240146637,-0.023088408685551894,0.7246816176689338,-0.00600811565504818,0.003742134803246701,-1.07648953174458e-05,0.0,0.0,-0.6,0.0,0.003538846969604492,0.003538846969604492,0.004525184631347656,0
0.4501628875732422,0.012050015851855278,-0.007179078180342913,-0.08539213240146637,-0.023088408685551894,0.7239642473256557,-0.004226672023318195,0.002902520976035043,-8.458744893984132e-06,0.0,0.0,-0.6,0.0,0.0023653507232666016,0.0023653507232666016,0.0036575794219970703,0
0.4598503112792969,0.012119467370212078,-0.006774019915610552,-0.0940580666065216,-0.023100155624215277,0.7228467756314008,-0.006477330998352988,0.0041338429258917396,-1.3669394886913146e-05,0.0,0.0,-0.6,0.0,0.002151966094970703,0.002151966094970703,0.0029191970825195312,0
0.4701511859893799,0.012119467370212078,-0.006774019915610552,-0.0940580666065216,-0.023100155624215277,0.7220636489212447,-0.0045584015911537485,0.0032062745603699317,-1.0610164623122908e-05,0.0,0.0,-0.6,0.0,0.00246429443359375,0.00246429443359375,0.003615856170654297,0
0.47983741760253906,0.012169516645371914,-0.006518200505524874,-0.09995332360267639,-0.023058441138071244,0.7211191921011726,-0.005562728002993998,0.004335912957357646,-1.5435026453100554e-05,0.0,0.0,-0.6,0.0,0.0030336380004882812,0.0030336380004882812,0.0038809776306152344,0
0.4903128147125244,0.012169516645371914,-0.006518200505524874,-0.09995332360267639,-0.023058441138071244,0.7204574333087428,-0.003914267798241519,0.0033822593750192573,-1.2008769963314141e-05,0.0,0.0,-0.6,0.0,0.0029942989349365234,0.0029942989349365234,0.004082441329956055,0
0.5002450942993164,0.012256103567779064,-0.006161564961075783,-0.10896751284599304,-0.023057844460266708,0.7194356721479706,-0.002934244259125455,0.005653124664858274,-2.2174824249375857e-05,0.0,0.0,-0.6,0.0,0.0028820037841796875,0.0028820037841796875,0.003914833068847656,0
0.5103147029876709,0.012256103567779064,-0.006161564961075783,-0.10896751284599304,-0.023057844460266708,0.7187196906789814,-0.002071586642504232,0.004422907759989309,-1.72853412762807e-05,0.0,0.0,-0.6,0.0,0.0022344589233398438,0.0022344589233398438,0.0034058094024658203,0
0.5200033187866211,0.01232133712619543,-0.005942030344158411,-0.11507474631071091,-0.023060348366180438,0.7178559528020161,-0.001276648753238769,0.004345505939126849,-1.748031448863127e-05,0.0,0.0,-0.6,0.0,0.0030994415283203125,0.0030994415283203125,0.004216194152832031,0
0.5304508209228516,0.01232133712619543,-0.005942030344158411,-0.11507474631071091,-0.023060348366180438,0.7172508004223309,-0.0009039960494181473,0.00338436700139331,-1.3587172752603725e-05,0.0,0.0,-0.6,0.0,0.0032804012298583984,0.0032804012298583984,0.0047512054443359375,0
0.5402102470397949,0.012127258814871311,-0.005951635539531708,-0.12360308319330215,-0.023070940409483886,0.7163652308171611,0.0007730994387132187,0.0024424518294404516,-1.0096778065344514e-05,0.0,0.0,-0.6,0.0,0.002917051315307617,0.002917051315307617,0.004019260406494141,0
0.5511140823364258,0.012019827961921692,-0.006008901167660952,-0.12635156512260437,-0.023064322628432242,0.7156087989182218,0.002971638567380255,0.001274836203471261,-4.982575289472678e-06,0.0,0.0,-0.6,0.0,0.0027065277099609375,0.0027065277099609375,0.0036072731018066406,0
0.5601537227630615,0.011915860697627068,-0.006066618021577597,-0.12911884486675262,-0.02304924242378486,0.7149401279821052,0.003866452989234359,0.00022484283128365508,-3.828618727316276e-07,0.0,0.0,-0.6,0.0,0.002534151077270508,0.002534151077270508,0.0034422874450683594,0
0.570349931716919,0.011915860697627068,-0.006066618021577597,-0.12911884486675262,-0.02304924242378486,0.7144717306382236,0.002714342399054161,8.861216979298387e-05,2.4631059811956578e-08,0.0,0.0,-0.6,0.0,0.002389192581176758,0.002389192581176758,0.0036993026733398438,0
0.5800576210021973,0.01162807084619999,-0.006237416062504053,-0.1375288963317871,-0.023096626105119318,0.7137309655696658,0.006707507469006008,8.922077461092023e-06,1.4058074741023073e-06,0.0,0.0,-0.6,0.0,0.0032935142517089844,0.0032935142517089844,0.0042493343353271484,0
0.5901713371276855,0.01162807084619999,-0.006237416062504053,-0.1375288963317871,-0.023096626105119318,0.7132120274485085,0.004709710072560768,-0.00010016742961573863,1.4603153713289332e-06,0.0,0.0,-0.6,0.0,0.0022878646850585938,0.0022878646850585938,0.003411531448364258,0
0.6000285148620605,0.01145652774721384,-0.006356588564813137,-0.14322800934314728,-0.023112272972410107,0.7126045611942647,0.00984450996336182,0.0010787929068942909,-2.49628494098722e-06,0.0,0.0,-0.6,0.0,0.002764463424682617,0.002764463424682617,0.0036678314208984375,0
0.6102879047393799,0.01145652774721384,-0.006356588564813137,-0.14322800934314728,-0.023112272972410107,0.7121790670488392,0.006905382574709165,0.000766552187256803,-1.8492496174761535e-06,0.0,0.0,-0.6,0.0,0.00232696533203125,0.00232696533203125,0.0035164356231689453,0
0.6198501586914062,0.011234899051487446,-0.0065442416816949844,-0.15187427401542664,-0.02312960308790613,0.7115279980647863,0.009818771813045078,0.002482922583519014,-8.212452640166043e-06,0.0,0.0,-0.6,0.0,0.002640962600708008,0.002640962600708008,0.003451824188232422,0
0.630638599395752,0.011234899051487446,-0.0065442416816949844,-0.15187427401542664,-0.02312960308790613,0.7110719442622643,0.006885269191443728,0.0018864811522369329,-6.59324412810376e-06,0.0,0.0,-0.6,0.0,0.0029463768005371094,0.0029463768005371094,0.004164218902587891,0
0.6400325298309326,0.011109879240393639,-0.006672474090009928,-0.15768304467201233,-0.02313442384825076,0.7105280403532946,0.010119122158548413,0.003434567630704217,-1.2409128380618991e-05,0.0,0.0,-0.6,0.0,0.001825571060180664,0.001825571060180664,0.002452373504638672,0
0.6502442359924316,0.011109879240393639,-0.006672474090009928,-0.15768304467201233,-0.02313442384825076,0.7101470983354368,0.007090894211212563,0.0026604393011370147,-1.0152365111865955e-05,0.0,0.0,-0.6,0.0,0.00183868408203125,0.00183868408203125,0.0028104782104492188,0
0.6602129936218262,0.010953456163406372,-0.006868455093353987,-0.16647011041641235,-0.023150878131437826,0.7095675927838161,0.007655876493078374,0.0038662045263755307,-1.555073497057717e-05,0.0,0.0,-0.6,0.0,0.0028994083404541016,0.0028994083404541016,0.0037717819213867188,0
0.6699624061584473,0.010953456163406372,-0.006868455093353987,-0.16647011041641235,-0.023150878131437826,0.7091616999340705,0.005363040105449828,0.0030069728932488283,-1.2577209829735574e-05,0.0,0.0,-0.6,0.0,0.0021305084228515625,0.0021305084228515625,0.002931356430053711,0
0.6799862384796143,0.010869883932173252,-0.006999173201620579,-0.17238491773605347,-0.023121735595467117,0.7086679245416668,0.006294121101906153,0.0044224944132814584,-1.9089059772311005e-05,0.0,0.0,-0.6,0.0,0.0031175613403320312,0.0031175613403320312,0.0040683746337890625,0
0.6900112628936768,0.010869883932173252,-0.006999173201620579,-0.17238491773605347,-0.023121735595467117,0.7083221114805403,0.004405011815618637,0.0034650605055855455,-1.5425496600040954e-05,0.0,0.0,-0.6,0.0,0.0014996528625488281,0.0014996528625488281,0.002291440963745117,0
0.6998910903930664,0.010771621018648148,-0.00719374418258667,-0.18126815557479858,-0.023151489277946,0.7078014190981073,0.00533564850610809,0.005266111148777799,-2.346048060552397e-05,0.0,0.0,-0.6,0.0,0.0031592845916748047,0.0031592845916748047,0.003916501998901367,0
0.710057258605957,0.010771621018648148,-0.00719374418258667,-0.18126815557479858,-0.023151489277946,0.7074367456544703,0.003731378173839574,0.004138989976267852,-1.8906731205085855e-05,0.0,0.0,-0.6,0.0,0.0018553733825683594,0.0018553733825683594,0.002691984176635742,0
0.7199840545654297,0.010723412036895752,-0.0073224203661084175,-0.1871749758720398,-0.023149561948906657,0.7069916493730272,0.006102687565090267,0.003826168589027426,-1.4971182580125275e-05,0.0,0.0,-0.6,0.0,0.0017559528350830078,0.0017559528350830078,0.002389192581176758,0
0.7309231758117676,0.010723412036895752,-0.0073224203661084175,-0.1871749758720398,-0.023149561948906657,0.706679943869883,0.004271331584253448,0.0029915617909741098,-1.2203426649942785e-05,0.0,0.0,-0.6,0.0,0.003515958786010742,0.003515958786010742,0.005060911178588867,0
0.7398977279663086,0.01067446544766426,-0.007519788574427366,-0.1960020810365677,-0.023127975393511524,0.7062122305569637,0.006765393506940565,0.00576521919426815,-2.293447399778782e-05,0.0,0.0,-0.6,0.0,0.002483367919921875,0.002483367919921875,0.0033309459686279297,0
0.7501475811004639,0.01067446544766426,-0.007519788574427366,-0.1960020810365677,-0.023127975393511524,0.7058846827132363,0.004731969261386169,0.0045398497499680454,-1.8770870009257424e-05,0.0,0.0,-0.6,0.0,0.0016055107116699219,0.0016055107116699219,0.0024678707122802734,0
0.7598304748535156,0.010657129809260368,-0.007647627964615822,-0.201870396733284,-0.02309281855579527,0.7055013471070645,0.004423611202345412,0.0062881344767435395,-2.703842514990987e-05,0.0,0.0,-0.6,0.0,0.002759218215942383,0.002759218215942383,0.003537893295288086,0
0.7705721855163574,0.010654466226696968,-0.007711164187639952,-0.20479802787303925,-0.023102047022165118,0.7051541940182502,0.0046124096454631,0.006269988642008069,-2.680025674384517e-05,0.0,0.0,-0.6,0.0,0.002018451690673828,0.002018451690673828,0.0030472278594970703,0
0.7803845405578613,0.010662756860256195,-0.007840849459171295,-0.21063637733459473,-0.02308229058127742,0.7047705566498572,0.007106660220485924,0.00817799397928937,-3.3857475465910985e-05,0.0,0.0,-0.6,0.0,0.003174304962158203,0.003174304962158203,0.004239082336425781,0
0.7905497550964355,0.010662756860256195,-0.007840849459171295,-0.21063637733459473,-0.02308229058127742,0.7045019218784799,0.004964061210344822,0.006479454336445268,-2.774646078775039e-05,0.0,0.0,-0.6,0.0,0.003044605255126953,0.003044605255126953,0.0043337345123291016,0
0.7999460697174072,0.010683570988476276,-0.007969844155013561,-0.2164766639471054,-0.023071254778643246,0.7041692095449484,0.0021933846066215642,0.006668064274778472,-3.079470512693198e-05,0.0,0.0,-0.6,0.0,0.0028221607208251953,0.0028221607208251953,0.003775358200073242,0
0.8106472492218018,0.010683570988476276,-0.007969844155013561,-0.2164766639471054,-0.023071254778643246,0.7039362447559825,0.0015229929776060577,0.00528656930363059,-2.4685018254307007e-05,0.0,0.0,-0.6,0.0,0.0027222633361816406,0.0027222633361816406,0.003963470458984375,0
0.8200609683990479,0.010744881816208363,-0.00815829448401928,-0.225181445479393,-0.023031165266868447,0.7035804735759855,0.0045938645729149625,0.009912313392357125,-4.366392695008809e-05,0.0,0.0,-0.6,0.0,0.002691984176635742,0.002691984176635742,0.0039293766021728516,0
0.8303663730621338,0.010744881816208363,-0.00815829448401928,-0.225181445479393,-0.023031165266868447,0.7033313655602983,0.003198321715208789,0.007875167344504585,-3.5332002434250474e-05,0.0,0.0,-0.6,0.0,0.0026617050170898438,0.0026617050170898438,0.003969430923461914,0
0.8399765491485596,0.010807470418512821,-0.008284397423267365,-0.23093901574611664,-0.02304751375353462,0.7030381193388386,0.004844668316886888,0.009568760687140763,-4.174349461352691e-05,0.0,0.0,-0.6,0.0,0.002982616424560547,0.002982616424560547,0.004117488861083984,0
0.8503546714782715,0.010807470418512821,-0.008284397423267365,-0.23093901574611664,-0.02304751375353462,0.7028328086456868,0.0033739731003299906,0.007605852408316543,-3.3835002363306135e-05,0.0,0.0,-0.6,0.0,0.0025527477264404297,0.0025527477264404297,0.0038254261016845703,0
0.8600540161132812,0.010933185927569866,-0.008474563248455524,-0.23953358829021454,-0.02304440877804016,0.7025105376287918,0.004065880287394229,0.013378708917138136,-6.028728936520266e-05,0.0,0.0,-0.6,0.0,0.002817869186401367,0.002817869186401367,0.0038285255432128906,0
0.8702325820922852,0.010933185927569866,-0.008474563248455524,-0.23953358829021454,-0.02304440877804016,0.7022849088692333,0.0028198700165353806,0.010653407761584677,-4.863355036115046e-05,0.0,0.0,-0.6,0.0,0.0023889541625976562,0.0023889541625976562,0.0037724971771240234,0
0.8801913261413574,0.011040383949875832,-0.008597166277468204,-0.2452578991651535,-0.023045881781814784,0.7020148153170934,0.0022197833036257443,0.012429159489423166,-5.674064641162202e-05,0.0,0.0,-0.6,0.0,0.0027413368225097656,0.0027413368225097656,0.0036668777465820312,0
0.8906152248382568,0.011040383949875832,-0.008597166277468204,-0.2452578991651535,-0.023045881781814784,0.701825731664964,0.0015278035414386477,0.009902182415474402,-4.553398930833823e-05,0.0,0.0,-0.6,0.0,0.0032188892364501953,0.0032188892364501953,0.0044536590576171875,0
0.8999710083007812,0.01121472381055355,-0.008786667138338089,-0.25375375151634216,-0.023023780448371854,0.7015378763525613,0.0063730421267751206,0.011113880155724258,-4.714248877716765e-05,0.0,0.0,-0.6,0.0,0.0028581619262695312,0.0028581619262695312,0.003882884979248047,0
0.9104206562042236,0.01121472381055355,-0.008786667138338089,-0.25375375151634216,-0.023023780448371854,0.7013363490764246,0.0044414874995769345,0.008835565197524728,-3.830410358110873e-05,0.0,0.0,-0.6,0.0,0.002029895782470703,0.002029895782470703,0.003290891647338867,0
0.9201581478118896,0.011342969723045826,-0.00891784206032753,-0.2593500018119812,-0.023044650473236335,0.7011090965713747,0.00646726403504995,0.008926893310107374,-3.7482307294121726e-05,0.0,0.0,-0.6,0.0,0.0027608871459960938,0.0027608871459960938,0.0037686824798583984,0
0.9304113388061523,0.011342969723045826,-0.00891784206032753,-0.2593500018119812,-0.023044650473236335,0.7009500081085114,0.004511366160356391,0.0070919454059295865,-3.0496499403337803e-05,0.0,0.0,-0.6,0.0,0.003545999526977539,0.003545999526977539,0.005213499069213867,0
0.9399335384368896,0.011361666955053806,-0.008943554945290089,-0.2676825225353241,-0.02305145862696799,0.7007123986093485,0.006801228308100434,0.0060452826364837025,-2.4381461515672737e-05,0.0,0.0,-0.6,0.0,0.003092527389526367,0.003092527389526367,0.004077911376953125,0
0.9504449367523193,0.011361666955053806,-0.008943554945290089,-0.2676825225353241,-0.02305145862696799,0.7005460476898571,0.0047522179869498036,0.004781791769369749,-1.9835590946672627e-05,0.0,0.0,-0.6,0.0,0.0025529861450195312,0.0025529861450195312,0.003993034362792969,0
0.9599909782409668,0.011324528604745865,-0.0089173698797822,-0.27318087220191956,-0.023073310168517484,0.7003456286899771,0.00707083323046445,0.003083165212652933,-1.1591339437297461e-05,0.0,0.0,-0.6,0.0,0.003118753433227539,0.003118753433227539,0.004021644592285156,0
0.9704751968383789,0.011324528604745865,-0.0089173698797822,-0.27318087220191956,-0.023073310168517484,0.7002053143506782,0.004947151854677314,0.0024155919528328785,-9.436106637104375e-06,0.0,0.0,-0.6,0.0,0.00225830078125,0.00225830078125,0.0035729408264160156,0
0.9799818992614746,0.011280154809355736,-0.008891493082046509,-0.2813105285167694,-0.02307731848497881,0.700003043256085,-0.0002536609245420199,-0.001390632773368287,6.36635394147235e-06,0.0,0.0,-0.6,0.0,0.0027914047241210938,0.0027914047241210938,0.0038204193115234375,0
0.990307092666626,0.011280154809355736,-0.008891493082046509,-0.2813105285167694,-0.02307731848497881,0.6998614180505537,-0.00017364770685695738,-0.0011491928716635246,5.267594529360355e-06,0.0,0.0,-0.6,0.0,0.0026493072509765625,0.0026493072509765625,0.003912925720214844,0
1.0002484321594238,0.01126083917915821,-0.008877823129296303,-0.28664106130599976,-0.02308129045140991,0.6997060907747208,0.0013565920646957808,-0.001555040375161184,7.281244946608971e-06,0.0,0.0,-0.6,0.0,0.002822399139404297,0.002822399139404297,0.00368499755859375,0
1.0104763507843018,0.01126083917915821,-0.008877823129296303,-0.28664106130599976,-0.02308129045140991,0.6995973384672244,0.0009544390750230606,-0.0012757281536053813,5.956041295118072e-06,0.0,0.0,-0.6,0.0,0.002725839614868164,0.002725839614868164,0.0039441585540771484,0
1.0203735828399658,0.01124634314328432,-0.008866972289979458,-0.294526070356369,-0.023061568774989823,0.6994200832608501,-0.0014608121679973195,-0.0032734676570186833,1.4103707618519917e-05,0.0,0.0,-0.6,0.0,0.003343820571899414,0.003343820571899414,0.00460362434387207,0
1.030813455581665,0.011245052330195904,-0.008863940834999084,-0.2971211373806,-0.023091185216104336,0.6992719320811877,-0.002593904564974378,-0.00261256763840795,1.1050790907686758e-05,0.0,0.0,-0.6,0.0,0.002992391586303711,0.002992391586303711,0.003981113433837891,0
1.040234088897705,0.011247437447309494,-0.008861150592565536,-0.2996986210346222,-0.023109850168017962,0.6991350674037957,-0.0020856788986545693,-0.0007934019690880394,3.268017043369399e-06,0.0,0.0,-0.6,0.0,0.0028290748596191406,0.0028290748596191406,0.003922700881958008,0
1.050675868988037,0.011254414916038513,-0.008859287016093731,-0.30226001143455505,-0.023102949073735717,0.6990082952529126,-0.0016754467428577724,0.0005453503810247727,-2.2694046042366233e-06,0.0,0.0,-0.6,0.0,0.002980947494506836,0.002980947494506836,0.0041429996490478516,0
1.0599794387817383,0.011265375651419163,-0.008858240209519863,-0.3048039376735687,-0.023089571725209916,0.6988952911903223,-0.001926330027729522,0.0013354621351090864,-5.399393313936562e-06,0.0,0.0,-0.6,0.0,0.002943277359008789,0.002943277359008789,0.0038933753967285156,0
1.0703439712524414,0.011265375651419163,-0.008858240209519863,-0.3048039376735687,-0.023089571725209916,0.6988161823293918,-0.0013516849920496832,0.0010529568882853757,-4.247712883725239e-06,0.0,0.0,-0.6,0.0,0.0021016597747802734,0.0021016597747802734,0.0033507347106933594,0
1.0803303718566895,0.01132110133767128,-0.008857290260493755,-0.3123161792755127,-0.023083041403463934,0.6987004072059887,-0.002770917489819406,0.004172576230660724,-1.6471133027452262e-05,0.0,0.0,-0.6,0.0,0.0029969215393066406,0.0029969215393066406,0.004130363464355469,0
1.0901639461517334,0.01132110133767128,-0.008857290260493755,-0.3123161792755127,-0.023083041403463934,0.6986193668504461,-0.0019497279431402621,0.0033247074162185216,-1.3060730150279534e-05,0.0,0.0,-0.6,0.0,0.002115488052368164,0.002115488052368164,0.003103971481323242,0
1.0999259948730469,0.011405544355511665,-0.008858490735292435,-0.31964290142059326,-0.02304918818732755,0.6985050748096076,-0.003294071772750112,0.00352411996919531,-1.3673632782077709e-05,0.0,0.0,-0.6,0.0,0.003036022186279297,0.003036022186279297,0.003911733627319336,0
1.110499620437622,0.011405544355511665,-0.008858490735292435,-0.31964290142059326,-0.02304918818732755,0.6984250710712759,-0.0023145935563519213,0.002807014724594769,-1.0805543075183205e-05,0.0,0.0,-0.6,0.0,0.0028967857360839844,0.0028967857360839844,0.004246950149536133,0
1.1200134754180908,0.011474231258034706,-0.008862044662237167,-0.32443875074386597,-0.023057469993646235,0.6983297275267395,-0.0021788560881658182,0.0022538715642785004,-8.766613985350235e-06,0.0,0.0,-0.6,0.0,0.0029151439666748047,0.0029151439666748047,0.00391840934753418,0
1.130446195602417,0.011474231258034706,-0.008862044662237167,-0.32443875074386597,-0.023057469993646235,0.6982629867344619,-0.001530619017558908,0.0017911163390288995,-6.912838049770736e-06,0.0,0.0,-0.6,0.0,0.002962827682495117,0.002962827682495117,0.004213571548461914,0
1.1407701969146729,0.011594202369451523,-0.008867684751749039,-0.33149170875549316,-0.02305618273866025,0.6981746672862983,-0.002452549254241959,0.0037497999795839043,-1.4471070774360704e-05,0.0,0.0,-0.6,0.0,0.0036487579345703125,0.0036487579345703125,0.005357503890991211,0
1.1502585411071777,0.011594202369451523,-0.008867684751749039,-0.33149170875549316,-0.02305618273866025,0.6981128490914146,-0.0017257159042521858,0.0029898884224608883,-1.1445407718031901e-05,0.0,0.0,-0.6,0.0,0.0017669200897216797,0.0017669200897216797,0.002766847610473633,0
1.1608667373657227,0.011690914630889893,-0.008878585882484913,-0.3360610008239746,-0.023072475974791562,0.6980400909743566,0.0001144206177582834,0.006018638088064861,-2.2343500459401008e-05,0.0,0.0,-0.6,0.0,0.0019664764404296875,0.0019664764404296875,0.0028715133666992188,0
1.170403003692627,0.011690914630889893,-0.008878585882484913,-0.3360610008239746,-0.023072475974791562,0.6979891748151968,6.655036268636891e-05,0.004801914714601068,-1.783461173484291e-05,0.0,0.0,-0.6,0.0,0.0022935867309570312,0.0022935867309570312,0.0034580230712890625,0
1.1799123287200928,0.011862406507134438,-0.008901230059564114,-0.3427829146385193,-0.023105263709261782,0.6979150208440297,-0.0008369163732720596,0.00979833871754283,-3.6470624579267796e-05,0.0,0.0,-0.6,0.0,0.002140045166015625,0.002140045166015625,0.0028657913208007812,0
1.1901657581329346,0.011862406507134438,-0.008901230059564114,-0.3427829146385193,-0.023105263709261782,0.6978631409077457,-0.000608348454748999,0.007827922075060272,-2.9075002151349718e-05,0.0,0.0,-0.6,0.0,0.0015587806701660156,0.0015587806701660156,0.0024335384368896484,0
1.1998939514160156,0.012000985443592072,-0.00891862716525793,-0.34717604517936707,-0.023124642321630022,0.6977972864929447,-0.00035348037005656583,0.009967235954964092,-3.6995683126594064e-05,0.0,0.0,-0.6,0.0,0.002773284912109375,0.002773284912109375,0.003683805465698242,0
1.210507869720459,0.012000985443592072,-0.00891862716525793,-0.34717604517936707,-0.023124642321630022,0.6977512183995093,-0.00027026033693908935,0.007963000538091639,-2.9532051577322333e-05,0.0,0.0,-0.6,0.0,0.0027098655700683594,0.0027098655700683594,0.003936290740966797,0
1.2198519706726074,0.012232590466737747,-0.008952167816460133,-0.3536369502544403,-0.02312734741911837,0.6977078033653022,0.0018637043227647601,0.011160765960008928,-4.1360414080358906e-05,0.0,0.0,-0.6,0.0,0.003191232681274414,0.003191232681274414,0.003949880599975586,0
1.230215072631836,0.012232590466737747,-0.008952167816460133,-0.3536369502544403,-0.02312734741911837,0.697677449928757,0.00127928739601058,0.008916312863139625,-3.319993712786936e-05,0.0,0.0,-0.6,0.0,0.002254486083984375,0.002254486083984375,0.003625154495239258,0
1.2401225566864014,0.012401212938129902,-0.008983144536614418,-0.35785648226737976,-0.023135740653241445,0.697654660641921,0.00356681985221908,0.008488691571242444,-3.1822391467071935e-05,0.0,0.0,-0.6,0.0,0.003453493118286133,0.003453493118286133,0.0044248104095458984,0
1.2501332759857178,0.012401212938129902,-0.008983144536614418,-0.35785648226737976,-0.023135740653241445,0.6976387371407708,0.0024776402937528147,0.006778079095887708,-2.563334376141366e-05,0.0,0.0,-0.6,0.0,0.0023488998413085938,0.0023488998413085938,0.0036880970001220703,0
1.2598609924316406,0.012675469741225243,-0.009034955874085426,-0.3640366792678833,-0.023152901842861402,0.6976296537924673,0.0003541827567117143,0.010308582981485145,-3.988880232135888e-05,0.0,0.0,-0.6,0.0,0.002522706985473633,0.002522706985473633,0.0031957626342773438,0
1.2702007293701172,0.012675469741225243,-0.009034955874085426,-0.3640366792678833,-0.023152901842861402,0.6976233323347071,0.00022414017504643902,0.00824379013390183,-3.1920666148453516e-05,0.0,0.0,-0.6,0.0,0.001565694808959961,0.001565694808959961,0.0024051666259765625,0
1.2800343036651611,0.012870600447058678,-0.009069547988474369,-0.3680546283721924,-0.02313968094429054,0.6976236542234506,0.000619014167477922,0.008982493519853396,-3.498616833722911e-05,0.0,0.0,-0.6,0.0,0.003442049026489258,0.003442049026489258,0.004487514495849609,0
1.2903406620025635,0.012870600447058678,-0.009069547988474369,-0.3680546283721924,-0.02313968094429054,0.6976239120764556,0.00041256427665463424,0.007184076918088805,-2.800979398221827e-05,0.0,0.0,-0.6,0.0,0.002500295639038086,0.002500295639038086,0.003793001174926758,0
1.2999491691589355,0.013183224014937878,-0.009125757962465286,-0.3739684224128723,-0.023122268263748018,0.6976229883781828,-0.0013927217301159776,0.009054740687168415,-3.472370098688206e-05,0.0,0.0,-0.6,0.0,0.003094196319580078,0.003094196319580078,0.0038847923278808594,0
1.3103253841400146,0.013183224014937878,-0.009125757962465286,-0.3739684224128723,-0.023122268263748018,0.6976223753757761,-0.0009959069660303054,0.007246281868961057,-2.7734175300947006e-05,0.0,0.0,-0.6,0.0,0.0024406909942626953,0.0024406909942626953,0.0037119388580322266,0
1.3200807571411133,0.013400264084339142,-0.009160148911178112,-0.37781980633735657,-0.02310448320834346,0.6976440738706853,-0.0014599300349056553,0.0074992564465421645,-2.8175731656302866e-05,0.0,0.0,-0.6,0.0,0.0027871131896972656,0.0027871131896972656,0.0037631988525390625,0
1.330488681793213,0.013400264084339142,-0.009160148911178112,-0.37781980633735657,-0.02310448320834346,0.6976592906280378,-0.0010393805357354431,0.0060066481285713826,-2.2538878031235348e-05,0.0,0.0,-0.6,0.0,0.0027310848236083984,0.0027310848236083984,0.003966093063354492,0
1.3400077819824219,0.013610843569040298,-0.009143409319221973,-0.3836887776851654,-0.023128569233470068,0.6976833234959605,-0.00477258397287855,0.005995512479376864,-2.0131875371180447e-05,0.0,0.0,-0.6,0.0,0.003345012664794922,0.003345012664794922,0.0044252872467041016,0
1.3505220413208008,0.013610843569040298,-0.009143409319221973,-0.3836887776851654,-0.023128569233470068,0.6977001694960938,-0.003354767638083855,0.004812043871329076,-1.619162021172232e-05,0.0,0.0,-0.6,0.0,0.002014636993408203,0.002014636993408203,0.0031707286834716797,0
1.3602757453918457,0.013721134513616562,-0.009112980216741562,-0.3875701427459717,-0.023131277612892857,0.697726335926995,-0.001334685166912322,0.0038680654777106293,-1.3330971970166478e-05,0.0,0.0,-0.6,0.0,0.0031304359436035156,0.0031304359436035156,0.004263162612915039,0
1.3707141876220703,0.013843105174601078,-0.009087951853871346,-0.391391396522522,-0.023174310739469302,0.6977457336329329,-0.0028303210942459203,0.00606854347490792,-1.992889544913297e-05,0.0,0.0,-0.6,0.0,0.0019326210021972656,0.0019326210021972656,0.0029206275939941406,0
1.3800866603851318,0.01391060370951891,-0.009075364097952843,-0.3932695686817169,-0.023193640084872957,0.6977591541279744,-0.003219958509088095,0.005989189680444155,-1.904132307107373e-05,0.0,0.0,-0.6,0.0,0.0027332305908203125,0.0027332305908203125,0.0035109519958496094,0
1.390439510345459,0.01391060370951891,-0.009075364097952843,-0.3932695686817169,-0.023193640084872957,0.6977685717459374,-0.002267994797899213,0.004801290093170778,-1.5384609706141817e-05,0.0,0.0,-0.6,0.0,0.0022552013397216797,0.0022552013397216797,0.0036499500274658203,0
1.40415358543396,0.01405639760196209,-0.00904829241335392,-0.3969607949256897,-0.023207962248834327,0.6977787608042664,-0.004531283835559685,0.0059734448805404605,-1.7104960030893504e-05,0.0,0.0,-0.6,0.0,0.005859851837158203,0.005859851837158203,0.007863759994506836,0
1.4134178161621094,0.01405639760196209,-0.00904829241335392,-0.3969607949256897,-0.023207962248834327,0.6977859170049109,-0.0031859421111030918,0.004791082820652309,-1.3943720010507694e-05,0.0,0.0,-0.6,0.0,0.005442142486572266,0.005442142486572266,0.007503032684326172,0
1.423560619354248,0.01421322487294674,-0.009022783488035202,-0.40056633949279785,-0.023188330327994607,0.6977964059616644,-0.0025553494035758283,0.004580828846608935,-1.3407919537320374e-05,0.0,0.0,-0.6,0.0,0.008736610412597656,0.008736610412597656,0.011121273040771484,0
1.4378399848937988,0.014379841275513172,-0.009001010097563267,-0.40408414602279663,-0.023177078840816857,0.6978188738929171,-0.0018388428297436605,0.00533846499899988,-1.649769065662828e-05,0.0,0.0,-0.6,0.0,0.008027791976928711,0.008027791976928711,0.01111912727355957,0
1.4490845203399658,0.014379841275513172,-0.009001010097563267,-0.40408414602279663,-0.023177078840816857,0.6978346222648346,-0.0012996772067667538,0.004279648664021137,-1.334774086519681e-05,0.0,0.0,-0.6,0.0,0.003473997116088867,0.003473997116088867,0.0048444271087646484,0
1.4551677703857422,0.014653384685516357,-0.008966510184109211,-0.40920785069465637,-0.02315091066924693,0.6978636105148801,-0.005492438921073073,0.008076344306374187,-2.13964069039193e-05,0.0,0.0,-0.6,0.0,0.0034089088439941406,0.0034089088439941406,0.0045583248138427734,0
1.4606049060821533,0.014653384685516357,-0.008966510184109211,-0.40920785069465637,-0.02315091066924693,0.6978839355291708,-0.003863460235787062,0.006479531944165175,-1.754325448233659e-05,0.0,0.0,-0.6,0.0,0.002937793731689453,0.002937793731689453,0.00412440299987793,0
1.470768690109253,0.014751380309462547,-0.008954856544733047,-0.41087397933006287,-0.02316591139633486,0.6979032627264584,-0.003438579538243728,0.006764374676822427,-1.8994834997729886e-05,0.0,0.0,-0.6,0.0,0.0034589767456054688,0.0034589767456054688,0.0049970149993896484,0
1.483590841293335,0.014956863597035408,-0.00893454160541296,-0.41414737701416016,-0.023174041951530437,0.6979231436329487,-0.001284565726551699,0.008182790702844977,-2.6951556967081176e-05,0.0,0.0,-0.6,0.0,0.0047607421875,0.0047607421875,0.006800174713134766,0
1.4910995960235596,0.014956863597035408,-0.00893454160541296,-0.41414737701416016,-0.023174041951530437,0.6979370938736326,-0.0009182688128393463,0.00655308201171913,-2.1660003408025377e-05,0.0,0.0,-0.6,0.0,0.0021026134490966797,0.0021026134490966797,0.003197193145751953,0
1.501143455505371,0.0152851277962327,-0.008909165859222412,-0.4189141094684601,-0.02318663112330514,0.6979581887694426,-0.0036791774015416914,0.007675793369245262,-2.212772257615871e-05,0.0,0.0,-0.6,0.0,0.003084897994995117,0.003084897994995117,0.004308223724365234,0
1.5105137825012207,0.0152851277962327,-0.008909165859222412,-0.4189141094684601,-0.02318663112330514,0.6979729875452139,-0.0025933424798953667,0.0061534380070374164,-1.8040439742010915e-05,0.0,0.0,-0.6,0.0,0.0022492408752441406,0.0022492408752441406,0.0036745071411132812,0
1.520359754562378,0.015509257093071938,-0.008891666308045387,-0.42206043004989624,-0.02319997686010714,0.6980165439440043,-0.002407875509262052,0.00558633194083007,-1.608074674357079e-05,0.0,0.0,-0.6,0.0,0.0026264190673828125,0.0026264190673828125,0.0035228729248046875,0
1.530644178390503,0.015509257093071938,-0.008891666308045387,-0.42206043004989624,-0.02319997686010714,0.6980470559137081,-0.0016985914393986875,0.004484514302335201,-1.3150496154345049e-05,0.0,0.0,-0.6,0.0,0.0026335716247558594,0.0026335716247558594,0.004123210906982422,0
1.5400712490081787,0.015858691185712814,-0.008865784853696823,-0.4266165792942047,-0.023196976389446945,0.698092666912216,-0.003750285906561828,0.008426461572424392,-2.3463471118892906e-05,0.0,0.0,-0.6,0.0,0.003040313720703125,0.003040313720703125,0.0041620731353759766,0
1.5503337383270264,0.015858691185712814,-0.008865784853696823,-0.4266165792942047,-0.023196976389446945,0.6981246301547015,-0.0026447872119172004,0.006759811734028024,-1.9169544450497614e-05,0.0,0.0,-0.6,0.0,0.00231170654296875,0.00231170654296875,0.003545999526977539,0
1.5611772537231445,0.016103459522128105,-0.008848344907164574,-0.42955708503723145,-0.02315860901748206,0.6981689453027236,-0.0018593527442283255,0.00595205255260578,-1.7799394674986513e-05,0.0,0.0,-0.6,0.0,0.002621173858642578,0.002621173858642578,0.003971576690673828,0
1.5702316761016846,0.016103459522128105,-0.008848344907164574,-0.42955708503723145,-0.02315860901748206,0.6981999904652452,-0.0013154846704055035,0.004776203414108745,-1.4496393357134845e-05,0.0,0.0,-0.6,0.0,0.002107858657836914,0.002107858657836914,0.0032956600189208984,0
1.581190586090088,0.016482429578900337,-0.008830860257148743,-0.43381279706954956,-0.02314858352125295,0.6982614837536074,0.0001604372552474535,0.007724301458509076,-2.7542532441867104e-05,0.0,0.0,-0.6,0.0,0.0027077198028564453,0.0027077198028564453,0.003941774368286133,0
1.5907645225524902,0.016482429578900337,-0.008830860257148743,-0.43381279706954956,-0.02314858352125295,0.6983045604703251,9.405106834872456e-05,0.006193221226980607,-2.203135073582251e-05,0.0,0.0,-0.6,0.0,0.002413511276245117,0.002413511276245117,0.003893613815307617,0
1.6003060340881348,0.0167404655367136,-0.008822600357234478,-0.4365496337413788,-0.02317753412400566,0.6983572565497191,-0.000478610938600236,0.005676845238320196,-1.939787772903631e-05,0.0,0.0,-0.6,0.0,0.002963542938232422,0.002963542938232422,0.0039403438568115234,0
1.6104400157928467,0.0167404655367136,-0.008822600357234478,-0.4365496337413788,-0.02317753412400566,0.6983941670130919,-0.00034846228698751525,0.004555228551807132,-1.561131791510523e-05,0.0,0.0,-0.6,0.0,0.0026445388793945312,0.0026445388793945312,0.0044040679931640625,0
1.6206510066986084,0.017135096713900566,-0.008808200247585773,-0.4405088722705841,-0.02319636102124414,0.6984644025808712,-0.002052238950706156,0.00687187261471724,-2.0824937564678396e-05,0.0,0.0,-0.6,0.0,0.002718210220336914,0.002718210220336914,0.0038619041442871094,0
1.630586862564087,0.017135096713900566,-0.008808200247585773,-0.4405088722705841,-0.02319636102124414,0.6985135952683663,-0.001452687098453393,0.0055191127206313546,-1.7010519048235793e-05,0.0,0.0,-0.6,0.0,0.002991914749145508,0.002991914749145508,0.004705905914306641,0
1.6412067413330078,0.017407873645424843,-0.008802094496786594,-0.44305601716041565,-0.023211863823398016,0.6985768909618271,0.000789004612815609,0.007515615300456234,-2.865373836145517e-05,0.0,0.0,-0.6,0.0,0.0025959014892578125,0.0025959014892578125,0.003551483154296875,0
1.650449514389038,0.017407873645424843,-0.008802094496786594,-0.44305601716041565,-0.023211863823398016,0.6986212293697578,0.0005343943317033553,0.0060258556566779265,-2.281547566993613e-05,0.0,0.0,-0.6,0.0,0.0024275779724121094,0.0024275779724121094,0.003691434860229492,0
1.661318063735962,0.017832497134804726,-0.008806053549051285,-0.44674333930015564,-0.023206531390855736,0.6986996423824874,0.0027651642441846,0.008615169363144274,-3.7501464941526e-05,0.0,0.0,-0.6,0.0,0.0022835731506347656,0.0022835731506347656,0.0031731128692626953,0
1.6704678535461426,0.017832497134804726,-0.008806053549051285,-0.44674333930015564,-0.023206531390855736,0.6987545671789928,0.0019147580880886853,0.0069046277917828485,-2.9567030206564863e-05,0.0,0.0,-0.6,0.0,0.002872467041015625,0.002872467041015625,0.0041446685791015625,0
1.6806299686431885,0.017975259572267532,-0.008808737620711327,-0.44793692231178284,-0.023194156743540324,0.698809468543091,0.0005040632550184462,0.006691513234637773,-2.5916970539288077e-05,0.0,0.0,-0.6,0.0,0.002690553665161133,0.002690553665161133,0.0038619041442871094,0
1.690154790878296,0.018120190128684044,-0.008811727166175842,-0.44911259412765503,-0.023175978543466223,0.6988639263375355,0.0010288018484896516,0.0065837983481125935,-2.6575717440991e-05,0.0,0.0,-0.6,0.0,0.0021042823791503906,0.0021042823791503906,0.0031554698944091797,0
1.7003390789031982,0.018413688987493515,-0.008821775205433369,-0.4514102339744568,-0.023139726651494722,0.6989341654768276,0.0029719079054166646,0.007476795686462331,-3.478855403498596e-05,0.0,0.0,-0.6,0.0,0.002235889434814453,0.002235889434814453,0.0036056041717529297,0
1.710097074508667,0.018561644479632378,-0.00882958434522152,-0.45253250002861023,-0.02313551845189367,0.6990027238338152,0.0033022299809542916,0.005877384643205381,-2.9878197699643068e-05,0.0,0.0,-0.6,0.0,0.002130270004272461,0.002130270004272461,0.0030624866485595703,0
1.720503568649292,0.01870916783809662,-0.00883856974542141,-0.45363670587539673,-0.023142018811265073,0.6990706549501797,0.0026882989934521916,0.004855765934443627,-2.491268939669641e-05,0.0,0.0,-0.6,0.0,0.0020868778228759766,0.0020868778228759766,0.0033714771270751953,0
1.7303321361541748,0.01885623298585415,-0.008848044089972973,-0.4547227919101715,-0.02313471681871011,0.6991372499017937,0.0020036979945110256,0.0037740944085211067,-1.9292836402801064e-05,0.0,0.0,-0.6,0.0,0.0034208297729492188,0.0034208297729492188,0.004648447036743164,0
1.7402939796447754,0.019112978130578995,-0.008653978817164898,-0.4570111036300659,-0.0231084805175655,0.6992352389657174,-0.0010825875051402088,0.0021694123307099914,-5.536101208462358e-06,0.0,0.0,-0.6,0.0,0.0021924972534179688,0.0021924972534179688,0.003425121307373047,0
1.7504987716674805,0.019222484901547432,-0.008454895578324795,-0.45823609828948975,-0.0231005177708415,0.6993159264394926,-0.0019319350627519743,0.002412513063984397,-4.217577815684436e-06,0.0,0.0,-0.6,0.0,0.0028629302978515625,0.0028629302978515625,0.0040209293365478516,0
1.7602829933166504,0.019334154203534126,-0.008261013776063919,-0.45943939685821533,-0.023114357427100194,0.6993851319485105,-0.004182630144418934,0.0029321133660053255,-1.5877448286510224e-07,0.0,0.0,-0.6,0.0,0.0019259452819824219,0.0019259452819824219,0.0028934478759765625,0
1.770561933517456,0.01944723352789879,-0.008071505464613438,-0.4606206715106964,-0.023096285875946428,0.6994483693840077,-0.004996090066427376,0.0020498188791826712,5.600590789037267e-06,0.0,0.0,-0.6,0.0,0.0015873908996582031,0.0015873908996582031,0.0026519298553466797,0
1.780473232269287,0.01967475190758705,-0.007705682422965765,-0.46292099356651306,-0.023090125906539326,0.6995133298691644,-0.008693108138805585,0.0015574858708328105,1.8015202439747565e-05,0.0,0.0,-0.6,0.0,0.0026733875274658203,0.0026733875274658203,0.004297971725463867,0
1.7898979187011719,0.01978946104645729,-0.007528665009886026,-0.46404141187667847,-0.023098836511554404,0.6995674150354545,-0.008009363226186481,0.001506847184808437,1.6789509663564347e-05,0.0,0.0,-0.6,0.0,0.0015439987182617188,0.0015439987182617188,0.002162456512451172,0
1.8004016876220703,0.01990525610744953,-0.0073571051470935345,-0.46517714858055115,-0.02310439008645606,0.6996215233650624,-0.005695984631768301,0.0016777888655429738,1.0073242086498566e-05,0.0,0.0,-0.6,0.0,0.002409219741821289,0.002409219741821289,0.003479480743408203,0
1.8099799156188965,0.020022304728627205,-0.0071913329884409904,-0.46629101037979126,-0.02309082658464949,0.6996706387805592,-0.005217028230302144,0.0018375644399532818,8.460445652425995e-06,0.0,0.0,-0.6,0.0,0.0016252994537353516,0.0016252994537353516,0.0023984909057617188,0
1.820038080215454,0.020259182900190353,-0.006874087266623974,-0.46845972537994385,-0.023075762840191878,0.6997305868792537,-0.006295111595370967,0.002516380077157649,9.592214099065375e-06,0.0,0.0,-0.6,0.0,0.0019049644470214844,0.0019049644470214844,0.0026335716247558594,0
1.830085039138794,0.0203789621591568,-0.00672153988853097,-0.4695137143135071,-0.02306680640312109,0.6997816846316318,-0.006919154729497619,0.001688244858071556,1.4348688050795811e-05,0.0,0.0,-0.6,0.0,0.002460956573486328,0.002460956573486328,0.0035736560821533203,0
1.8403124809265137,0.020499732345342636,-0.006571380887180567,-0.47054773569107056,-0.023067470568319957,0.6998375569996184,-0.007750401347363633,0.002515957612153812,1.4230744157728463e-05,0.0,0.0,-0.6,0.0,0.0030748844146728516,0.0030748844146728516,0.004091501235961914,0
1.85032057762146,0.02062201127409935,-0.006424112245440483,-0.4715610444545746,-0.023073526686855833,0.6998911371125799,-0.007480556281366254,0.002118465586606622,1.5128105317476956e-05,0.0,0.0,-0.6,0.0,0.002727985382080078,0.002727985382080078,0.003865957260131836,0
1.8602652549743652,0.020867031067609787,-0.006138821132481098,-0.47353291511535645,-0.02308040717504575,0.6999501048611911,-0.008508519144338077,0.0023775272274993383,1.800864112546024e-05,0.0,0.0,-0.6,0.0,0.00316619873046875,0.00316619873046875,0.0041620731353759766,0
1.8699233531951904,0.020991913974285126,-0.006000923924148083,-0.4744919538497925,-0.02307910374497231,0.7000041324034703,-0.008717993557259381,0.003193170576299376,1.6500274965886338e-05,0.0,0.0,-0.6,0.0,0.0014429092407226562,0.0014429092407226562,0.0020377635955810547,0
1.8805058002471924,0.021117977797985077,-0.0058647748082876205,-0.47543275356292725,-0.02306927633703618,0.700056595327076,-0.008860091757910232,0.0028108781647659116,1.8382835751416906e-05,0.0,0.0,-0.6,0.0,0.003156900405883789,0.003156900405883789,0.004147768020629883,0
1.889880895614624,0.021246042102575302,-0.0057306429371237755,-0.4763549864292145,-0.023062677845324807,0.7001108837124114,-0.00927217300956398,0.002066918920523164,2.2193633374758446e-05,0.0,0.0,-0.6,0.0,0.0020525455474853516,0.0020525455474853516,0.0030364990234375,0
1.900252342224121,0.021503610536456108,-0.00546785444021225,-0.47814568877220154,-0.02308008739984496,0.7001783849355775,-0.010499623189786254,0.0027107372621017196,2.416400639319382e-05,0.0,0.0,-0.6,0.0,0.0019397735595703125,0.0019397735595703125,0.0028412342071533203,0
1.9103634357452393,0.021632909774780273,-0.005341231822967529,-0.47901472449302673,-0.023079238791518547,0.7002433003280675,-0.0072858015599865005,0.0019620552198550043,1.6482896152505114e-05,0.0,0.0,-0.6,0.0,0.0026938915252685547,0.0026938915252685547,0.003922224044799805,0
1.9199347496032715,0.021761763840913773,-0.0052184974774718285,-0.4798658490180969,-0.023067823599809873,0.7003081478964825,-0.0064526714023564235,0.0017486701262576516,1.4587759934813856e-05,0.0,0.0,-0.6,0.0,0.0019011497497558594,0.0019011497497558594,0.002584695816040039,0
1.9304585456848145,0.021891826763749123,-0.005098207388073206,-0.4807088077068329,-0.02305328435956233,0.7003778761194203,-0.005999655867972172,0.0025775401707950215,1.0794592367524097e-05,0.0,0.0,-0.6,0.0,0.002025127410888672,0.002025127410888672,0.003135204315185547,0
1.9402236938476562,0.022153034806251526,-0.0048658279702067375,-0.4823404550552368,-0.023050984018152275,0.7004599516264544,-0.0077504829130398195,0.0022955345171185868,1.701412350551658e-05,0.0,0.0,-0.6,0.0,0.0032465457916259766,0.0032465457916259766,0.004197835922241211,0
1.9503843784332275,0.02228359505534172,-0.004752287641167641,-0.48313188552856445,-0.023058979414867765,0.7005289993488544,-0.0070656938232715166,0.0016144733304816312,1.7010959839732568e-05,0.0,0.0,-0.6,0.0,0.001392364501953125,0.001392364501953125,0.0022695064544677734,0
1.9604640007019043,0.022413596510887146,-0.004639377351850271,-0.48390740156173706,-0.023059545219919483,0.7005964033394293,-0.006434877514668658,0.002600800135890152,1.2098179605222804e-05,0.0,0.0,-0.6,0.0,0.002977132797241211,0.002977132797241211,0.0042514801025390625,0
1.9699440002441406,0.022544920444488525,-0.004528196528553963,-0.4846658408641815,-0.023059891931086055,0.7006608869544981,-0.006521574121271543,0.0025597651482074405,1.2530935015543054e-05,0.0,0.0,-0.6,0.0,0.0017652511596679688,0.0017652511596679688,0.0026009082794189453,0
1.9801914691925049,0.022809874266386032,-0.004314334597438574,-0.48613446950912476,-0.023047937418205742,0.7007450992084359,-0.005595901684269058,0.0031905280526440235,7.716961185054746e-06,0.0,0.0,-0.6,0.0,0.0028116703033447266,0.0028116703033447266,0.0036280155181884766,0
1.9903168678283691,0.022942285984754562,-0.00421221973374486,-0.4868444502353668,-0.02305373613903505,0.7008183058439376,-0.004391128719737764,0.002354213520982686,6.645717129988248e-06,0.0,0.0,-0.6,0.0,0.0025212764739990234,0.0025212764739990234,0.0037300586700439453,0
2.0001208782196045,0.023073703050613403,-0.004112679976969957,-0.48755332827568054,-0.02305419362133714,0.7008882359960823,-0.004545834409321674,0.0016019287428909064,9.415828669274302e-06,0.0,0.0,-0.6,0.0,0.0017666816711425781,0.0017666816711425781,0.0024161338806152344,0
2.0101523399353027,0.023204797878861427,-0.004014891572296619,-0.4882466197013855,-0.023047215589261573,0.7009530670261747,-0.004541012961780525,0.0014328217027921705,9.981908134757614e-06,0.0,0.0,-0.6,0.0,0.0024509429931640625,0.0024509429931640625,0.003634214401245117,0
2.0206117630004883,0.023335633799433708,-0.003920021932572126,-0.4889243543148041,-0.023039179296192484,0.7010149858293688,-0.002848331120940678,0.0012047655354685174,5.326461767023464e-06,0.0,0.0,-0.6,0.0,0.002861499786376953,0.002861499786376953,0.004616737365722656,0
2.0301928520202637,0.023605143651366234,-0.0037427109200507402,-0.49023696780204773,-0.023033114693107492,0.7010883379406594,-0.0011933249859187674,0.003240910820663222,-6.786619239276977e-06,0.0,0.0,-0.6,0.0,0.002659320831298828,0.002659320831298828,0.003716707229614258,0
2.040306806564331,0.023740872740745544,-0.0036578222643584013,-0.49087098240852356,-0.023022291739519852,0.7011592974684353,-0.002004769799849092,0.0024312746408075535,-1.6741597235305866e-06,0.0,0.0,-0.6,0.0,0.002620697021484375,0.002620697021484375,0.0038340091705322266,0
2.0499825477600098,0.023875508457422256,-0.0035764509811997414,-0.49148911237716675,-0.02301681276904581,0.7012341415462172,0.00026971383738600823,0.0013292899958259874,-5.407688480440167e-06,0.0,0.0,-0.6,0.0,0.0013585090637207031,0.0013585090637207031,0.001947641372680664,0
2.0602619647979736,0.024142909795045853,-0.0034272363409399986,-0.4926786422729492,-0.023012164801689005,0.7013261284096571,0.0011531965333232185,0.0022097418742981255,-1.1536015971275601e-05,0.0,0.0,-0.6,0.0,0.0016558170318603516,0.0016558170318603516,0.0024259090423583984,0
2.0704123973846436,0.02427734062075615,-0.003355729393661022,-0.49325209856033325,-0.023009892933000882,0.7014048231068305,-0.0009399602246135717,0.0021630482503000887,-4.699064066578412e-06,0.0,0.0,-0.6,0.0,0.0021457672119140625,0.0021457672119140625,0.0035741329193115234,0
2.0804543495178223,0.024411121383309364,-0.0032863656524568796,-0.4938125014305115,-0.022998031767963934,0.7014773512916558,-1.3955273631063313e-06,0.0014072630644350324,-5.059842747513141e-06,0.0,0.0,-0.6,0.0,0.002925395965576172,0.002925395965576172,0.003942966461181641,0
2.0904369354248047,0.024544039741158485,-0.00322082731872797,-0.4943588674068451,-0.02301283515526208,0.7015477301350606,0.0009048787778029215,0.0013555420925785943,-7.900497787122415e-06,0.0,0.0,-0.6,0.0,0.0022253990173339844,0.0022253990173339844,0.003480672836303711,0
2.1001617908477783,0.024817481637001038,-0.003096736967563629,-0.495414137840271,-0.023026428898018515,0.7016236081839878,0.0003124856103474489,0.0014336364103889848,-6.327989157055662e-06,0.0,0.0,-0.6,0.0,0.003293275833129883,0.003293275833129883,0.004369497299194336,0
2.1101510524749756,0.02495400421321392,-0.0030386680737137794,-0.49592325091362,-0.023011385918947035,0.7016952953194053,0.0012282788863599223,0.0025464455609845254,-1.3580025259610796e-05,0.0,0.0,-0.6,0.0,0.002049684524536133,0.002049684524536133,0.002939462661743164,0
2.1203794479370117,0.02509179338812828,-0.002983355661854148,-0.49641966819763184,-0.023016526983753467,0.7017633738406968,0.0001421429678154488,0.0028030279790178464,-1.0912209506912481e-05,0.0,0.0,-0.6,0.0,0.0026481151580810547,0.0026481151580810547,0.003833293914794922,0
2.1302998065948486,0.025229744613170624,-0.0029294502455741167,-0.4969026744365692,-0.02301313989578455,0.7018333464093677,-0.0008100098086323616,0.002979498135625506,-8.395925645541758e-06,0.0,0.0,-0.6,0.0,0.0017344951629638672,0.0017344951629638672,0.0026586055755615234,0
2.140096664428711,0.025368014350533485,-0.0028775683604180813,-0.4973728656768799,-0.023023727982162855,0.7018997145504253,-0.0002213741521408332,0.0030812392742028643,-1.0755977079764786e-05,0.0,0.0,-0.6,0.0,0.0018355846405029297,0.0018355846405029297,0.002624034881591797,0
2.1503634452819824,0.025430388748645782,-0.0027849283069372177,-0.49860915541648865,-0.023016050122169302,0.7019651131726466,0.004387626610956845,0.0014011283480921846,-2.0078138712530154e-05,0.0,0.0,-0.6,0.0,0.0027170181274414062,0.0027170181274414062,0.004008054733276367,0
2.1603612899780273,0.02546367421746254,-0.0027453547809273005,-0.4992029666900635,-0.023006300230081392,0.702025457689104,0.004393116366501059,0.00029841763873618025,-1.6026590772153e-05,0.0,0.0,-0.6,0.0,0.0024051666259765625,0.0024051666259765625,0.0036978721618652344,0
2.170137643814087,0.02549954503774643,-0.002709036460146308,-0.4997808635234833,-0.022996629023805188,0.7020803557051679,0.004509168891489981,-0.000980015717986161,-1.1577575564222164e-05,0.0,0.0,-0.6,0.0,0.0014667510986328125,0.0014667510986328125,0.002207040786743164,0
