time,x,y,z,yaw,throttle,roll_rate,pitch_rate,yaw_rate,x_ref,y_ref,z_ref,yaw_ref,pred_time,nr_time,ctrl_callback_time,metadata
1.430511474609375e-06,0.08897236734628677,-0.0501839742064476,0.6730515956878662,0.013058333198244475,0.7285482052613778,-0.035130886196031746,0.08786250291992068,-0.004896875121630729,0.0,0.0,-0.6,0.0,0.06923365592956543,0.06961917877197266,0.07096385955810547,Sim
0.07079386711120605,0.08897236734628677,-0.0501839742064476,0.6730515956878662,0.013058333198244475,0.7555424850738933,-0.05972250786883665,0.14936625603233128,-0.008324687951244414,0.0,0.0,-0.6,0.0,0.0006589889526367188,0.0008778572082519531,0.001257181167602539,linear predictor
0.07947397232055664,0.0878501757979393,-0.04961647838354111,0.6701039671897888,0.013142349758241113,0.7764644100990028,-0.07726196319917333,0.19158284104503834,-0.01075566268991679,0.0,0.0,-0.6,0.0,0.0008656978607177734,0.0011363029479980469,0.0015850067138671875,1x Speed
0.0895838737487793,0.08751095831394196,-0.04978933185338974,0.6692031025886536,0.013154163214289635,0.7928251425173451,-0.08939025857863452,0.2208970269601805,-0.012461774982511997,0.0,0.0,-0.6,0.0,0.0009086132049560547,0.001177072525024414,0.0017278194427490234,QuatYawError
0.09947013854980469,0.08718723058700562,-0.049938321113586426,0.6683696508407593,0.013156137703908333,0.8056764275855771,-0.09779754049215347,0.24113344441874812,-0.013656794093549252,0.0,0.0,-0.6,0.0,0.0007522106170654297,0.0010073184967041016,0.001474618911743164,0
0.10953664779663086,0.08687794208526611,-0.05006461963057518,0.6676014065742493,0.013166570810396697,0.8158099061840125,-0.10353452518553663,0.2550776914931612,-0.014497219934128225,0.0,0.0,-0.6,0.0,0.0008375644683837891,0.0010807514190673828,0.0015828609466552734,0
0.11942887306213379,0.08630625903606415,-0.050251249223947525,0.6662567257881165,0.013181870134567418,0.8237996508881131,-0.10743367599742992,0.2645754205658857,-0.015091255190782249,0.0,0.0,-0.6,0.0,0.0007576942443847656,0.0010457038879394531,0.0015637874603271484,0
0.1294856071472168,0.0860910713672638,-0.0503167025744915,0.6656679511070251,0.013192337065483586,0.8301275980960711,-0.11006838795278803,0.2711668790003895,-0.015511004836298525,0.0,0.0,-0.6,0.0,0.0011820793151855469,0.0015845298767089844,0.0023202896118164062,0
0.13970041275024414,0.08589129894971848,-0.05036185309290886,0.6651530861854553,0.013191460277679548,0.8351416118416967,-0.11184157963283514,0.2756723122250128,-0.015804501017555594,0.0,0.0,-0.6,0.0,0.0018241405487060547,0.002315998077392578,0.003380298614501953,0
0.14956068992614746,0.08570466190576553,-0.05038611963391304,0.664693295955658,0.013194867681104845,0.8391195575050173,-0.11309633017264996,0.2787326449958952,-0.01601122599095106,0.0,0.0,-0.6,0.0,0.0011663436889648438,0.0015599727630615234,0.002363443374633789,0
0.15950894355773926,0.08537400513887405,-0.050373438745737076,0.6639398336410522,0.013181559982551359,0.8422700739340166,-0.11386619742251039,0.280799133302414,-0.016150942887179554,0.0,0.0,-0.6,0.0,0.0012929439544677734,0.0016973018646240234,0.0024411678314208984,0
0.16961932182312012,0.08522868901491165,-0.050339195877313614,0.6636413931846619,0.013196205784953903,0.8447722165907832,-0.11440372671032574,0.2821463782847643,-0.016254237270914018,0.0,0.0,-0.6,0.0,0.0012874603271484375,0.0016524791717529297,0.0024428367614746094,0
0.17956137657165527,0.08509595692157745,-0.05028695613145828,0.6633932590484619,0.01321174783352617,0.8467623021787014,-0.11474221678333507,0.28303439652033613,-0.01633237162604928,0.0,0.0,-0.6,0.0,0.001096487045288086,0.001451730728149414,0.0020973682403564453,0
0.1897420883178711,0.08497465401887894,-0.050216466188430786,0.6631945371627808,0.013214074476238328,0.8483435097931307,-0.11499147657786526,0.2835326810468458,-0.016387938056141138,0.0,0.0,-0.6,0.0,0.0011761188507080078,0.0015027523040771484,0.002187490463256836,0
0.1995255947113037,0.0848643034696579,-0.05012835934758186,0.6630439758300781,0.01321440711005368,0.8496054606376273,-0.11514460914498552,0.28379051261098054,-0.016426959657110274,0.0,0.0,-0.6,0.0,0.0010080337524414062,0.0013508796691894531,0.0020096302032470703,0
0.2096104621887207,0.08477285504341125,-0.049908582121133804,0.6628692150115967,0.013228227802710433,0.850610167293907,-0.11535511834379959,0.2838746329501473,-0.016459456994198263,0.0,0.0,-0.6,0.0,0.0010836124420166016,0.0014073848724365234,0.0020530223846435547,0
0.2196636199951172,0.08474148064851761,-0.049771763384342194,0.6628474593162537,0.013238080767087322,0.851410349370485,-0.11560124219021022,0.28386332323606017,-0.016485899803228676,0.0,0.0,-0.6,0.0,0.0012040138244628906,0.0015511512756347656,0.002241849899291992,0
0.22952842712402344,0.08471935242414474,-0.04961733520030975,0.6628698110580444,0.013238336860160299,0.8520506380922418,-0.11585620492276026,0.2837946155209564,-0.01650450623128563,0.0,0.0,-0.6,0.0,0.000988006591796875,0.001299142837524414,0.0019042491912841797,0
0.23957395553588867,0.0847054198384285,-0.04944514483213425,0.6629350781440735,0.013233400805712848,0.8525633343050714,-0.11612209539275255,0.2836679542024435,-0.01651567965745926,0.0,0.0,-0.6,0.0,0.0013687610626220703,0.0017087459564208984,0.002410411834716797,0
0.2498776912689209,0.0847073569893837,-0.0490533746778965,0.663193941116333,0.013242413745001956,0.8529849546138096,-0.1164285368239061,0.28370009900625187,-0.01652688067406416,0.0,0.0,-0.6,0.0,0.0020356178283691406,0.0028238296508789062,0.004154682159423828,0
0.2598273754119873,0.08472415804862976,-0.04883209988474846,0.6633858680725098,0.01323275522076368,0.8533287606462909,-0.1168163446227517,0.2837579350783857,-0.016531099565327168,0.0,0.0,-0.6,0.0,0.0017435550689697266,0.0022771358489990234,0.003345489501953125,0
0.2699735164642334,0.08475026488304138,-0.04859449341893196,0.6636172533035278,0.013239774536429945,0.8536089003864676,-0.11720042881710097,0.28383632309671375,-0.016536685405299067,0.0,0.0,-0.6,0.0,0.0021162033081054688,0.0028693675994873047,0.004189968109130859,0
0.27974939346313477,0.08494943380355835,-0.04809121787548065,0.6641790270805359,0.013254949251391576,0.8538489135866213,-0.11766380655483157,0.28402611473708195,-0.01654628582764417,0.0,0.0,-0.6,0.0,0.0015366077423095703,0.002019166946411133,0.0030117034912109375,0
0.2909972667694092,0.08505991846323013,-0.04781639948487282,0.6645165085792542,0.013250813809150795,0.8540472709832928,-0.11811079936431217,0.2842304482016094,-0.01655145501717925,0.0,0.0,-0.6,0.0,0.001180887222290039,0.0015172958374023438,0.0021696090698242188,0
0.2994956970214844,0.08517801016569138,-0.04752698168158531,0.6648893356323242,0.013235083774443723,0.8542162058342618,-0.11851440710619636,0.28445109180175715,-0.016549174790270627,0.0,0.0,-0.6,0.0,0.0012164115905761719,0.0015454292297363281,0.002232789993286133,0
0.30943942070007324,0.08530326932668686,-0.0472247488796711,0.6652971506118774,0.013231043895784727,0.8543596589400473,-0.11887030516378431,0.28467269167909975,-0.016546063357964158,0.0,0.0,-0.6,0.0,0.0011107921600341797,0.0015125274658203125,0.002226114273071289,0
0.31977105140686035,0.08557872474193573,-0.04657546058297157,0.6662125587463379,0.013216420723518443,0.8544958001662856,-0.11943018676323905,0.28506963219227316,-0.01653840229846537,0.0,0.0,-0.6,0.0,0.0018198490142822266,0.0023398399353027344,0.003435373306274414,0
0.32972002029418945,0.08572758734226227,-0.046230606734752655,0.6667190194129944,0.013213603290008173,0.8546168496036903,-0.11990658376088006,0.2854010116231238,-0.01653198280837387,0.0,0.0,-0.6,0.0,0.0021691322326660156,0.0028493404388427734,0.003985404968261719,0
0.33947110176086426,0.08588223159313202,-0.045873239636421204,0.6672564744949341,0.013231729865751095,0.8547251068113253,-0.12040210096008833,0.2856373830448457,-0.01653428643476218,0.0,0.0,-0.6,0.0,0.001295328140258789,0.001691579818725586,0.0024623870849609375,0
0.3495621681213379,0.08610782772302628,-0.04551113024353981,0.6678088903427124,0.013255089876156161,0.854822709386325,-0.1209453866092305,0.2858390186323708,-0.016544659389182925,0.0,0.0,-0.6,0.0,0.0014591217041015625,0.002048969268798828,0.0031147003173828125,0
0.3595428466796875,0.0865672156214714,-0.04474971443414688,0.6689739227294922,0.013270519478914368,0.854802653929902,-0.12156865229124866,0.28575641551512226,-0.016557706519961357,0.0,0.0,-0.6,0.0,0.0014128684997558594,0.001991748809814453,0.0029265880584716797,0
0.36951231956481934,0.08679930120706558,-0.04435156285762787,0.6694905757904053,0.013290368096804624,0.8545120523155849,-0.12204167560705405,0.2853174735980032,-0.016574282431975007,0.0,0.0,-0.6,0.0,0.0008854866027832031,0.001146554946899414,0.0017113685607910156,0
0.3796391487121582,0.08703527599573135,-0.043940141797065735,0.6698706746101379,0.01329560473038873,0.8538928949822077,-0.12219109258317402,0.28428500408269497,-0.01658784958999604,0.0,0.0,-0.6,0.0,0.001222848892211914,0.0015628337860107422,0.002241373062133789,0
0.38956618309020996,0.0872756838798523,-0.04351521283388138,0.6700751781463623,0.013297860004305674,0.8529494313979799,-0.12200001611227301,0.28253734072988707,-0.016598191810771823,0.0,0.0,-0.6,0.0,0.0008370876312255859,0.00110626220703125,0.0016515254974365234,0
0.39963483810424805,0.08777517080307007,-0.04262052848935127,0.6698713302612305,0.013327812386270843,0.8512015833164878,-0.12083386545591501,0.2784159730014556,-0.016616664128378034,0.0,0.0,-0.6,0.0,0.0009624958038330078,0.001272439956665039,0.0018851757049560547,0
0.4096410274505615,0.08810175955295563,-0.042160842567682266,0.6694374084472656,0.013341505330666529,0.8492814561097036,-0.11930710480629364,0.2737356478967801,-0.016634728875942528,0.0,0.0,-0.6,0.0,0.0016715526580810547,0.0021584033966064453,0.0032591819763183594,0
0.419506311416626,0.08843210339546204,-0.041687339544296265,0.6687855124473572,0.013327133706109088,0.8472144181085464,-0.1175329167815714,0.26851385620656504,-0.01664198550861329,0.0,0.0,-0.6,0.0,0.000946044921875,0.0012674331665039062,0.0018286705017089844,0
0.42960095405578613,0.08876597881317139,-0.04120175540447235,0.6679133772850037,0.013303046980723513,0.8450191595063364,-0.11544385712785457,0.26275062998479454,-0.01663803239353001,0.0,0.0,-0.6,0.0,0.00096893310546875,0.001271963119506836,0.0019307136535644531,0
0.4394032955169678,0.0886516124010086,-0.041176989674568176,0.6632478833198547,0.013246697384144818,0.8421270986547891,-0.1117350669145488,0.2537820908216662,-0.016614133841358125,0.0,0.0,-0.6,0.0,0.0009131431579589844,0.0012385845184326172,0.0018732547760009766,0
0.4495069980621338,0.08821821212768555,-0.041617996990680695,0.6595155596733093,0.013237556660264315,0.8392124150323684,-0.10782319067093349,0.2447491498619765,-0.016593977459706366,0.0,0.0,-0.6,0.0,0.0010211467742919922,0.0013511180877685547,0.0019714832305908203,0
0.45961570739746094,0.08779832720756531,-0.04202994331717491,0.6556248664855957,0.013205349860471196,0.836281738100247,-0.10363918945740161,0.23555937409999297,-0.01656778994947672,0.0,0.0,-0.6,0.0,0.0010251998901367188,0.001294851303100586,0.0019707679748535156,0
0.46937131881713867,0.08738986402750015,-0.04241539537906647,0.6515764594078064,0.01315176723713527,0.8333381554895659,-0.09918441221245435,0.22624012161121884,-0.01652936590835452,0.0,0.0,-0.6,0.0,0.0007307529449462891,0.0010068416595458984,0.0014886856079101562,0
0.47948694229125977,0.08664614707231522,-0.04311712458729744,0.6429972648620605,0.013041252609299687,0.8298031496835409,-0.09318177745396031,0.21383601505365965,-0.016461025457829237,0.0,0.0,-0.6,0.0,0.0009539127349853516,0.001260519027709961,0.0018014907836914062,0
0.4895803928375244,0.08630774170160294,-0.04343506321310997,0.6384744644165039,0.012966448829783648,0.8263876986179051,-0.08744756676579196,0.20222725332105845,-0.01638513570651412,0.0,0.0,-0.6,0.0,0.0009713172912597656,0.0012865066528320312,0.0018947124481201172,0
0.4994957447052002,0.08597391843795776,-0.043733227998018265,0.6338027119636536,0.01287750697647273,0.8230724796199177,-0.08189820873326176,0.1910670603854937,-0.016298659960739315,0.0,0.0,-0.6,0.0,0.0011005401611328125,0.001373291015625,0.0018754005432128906,0
0.5095343589782715,0.08563973754644394,-0.04401300847530365,0.6289841532707214,0.01282139055953142,0.8198424843574439,-0.07643522416787008,0.18012845664261015,-0.016217083437368274,0.0,0.0,-0.6,0.0,0.0008492469787597656,0.0011022090911865234,0.0016422271728515625,0
0.5194063186645508,0.08530393242835999,-0.04427552968263626,0.6240219473838806,0.01276087735565236,0.8166877569348654,-0.07113806821850185,0.16938319719000883,-0.01613728771917522,0.0,0.0,-0.6,0.0,0.0006170272827148438,0.000873565673828125,0.001346588134765625,0
0.529515266418457,0.08461865037679672,-0.044751979410648346,0.6136775016784668,0.012565084566080867,0.8130466466057535,-0.06445113164976787,0.15557046227038224,-0.016008008387871087,0.0,0.0,-0.6,0.0,0.0008537769317626953,0.0011053085327148438,0.0016078948974609375,0
0.5395705699920654,0.08426393568515778,-0.04496818408370018,0.6083021759986877,0.012471449401639783,0.8095812157737166,-0.058286684372352404,0.1427433045583644,-0.01588239928241819,0.0,0.0,-0.6,0.0,0.0010707378387451172,0.0013432502746582031,0.0019350051879882812,0
0.5495009422302246,0.08389903604984283,-0.045170582830905914,0.6027906537055969,0.012386544980464076,0.806265828638195,-0.05252250855130039,0.13061969440292515,-0.01576263376045972,0.0,0.0,-0.6,0.0,0.0009109973907470703,0.0011944770812988281,0.0017502307891845703,0
0.5596044063568115,0.08324166387319565,-0.04555981606245041,0.5913782119750977,0.012172118403447525,0.8025614842919636,-0.045500904347171314,0.11598674076661185,-0.01559838792309165,0.0,0.0,-0.6,0.0,0.001116037368774414,0.0014393329620361328,0.002122640609741211,0
0.5696537494659424,0.08289244025945663,-0.04574185609817505,0.5854946374893188,0.012070468346663338,0.7990788904125895,-0.03905488685916567,0.10276837619784197,-0.015445297001861036,0.0,0.0,-0.6,0.0,0.0011379718780517578,0.0014922618865966797,0.0022449493408203125,0
0.5794980525970459,0.08252718299627304,-0.04591669514775276,0.5794979333877563,0.011961007578563344,0.7957820574806694,-0.03317141812921561,0.09047822422523111,-0.01529708574526012,0.0,0.0,-0.6,0.0,0.0014722347259521484,0.0019631385803222656,0.0028421878814697266,0
0.590177059173584,0.08214329183101654,-0.0460837259888649,0.5733917355537415,0.011837514426447107,0.792641756281881,-0.027678012997248272,0.07887176370157797,-0.01514702767599374,0.0,0.0,-0.6,0.0,0.00171661376953125,0.0022449493408203125,0.0033321380615234375,0
0.5996067523956299,0.08131279051303864,-0.0464056171476841,0.5608659386634827,0.011607782186586743,0.7891591169615476,-0.020976647461091014,0.06480333014334773,-0.014955837512388825,0.0,0.0,-0.6,0.0,0.001360177993774414,0.0017735958099365234,0.002603292465209961,0
0.6096470355987549,0.08086244016885757,-0.04656247794628143,0.5544543266296387,0.011481355976610761,0.7858914991261235,-0.014930134804993694,0.052036073314278404,-0.014774594572372735,0.0,0.0,-0.6,0.0,0.001210927963256836,0.001575469970703125,0.002338409423828125,0
0.6198139190673828,0.08038759231567383,-0.04671561345458031,0.5479317307472229,0.011367994581787352,0.7828057878353897,-0.009513025501094913,0.040234753949590245,-0.014605214120820165,0.0,0.0,-0.6,0.0,0.0013079643249511719,0.001667022705078125,0.002451181411743164,0
0.6295576095581055,0.07994936406612396,-0.04687359556555748,0.5413102507591248,0.011251924410575638,0.779876631725385,-0.004448758107729303,0.0291648797923843,-0.014443121734075248,0.0,0.0,-0.6,0.0,0.0011112689971923828,0.0014688968658447266,0.0021219253540039062,0
0.6396100521087646,0.07898794114589691,-0.04718737676739693,0.5278167128562927,0.011013283775822271,0.7766484144105781,0.0015723270576207468,0.01604207215722238,-0.014240166521631181,0.0,0.0,-0.6,0.0,0.0011796951293945312,0.0015361309051513672,0.002243518829345703,0
0.64967942237854,0.07846402376890182,-0.04734302684664726,0.5209525227546692,0.01087490641177406,0.7736294164291314,0.006935210703250375,0.004272749346665708,-0.014046206488274038,0.0,0.0,-0.6,0.0,0.0012404918670654297,0.0015971660614013672,0.0024094581604003906,0
0.6595420837402344,0.07791052758693695,-0.04749839007854462,0.5140138864517212,0.010769485588897919,0.7707855149447755,0.011792674138036465,-0.006477997347353546,-0.013870901777409017,0.0,0.0,-0.6,0.0,0.0010595321655273438,0.0013914108276367188,0.002044200897216797,0
0.6696577072143555,0.07732696086168289,-0.04765365645289421,0.5070057511329651,0.010634323431998317,0.7680949867099405,0.0161980832389015,-0.01639392874163717,-0.01369750255253166,0.0,0.0,-0.6,0.0,0.001180410385131836,0.00152587890625,0.0022547245025634766,0
0.6794900894165039,0.0767134353518486,-0.047808535397052765,0.4999316334724426,0.01051312452265876,0.7655323229581968,0.02030709849707278,-0.02567776224567658,-0.013530673692002892,0.0,0.0,-0.6,0.0,0.0009334087371826172,0.0012488365173339844,0.0018682479858398438,0
0.6895818710327148,0.07544983178377151,-0.048130545765161514,0.4855717718601227,0.010262696171930801,0.7626982499440129,0.025100923420795958,-0.03663321569958082,-0.013319982681423426,0.0,0.0,-0.6,0.0,0.0010678768157958984,0.0013976097106933594,0.002041339874267578,0
0.69972825050354,0.07479913532733917,-0.04829786345362663,0.47829440236091614,0.01015760110119601,0.7600430744082027,0.029295943191391945,-0.04636138687474406,-0.013133088243193924,0.0,0.0,-0.6,0.0,0.001188039779663086,0.0015316009521484375,0.0022776126861572266,0
0.709538459777832,0.07411648333072662,-0.048466894775629044,0.47096458077430725,0.010048731803887765,0.7575398662847451,0.03306474914775622,-0.05513088415190106,-0.012961436295881867,0.0,0.0,-0.6,0.0,0.001024484634399414,0.001352071762084961,0.001966714859008789,0
0.7196030616760254,0.07265358418226242,-0.0488131009042263,0.456163227558136,0.009831875184484154,0.7548143068317058,0.037151827126604205,-0.06496871267475762,-0.01275995874311775,0.0,0.0,-0.6,0.0,0.001184701919555664,0.0015230178833007812,0.0022182464599609375,0
0.729670524597168,0.07187297195196152,-0.048989031463861465,0.44869929552078247,0.00973571986212497,0.7522828550310774,0.04068986309498319,-0.07364889553172699,-0.012582866242155433,0.0,0.0,-0.6,0.0,0.0012218952178955078,0.0015664100646972656,0.002363443374633789,0
0.7395398616790771,0.07105795294046402,-0.04916650429368019,0.4411974549293518,0.009627283358766494,0.7499129791841915,0.04371560961692834,-0.08142103041975599,-0.012418237631209195,0.0,0.0,-0.6,0.0,0.0010786056518554688,0.0014164447784423828,0.0020618438720703125,0
0.7496941089630127,0.07020917534828186,-0.049344826489686966,0.4336601197719574,0.00951581138800387,0.7476790148103625,0.04641227658138823,-0.0884929460232311,-0.012261195690371096,0.0,0.0,-0.6,0.0,0.0011491775512695312,0.0014848709106445312,0.0022618770599365234,0
0.7595226764678955,0.06847760826349258,-0.049715373665094376,0.4184521734714508,0.009339768066849065,0.745247046792095,0.049293690690454986,-0.09641021600932584,-0.012085250113159418,0.0,0.0,-0.6,0.0,0.0010738372802734375,0.001413583755493164,0.0020513534545898438,0
0.7694888114929199,0.067593514919281,-0.049907661974430084,0.4107891917228699,0.009239414059789772,0.742985821626085,0.05174066913834619,-0.10328531480756521,-0.011924455175176263,0.0,0.0,-0.6,0.0,0.0010766983032226562,0.0014183521270751953,0.002070903778076172,0
0.7795820236206055,0.06667602807283401,-0.05010223388671875,0.40310338139533997,0.009156450258138146,0.7408685082487036,0.05386384892264687,-0.10930345300974412,-0.011780787608586252,0.0,0.0,-0.6,0.0,0.0010576248168945312,0.0013594627380371094,0.0020051002502441406,0
0.7895050048828125,0.06572630256414413,-0.050300050526857376,0.39539721608161926,0.009080018304310463,0.7388731189851575,0.05575546538285364,-0.11464042000747196,-0.011651558219455183,0.0,0.0,-0.6,0.0,0.0011448860168457031,0.001558065414428711,0.0022618770599365234,0
0.7996499538421631,0.06373274326324463,-0.05070846155285835,0.37993666529655457,0.008895498493545706,0.7367070270064338,0.05775589309912948,-0.12036808767611824,-0.011491902871057391,0.0,0.0,-0.6,0.0,0.0020165443420410156,0.002613544464111328,0.0037033557891845703,0
0.8097765445709229,0.06268896907567978,-0.05091539025306702,0.37218788266181946,0.008809742082080444,0.7346942126780972,0.059287910602157434,-0.12526308098405603,-0.011347985244356096,0.0,0.0,-0.6,0.0,0.0015442371368408203,0.0019843578338623047,0.0029878616333007812,0
0.819587230682373,0.06161382049322128,-0.051123544573783875,0.36442917585372925,0.008737759332924339,0.7328116286603382,0.06057640864498993,-0.12950986526794786,-0.011220249580219388,0.0,0.0,-0.6,0.0,0.0012638568878173828,0.0016748905181884766,0.0023849010467529297,0
0.8298139572143555,0.060508280992507935,-0.05133442208170891,0.3566628396511078,0.00867294483248777,0.7310399910197944,0.06168145772957511,-0.13321927786277993,-0.011106529156677425,0.0,0.0,-0.6,0.0,0.001325368881225586,0.001760244369506836,0.0025882720947265625,0
0.839533805847168,0.05801273509860039,-0.05252884328365326,0.3396495580673218,0.008536784917824536,0.7290809289923191,0.0630474489503438,-0.13717741334790706,-0.010975864715874195,0.0,0.0,-0.6,0.0,0.0010669231414794922,0.0014503002166748047,0.0021703243255615234,0
0.8495712280273438,0.0565471425652504,-0.05348321795463562,0.3304538428783417,0.008478684623854229,0.7272289869320594,0.06438836594198259,-0.1406156652635135,-0.01086261193268001,0.0,0.0,-0.6,0.0,0.0009982585906982422,0.0013065338134765625,0.0019288063049316406,0
0.859687328338623,0.055061157792806625,-0.05442434549331665,0.32129767537117004,0.008389113732829327,0.7254722498143741,0.06572027843523033,-0.14361317756772105,-0.010749745764769614,0.0,0.0,-0.6,0.0,0.0011358261108398438,0.0014684200286865234,0.0022001266479492188,0
0.8696904182434082,0.05355418473482132,-0.05535473674535751,0.3121812641620636,0.008324604171669565,0.7237936023628206,0.06704041108928954,-0.14626036920758909,-0.010646548471413553,0.0,0.0,-0.6,0.0,0.002204418182373047,0.003112316131591797,0.004246711730957031,0
0.879509687423706,0.050476860255002975,-0.0571821890771389,0.29406943917274475,0.00820732041691971,0.721931608338631,0.06853707705450782,-0.14898247635083167,-0.010530329192988575,0.0,0.0,-0.6,0.0,0.0009067058563232422,0.0011990070343017578,0.0018494129180908203,0
0.8895800113677979,0.04890777915716171,-0.05807824805378914,0.28507688641548157,0.008141648584033075,0.7201924204444197,0.06977496986980589,-0.15118831134010524,-0.010424348758533597,0.0,0.0,-0.6,0.0,0.0008416175842285156,0.0011010169982910156,0.0016775131225585938,0
0.899430513381958,0.04732020944356918,-0.0589611642062664,0.2761281728744507,0.008086846694708912,0.7185589749936384,0.07077595703031231,-0.15294172838307463,-0.010329611948691308,0.0,0.0,-0.6,0.0,0.0009083747863769531,0.0011992454528808594,0.0017096996307373047,0
0.9095392227172852,0.0457688570022583,-0.05983785167336464,0.2672053873538971,0.00799066490563007,0.7170158280988453,0.07161676776067348,-0.15437556186137402,-0.010227227699942887,0.0,0.0,-0.6,0.0,0.0008709430694580078,0.0011327266693115234,0.0017063617706298828,0
0.9193804264068604,0.044197890907526016,-0.06070391461253166,0.25832775235176086,0.007932962897538465,0.7155486670479743,0.07244268674421468,-0.155524515555216,-0.010133920353837311,0.0,0.0,-0.6,0.0,0.0009543895721435547,0.0012848377227783203,0.0018646717071533203,0
0.9295563697814941,0.04100656881928444,-0.06240309774875641,0.240713968873024,0.007812445135881655,0.7139348127471783,0.07313313089917436,-0.1562500841989307,-0.010023411246947944,0.0,0.0,-0.6,0.0,0.001125335693359375,0.0014529228210449219,0.0021500587463378906,0
0.9395785331726074,0.03938848897814751,-0.06323425471782684,0.23197846114635468,0.007742914198618604,0.7124332042972755,0.07362786811810075,-0.15669960393083132,-0.009919980657286942,0.0,0.0,-0.6,0.0,0.0012509822845458984,0.001596689224243164,0.0023152828216552734,0
0.9495007991790771,0.037753697484731674,-0.0640532448887825,0.2232922464609146,0.007689177203026813,0.7110250268886751,0.07393177327775553,-0.15696623431362525,-0.009827427682466805,0.0,0.0,-0.6,0.0,0.0010387897491455078,0.0013506412506103516,0.001994609832763672,0
0.9595577716827393,0.036103151738643646,-0.06485933065414429,0.21465551853179932,0.007629955241680683,0.7096985727078794,0.07414174690791717,-0.156984585219572,-0.00974043260794133,0.0,0.0,-0.6,0.0,0.0010988712310791016,0.0014078617095947266,0.0020437240600585938,0
0.9696033000946045,0.032760392874479294,-0.06643497198820114,0.1975460797548294,0.0074875394190205115,0.7082537510778686,0.07411213971119024,-0.15650330533167325,-0.00962612999137491,0.0,0.0,-0.6,0.0,0.0014145374298095703,0.0018415451049804688,0.002740144729614258,0
0.9794449806213379,0.031131921336054802,-0.06721364706754684,0.18906506896018982,0.0074233134144061075,0.7069213154582219,0.07395034188367823,-0.15573665950722357,-0.009522033564280719,0.0,0.0,-0.6,0.0,0.0012633800506591797,0.0016660690307617188,0.0024247169494628906,0
0.9899640083312988,0.029491646215319633,-0.06798147410154343,0.18063879013061523,0.007392595415505862,0.7056829020291528,0.0737230591020559,-0.15475050799906478,-0.009437646658625454,0.0,0.0,-0.6,0.0,0.0017485618591308594,0.00237274169921875,0.003404855728149414,0
0.9996106624603271,0.027840139344334602,-0.06873925030231476,0.17226675152778625,0.007349836446097484,0.7045219482063271,0.07344788232572826,-0.1535494131576128,-0.009362541313748807,0.0,0.0,-0.6,0.0,0.0014414787292480469,0.0018303394317626953,0.0025670528411865234,0
1.0095114707946777,0.02450398914515972,-0.07022123038768768,0.155684232711792,0.0072432296592376206,0.70326932657476,0.07278583800075782,-0.15163799134192682,-0.009269990085158497,0.0,0.0,-0.6,0.0,0.001138925552368164,0.0014858245849609375,0.002196788787841797,0
1.0196058750152588,0.02282133884727955,-0.07094597071409225,0.14747652411460876,0.007183705241582717,0.702115262104826,0.07209912813495586,-0.1496670078812916,-0.009182882553432137,0.0,0.0,-0.6,0.0,0.0013728141784667969,0.0017061233520507812,0.0024662017822265625,0
1.0294930934906006,0.021130144596099854,-0.07165942341089249,0.13932278752326965,0.007116949466900149,0.7010422426847368,0.07129873213632315,-0.14768482689551393,-0.009096873924136162,0.0,0.0,-0.6,0.0,0.0011568069458007812,0.0015778541564941406,0.0023577213287353516,0
1.0395526885986328,0.01771903783082962,-0.0730467364192009,0.12318688631057739,0.006996314610136904,0.699899925095656,0.06996593949409295,-0.14505528097394055,-0.008991429582238197,0.0,0.0,-0.6,0.0,0.0014066696166992188,0.0017695426940917969,0.0025491714477539062,0
1.0496292114257812,0.01606222428381443,-0.07372850179672241,0.11519454419612885,0.006912810310543678,0.6988503366857802,0.06861542366977297,-0.14254263860386066,-0.008886304451152682,0.0,0.0,-0.6,0.0,0.0011782646179199219,0.001600503921508789,0.002414226531982422,0
1.059645652770996,0.014397730119526386,-0.07439848780632019,0.10726161301136017,0.00685038721084894,0.6978847278877858,0.06729368030300839,-0.14000867499196604,-0.008789308369159698,0.0,0.0,-0.6,0.0,0.0013098716735839844,0.0016989707946777344,0.002475261688232422,0
1.0695300102233887,0.012726821005344391,-0.07505732029676437,0.0993896946310997,0.006793508905623089,0.6969937770115651,0.06600418591550077,-0.1374551237245681,-0.0087000816129148,0.0,0.0,-0.6,0.0,0.0011870861053466797,0.0015320777893066406,0.0022568702697753906,0
1.0795073509216309,0.009370604529976845,-0.07634059339761734,0.0838308185338974,0.0066692142081273284,0.6960505316070336,0.06427187775670085,-0.13398456139290169,-0.008591012272518128,0.0,0.0,-0.6,0.0,0.0011568069458007812,0.0014538764953613281,0.0021033287048339844,0
1.0897507667541504,0.007685272488743067,-0.07696402072906494,0.07614206522703171,0.006617827410098574,0.6951852528572952,0.06257151139314276,-0.13078200242301852,-0.008495393791235983,0.0,0.0,-0.6,0.0,0.0012731552124023438,0.0016639232635498047,0.002408266067504883,0
1.0996203422546387,0.005995326209813356,-0.0775747150182724,0.06849338859319687,0.006550086565349066,0.6943919111229292,0.06092384712191798,-0.1277332491539235,-0.008403058047406375,0.0,0.0,-0.6,0.0,0.00128173828125,0.0016443729400634766,0.0024008750915527344,0
1.1095471382141113,0.004303285386413336,-0.07817475497722626,0.06090831011533737,0.0064784259661349,0.6936581447506039,0.0593835810602927,-0.12470024240456012,-0.008311550365760922,0.0,0.0,-0.6,0.0,0.001081228256225586,0.0014388561248779297,0.002127408981323242,0
1.1196208000183105,0.0009840421844273806,-0.07934676855802536,0.04592227563261986,0.006369887959691063,0.6928885392303277,0.05723687632276449,-0.12065316512681154,-0.008206793165300041,0.0,0.0,-0.6,0.0,0.0012018680572509766,0.001567840576171875,0.0022857189178466797,0
1.129784107208252,-0.0006421408616006374,-0.07991837710142136,0.03852250799536705,0.006328013804561335,0.6921911834937433,0.05530633430551125,-0.11684584363728184,-0.008117760415188968,0.0,0.0,-0.6,0.0,0.0012192726135253906,0.0015873908996582031,0.0023610591888427734,0
1.1395440101623535,-0.002269152319058776,-0.08047909289598465,0.031188881024718285,0.006270887003822737,0.6915528100008398,0.05348868642056283,-0.1132039073503277,-0.008034014725126326,0.0,0.0,-0.6,0.0,0.0013363361358642578,0.0016939640045166016,0.0023577213287353516,0
1.1499745845794678,-0.0038951225578784943,-0.08102800697088242,0.02392103709280491,0.0062198480137564925,0.6909634091142306,0.05179014446293803,-0.1096508407345306,-0.007956253190059215,0.0,0.0,-0.6,0.0,0.002162933349609375,0.0028929710388183594,0.0042095184326171875,0
1.1595749855041504,-0.007145336829125881,-0.08209075033664703,0.009581738151609898,0.006063828934391815,0.6903474295692714,0.04958402766572016,-0.10527491361951676,-0.007843312982004136,0.0,0.0,-0.6,0.0,0.0014171600341796875,0.001901388168334961,0.002854585647583008,0
1.1696701049804688,-0.00876905582845211,-0.08260133862495422,0.0024875616654753685,0.0060085798095433005,0.6897870010647866,0.047437180020845786,-0.10126290072930283,-0.007743536552879959,0.0,0.0,-0.6,0.0,0.001283884048461914,0.0016560554504394531,0.0024292469024658203,0
1.179779052734375,-0.010390128009021282,-0.08309789001941681,-0.0045395465567708015,0.005932510569374666,0.6892763335164149,0.045329450256923,-0.09746782920406308,-0.0076451668865047395,0.0,0.0,-0.6,0.0,0.0012807846069335938,0.0016384124755859375,0.0024666786193847656,0
1.1894879341125488,-0.01194207463413477,-0.0835895985364914,-0.011507295072078705,0.005874569818280697,0.6888098815515963,0.043313859670544276,-0.09380361005576862,-0.007554580515716225,0.0,0.0,-0.6,0.0,0.0009589195251464844,0.0013039112091064453,0.0019168853759765625,0
1.1996204853057861,-0.015036622062325478,-0.08453348278999329,-0.02523835375905037,0.005726248892189752,0.6883288389975825,0.04080145503418042,-0.08924929183409556,-0.0074355496326461434,0.0,0.0,-0.6,0.0,0.0012404918670654297,0.0016014575958251953,0.0023038387298583984,0
1.2096059322357178,-0.016577526926994324,-0.08498448133468628,-0.03200214356184006,0.005666507445984996,0.6878935839443584,0.03846952100669988,-0.08507468510909567,-0.007329825020860881,0.0,0.0,-0.6,0.0,0.0012137889862060547,0.0015566349029541016,0.002294778823852539,0
1.2195289134979248,-0.018113315105438232,-0.08542153239250183,-0.038697749376297,0.00563001945900514,0.6875018063010392,0.036315725660753084,-0.08116432074506781,-0.007242134946864098,0.0,0.0,-0.6,0.0,0.0011203289031982422,0.0014455318450927734,0.002069234848022461,0
1.2297189235687256,-0.019643450155854225,-0.08584632724523544,-0.04532450810074806,0.005556039284426086,0.6871457852375799,0.03429863454723964,-0.07739903004230266,-0.007153009297326207,0.0,0.0,-0.6,0.0,0.0014545917510986328,0.0019562244415283203,0.0029230117797851562,0
1.2396836280822754,-0.02116684429347515,-0.08625678718090057,-0.05188387632369995,0.00546990590096984,0.6868185525118273,0.032276297932772334,-0.07376131953893043,-0.007058321207296103,0.0,0.0,-0.6,0.0,0.001768350601196289,0.002421855926513672,0.0034821033477783203,0
1.2496888637542725,-0.02625349722802639,-0.08992549777030945,-0.0687769204378128,0.005381469898685096,0.6863741221211097,0.031117161088829136,-0.07034982735778901,-0.006958876212593168,0.0,0.0,-0.6,0.0,0.001383066177368164,0.001806020736694336,0.0026502609252929688,0
1.2598512172698975,-0.0287071131169796,-0.09169813245534897,-0.07705239951610565,0.005324079971772327,0.6859272489797914,0.03047024023427268,-0.06750843799030978,-0.006867743271868676,0.0,0.0,-0.6,0.0,0.0013942718505859375,0.0017976760864257812,0.0026514530181884766,0
1.2695462703704834,-0.031132128089666367,-0.09342805296182632,-0.08521170914173126,0.005277308637025928,0.6854858606268225,0.030163812826737215,-0.06500211559744531,-0.006786411046050489,0.0,0.0,-0.6,0.0,0.0010380744934082031,0.0013854503631591797,0.002025127410888672,0
1.2796142101287842,-0.03589601069688797,-0.09675810486078262,-0.10118549317121506,0.0051857736122667515,0.6849769278949772,0.030112406917389468,-0.06231416063877077,-0.006695152726024389,0.0,0.0,-0.6,0.0,0.0012412071228027344,0.0015878677368164062,0.0023136138916015625,0
1.2898519039154053,-0.03823519125580788,-0.09836029261350632,-0.10900294035673141,0.005139946167539825,0.6844981865964442,0.03020513308351895,-0.05994598557541938,-0.006614086625631899,0.0,0.0,-0.6,0.0,0.001207113265991211,0.0015535354614257812,0.002337217330932617,0
1.2995274066925049,-0.040545057505369186,-0.09992240369319916,-0.1167096272110939,0.005087526511416522,0.6840441865790885,0.030365065769826106,-0.057802398087853306,-0.006537682958878577,0.0,0.0,-0.6,0.0,0.0010523796081542969,0.0013844966888427734,0.0019876956939697266,0
1.309645175933838,-0.042826857417821884,-0.10144457221031189,-0.12430765479803085,0.0050430261361794956,0.6836147617397191,0.03057225537790287,-0.05587253988892938,-0.006467512808740139,0.0,0.0,-0.6,0.0,0.00147247314453125,0.001984119415283203,0.0029458999633789062,0
1.3197219371795654,-0.04730483517050743,-0.10437250882387161,-0.13916032016277313,0.004934122949483355,0.6831553808477645,0.030820592952596364,-0.053559170460623515,-0.006377554906066507,0.0,0.0,-0.6,0.0,0.0017049312591552734,0.0022046566009521484,0.0032083988189697266,0
1.3296897411346436,-0.04945311322808266,-0.10578558593988419,-0.14643509685993195,0.004891974605634854,0.6827312062118899,0.030983459246247923,-0.051447340457890206,-0.006298778811469674,0.0,0.0,-0.6,0.0,0.001600027084350586,0.0022153854370117188,0.003604412078857422,0
1.340271234512329,-0.0515732504427433,-0.10715991258621216,-0.15360598266124725,0.0048493412695054,0.6823417355546912,0.031083476358197155,-0.049464432915137635,-0.006227648234926164,0.0,0.0,-0.6,0.0,0.0029201507568359375,0.0037353038787841797,0.005486726760864258,0
1.349724292755127,-0.05366571620106697,-0.10849729180335999,-0.16067266464233398,0.0047899431071984945,0.6819860219663546,0.031178680697979053,-0.04763117340430772,-0.006155582203064114,0.0,0.0,-0.6,0.0,0.00144195556640625,0.00193023681640625,0.003040313720703125,0
1.3596949577331543,-0.057770222425460815,-0.11106444895267487,-0.17449578642845154,0.004708976605619998,0.6816288228744262,0.031239040353576226,-0.04537873859994037,-0.006074773671571165,0.0,0.0,-0.6,0.0,0.001417398452758789,0.0019156932830810547,0.0028498172760009766,0
1.3698110580444336,-0.059783004224300385,-0.11229642480611801,-0.18125270307064056,0.0046637846271007834,0.6813138039937264,0.031278992973699335,-0.04337319560202144,-0.006001260713674128,0.0,0.0,-0.6,0.0,0.0017328262329101562,0.0022678375244140625,0.003295421600341797,0
1.3796215057373047,-0.061769042164087296,-0.11349399387836456,-0.18790863454341888,0.004624752518008883,0.6810313902313667,0.03123482992919506,-0.04146458785903048,-0.005935164692346007,0.0,0.0,-0.6,0.0,0.0011093616485595703,0.001463174819946289,0.0021202564239501953,0
1.3896958827972412,-0.06372801214456558,-0.11465718597173691,-0.19445347785949707,0.0046033383811830255,0.6807800820429517,0.031132999095973942,-0.039679357236755995,-0.005880867247469723,0.0,0.0,-0.6,0.0,0.0014226436614990234,0.0019865036010742188,0.002965211868286133,0
1.399510383605957,-0.06751894950866699,-0.11689072847366333,-0.20725467801094055,0.004528592321001621,0.6805360834584103,0.030813239902182248,-0.03743638637121971,-0.005814829200971872,0.0,0.0,-0.6,0.0,0.0017230510711669922,0.0022497177124023438,0.0032083988189697266,0
1.4095008373260498,-0.06935125589370728,-0.11795979738235474,-0.21351419389247894,0.004489003444435512,0.6803246125253556,0.030420914494940363,-0.03544803499348614,-0.005753756558988243,0.0,0.0,-0.6,0.0,0.0012276172637939453,0.0015912055969238281,0.0023086071014404297,0
1.4197254180908203,-0.07115822285413742,-0.11899568885564804,-0.2196771502494812,0.00446322248680802,0.6801441273238555,0.029985445092774798,-0.03356133948764333,-0.005701337882783264,0.0,0.0,-0.6,0.0,0.0012879371643066406,0.0016357898712158203,0.0024280548095703125,0
1.4294369220733643,-0.07293844223022461,-0.11999975144863129,-0.22574444115161896,0.004424925800114577,0.6799901457395598,0.0294884774507821,-0.03172321578471311,-0.005650283710565418,0.0,0.0,-0.6,0.0,0.00093841552734375,0.0012679100036621094,0.001863718032836914,0
1.4395678043365479,-0.0764184296131134,-0.12191155552864075,-0.23759502172470093,0.004326797217293443,0.6798577312527836,0.02875547628948416,-0.029434803722053114,-0.005577747419010848,0.0,0.0,-0.6,0.0,0.00131988525390625,0.0016586780548095703,0.0023729801177978516,0
1.4496774673461914,-0.07811911404132843,-0.122820183634758,-0.24338360130786896,0.004278393967330695,0.679757846765665,0.028015831272172234,-0.027365579474425687,-0.005508820933755487,0.0,0.0,-0.6,0.0,0.002183198928833008,0.0027408599853515625,0.0037338733673095703,0
1.45963454246521,-0.07979438453912735,-0.12369843572378159,-0.24907782673835754,0.004229715011101461,0.6796824542892387,0.02726180202945662,-0.025466336169356542,-0.005442317691631615,0.0,0.0,-0.6,0.0,0.001317739486694336,0.0017311573028564453,0.0024831295013427734,0
1.4695935249328613,-0.0813901275396347,-0.12455520778894424,-0.25468650460243225,0.004170323065928664,0.6796274571488983,0.026518538250888304,-0.02368123443081014,-0.0053734935354441404,0.0,0.0,-0.6,0.0,0.0012178421020507812,0.0015842914581298828,0.002325773239135742,0
1.4795525074005127,-0.08296173810958862,-0.12538272142410278,-0.26020336151123047,0.004117575967633819,0.6795944444833716,0.025754814681330288,-0.021924360899879303,-0.005305536382365972,0.0,0.0,-0.6,0.0,0.0011639595031738281,0.0015387535095214844,0.0023069381713867188,0
1.489837884902954,-0.08602897822856903,-0.1269506961107254,-0.27096298336982727,0.003963474047486775,0.6795945175109237,0.024713365375910464,-0.019655882408635278,-0.005200178129598498,0.0,0.0,-0.6,0.0,0.0013551712036132812,0.0018341541290283203,0.0026862621307373047,0
1.499807596206665,-0.08752543479204178,-0.1276918649673462,-0.2762083113193512,0.0039121100681007775,0.6796099353763868,0.0236640835458964,-0.01759079713171593,-0.005107165721710771,0.0,0.0,-0.6,0.0,0.0020678043365478516,0.002680540084838867,0.0043256282806396484,0
1.5097134113311768,-0.0889974907040596,-0.12840352952480316,-0.2813832461833954,0.003881202354716245,0.6796397398895859,0.022612601343426204,-0.015628966085252986,-0.005030466854805127,0.0,0.0,-0.6,0.0,0.0018270015716552734,0.002465486526489258,0.003665924072265625,0
1.519730567932129,-0.09186798334121704,-0.12974143028259277,-0.2914685010910034,0.003823520662034697,0.6797071770705382,0.02122853902128105,-0.013285324673943997,-0.004955147072905675,0.0,0.0,-0.6,0.0,0.0014963150024414062,0.0019328594207763672,0.0028672218322753906,0
1.5297741889953613,-0.09326709061861038,-0.13036958873271942,-0.2963804304599762,0.003772698014768702,0.6797862256208409,0.019952551381360012,-0.01115383122139062,-0.004883364716079086,0.0,0.0,-0.6,0.0,0.0013365745544433594,0.0017125606536865234,0.002579212188720703,0
1.5395479202270508,-0.09458411484956741,-0.13097906112670898,-0.30121293663978577,0.003716082413299012,0.6798767838569423,0.01868013776067577,-0.009092037154076756,-0.0048118861159309745,0.0,0.0,-0.6,0.0,0.0011050701141357422,0.0015075206756591797,0.00220489501953125,0
1.5496525764465332,-0.09587620943784714,-0.1315605789422989,-0.305960476398468,0.0036989687380442633,0.6799742811834263,0.017397675883740395,-0.007123314667961548,-0.0047554335615132,0.0,0.0,-0.6,0.0,0.0013346672058105469,0.0017452239990234375,0.0025849342346191406,0
1.559560775756836,-0.09838922321796417,-0.13263927400112152,-0.3152051568031311,0.0036004259497201202,0.6801116115005679,0.015647765746978404,-0.004805637317739284,-0.004678963188780472,0.0,0.0,-0.6,0.0,0.0012319087982177734,0.001645803451538086,0.0024230480194091797,0
1.5695440769195557,-0.09961169958114624,-0.13313715159893036,-0.3197041153907776,0.003552485382851873,0.6802515205155601,0.014042118238900069,-0.002707159969741495,-0.004607456299709156,0.0,0.0,-0.6,0.0,0.001186370849609375,0.0015540122985839844,0.0022742748260498047,0
1.579746961593628,-0.10081030428409576,-0.13360801339149475,-0.3241017162799835,0.003506651451397416,0.6803980927969444,0.012513053041373958,-0.0007258429390063449,-0.004540213703876361,0.0,0.0,-0.6,0.0,0.0013060569763183594,0.0016596317291259766,0.002429485321044922,0
1.5895354747772217,-0.10198553651571274,-0.13405226171016693,-0.32841843366622925,0.00345881795478739,0.6805531587658235,0.011053502918678284,0.0011109193043351174,-0.0044752062822226435,0.0,0.0,-0.6,0.0,0.0011818408966064453,0.0016617774963378906,0.0024471282958984375,0
1.599820852279663,-0.10426768660545349,-0.1348632276058197,-0.3368150591850281,0.003379581792408198,0.6807568794941129,0.00923243928103999,0.0033997609237727804,-0.004399987607030198,0.0,0.0,-0.6,0.0,0.001649618148803711,0.0021283626556396484,0.0031616687774658203,0
1.6098666191101074,-0.10531142354011536,-0.13523833453655243,-0.340901255607605,0.00333751392688783,0.6809602116795174,0.0075408914359855524,0.0055067309081016464,-0.004331559059210122,0.0,0.0,-0.6,0.0,0.0013856887817382812,0.0017747879028320312,0.002681732177734375,0
1.619605541229248,-0.10633349418640137,-0.1355871856212616,-0.34491151571273804,0.0032909047051984503,0.681161560205716,0.005867749589663201,0.007398151371550944,-0.004266180651029572,0.0,0.0,-0.6,0.0,0.001102447509765625,0.0014576911926269531,0.0021321773529052734,0
1.629624366760254,-0.10733507573604584,-0.13590940833091736,-0.34884506464004517,0.003231902078507575,0.6813695445341166,0.0042432054231677585,0.009142907661720115,-0.004198289767373353,0.0,0.0,-0.6,0.0,0.001168966293334961,0.001523733139038086,0.0023009777069091797,0
1.6395184993743896,-0.1083153709769249,-0.13620625436306,-0.3527020514011383,0.003155935268107091,0.6815797398868144,0.002684471926007369,0.010797740672949946,-0.004122278478462249,0.0,0.0,-0.6,0.0,0.001033782958984375,0.0013785362243652344,0.0020568370819091797,0
1.6494863033294678,-0.11067229509353638,-0.13772444427013397,-0.3587128818035126,0.003088537305415327,0.6817267592831449,0.0016577975873974206,0.011606996927044871,-0.0040437963616568595,0.0,0.0,-0.6,0.0,0.0012176036834716797,0.0016448497772216797,0.0024480819702148438,0
1.6598482131958008,-0.11523415893316269,-0.14059974253177643,-0.3703378736972809,0.003058585612813986,0.6818111738087999,0.0011690594719489388,0.01164256616483048,-0.003977626998675987,0.0,0.0,-0.6,0.0,0.0018470287322998047,0.0023615360260009766,0.0034017562866210938,0
1.6695101261138916,-0.11744014918804169,-0.14196227490901947,-0.3759600818157196,0.0030552504099805823,0.6818664123220952,0.0010124498822836163,0.011439812026815521,-0.003930057777324691,0.0,0.0,-0.6,0.0,0.0011677742004394531,0.0015671253204345703,0.0023534297943115234,0
1.6794307231903076,-0.1216668114066124,-0.14454631507396698,-0.3868408203125,0.002984375924459475,0.6818969048380693,0.000981205845515255,0.010844891749792604,-0.0038701813900843263,0.0,0.0,-0.6,0.0,0.001249551773071289,0.0016205310821533203,0.002333402633666992,0
1.6898002624511719,-0.12368909269571304,-0.14576655626296997,-0.3921029269695282,0.0029784802525403063,0.6819164715787231,0.0010440750609576953,0.010225359021349491,-0.003826057043625042,0.0,0.0,-0.6,0.0,0.0013849735260009766,0.0018954277038574219,0.0028717517852783203,0
1.6997172832489014,-0.12566635012626648,-0.1469401866197586,-0.3972485363483429,0.002949261774417038,0.6819269381980916,0.001160055411795949,0.009541210803117112,-0.0037842130986973643,0.0,0.0,-0.6,0.0,0.0014865398406982422,0.001947164535522461,0.002891063690185547,0
1.709784984588623,-0.1275993138551712,-0.1480671465396881,-0.4022793769836426,0.002916939224183693,0.6819357175318556,0.001239564150935698,0.008869539932124993,-0.0037428013456519693,0.0,0.0,-0.6,0.0,0.0017020702362060547,0.0023310184478759766,0.003428220748901367,0
1.7196636199951172,-0.12948863208293915,-0.14914833009243011,-0.4071979522705078,0.002873490108105708,0.6819390896777936,0.001318336524915288,0.00817732696486086,-0.0036975197726860642,0.0,0.0,-0.6,0.0,0.0015132427215576172,0.0019850730895996094,0.002911090850830078,0
1.7296264171600342,-0.1313343644142151,-0.1501854658126831,-0.41201549768447876,0.002823082579535978,0.6819434499207776,0.0014147253178446203,0.007520492914851228,-0.003646919794846326,0.0,0.0,-0.6,0.0,0.0012476444244384766,0.0016226768493652344,0.00237274169921875,0
1.739624261856079,-0.13489870727062225,-0.15212984383106232,-0.42132166028022766,0.0027479168716206294,0.6819689195191836,0.0014432572453077443,0.006702623321141023,-0.0035833126748912036,0.0,0.0,-0.6,0.0,0.0011386871337890625,0.001470327377319336,0.002132892608642578,0
1.7495436668395996,-0.13662059605121613,-0.1530376374721527,-0.4258146584033966,0.002711250268080432,0.6819980957482291,0.0014165269353985188,0.005903428846071804,-0.0035250376677140594,0.0,0.0,-0.6,0.0,0.001032114028930664,0.0013897418975830078,0.0020449161529541016,0
1.759610891342163,-0.13985726237297058,-0.15474292635917664,-0.4345034956932068,0.0026428313619299396,0.682053623873662,0.0013094161682327226,0.004990955590887528,-0.0034585880348458886,0.0,0.0,-0.6,0.0,0.0011816024780273438,0.0015380382537841797,0.002277374267578125,0
1.7698137760162354,-0.14141948521137238,-0.15553395450115204,-0.438694566488266,0.0026093927603734832,0.6821169319487186,0.0011523644172282443,0.0042567033225193104,-0.003399533947231248,0.0,0.0,-0.6,0.0,0.0012257099151611328,0.0015842914581298828,0.002396106719970703,0
1.779522180557251,-0.14294444024562836,-0.1562851369380951,-0.4427860677242279,0.0025805758641761585,0.6821904707653589,0.0009448611976447391,0.0035750684204584704,-0.003347389691043645,0.0,0.0,-0.6,0.0,0.0010402202606201172,0.0013616085052490234,0.001984119415283203,0
1.7899324893951416,-0.14443473517894745,-0.15699712932109833,-0.44677817821502686,0.0025326385698629266,0.6822756807532726,0.0007056800856084733,0.00297367741232574,-0.0032929122971836478,0.0,0.0,-0.6,0.0,0.0011973381042480469,0.0015447139739990234,0.002297639846801758,0
1.7995245456695557,-0.14730212092399597,-0.1583082228899002,-0.4544903635978699,0.0024736973835701296,0.682390505354865,0.00030208486481185347,0.0026914813977786715,-0.0032326750515494496,0.0,0.0,-0.6,0.0,0.0010144710540771484,0.001367330551147461,0.002022981643676758,0
1.8095858097076416,-0.1486784964799881,-0.15890838205814362,-0.45820558071136475,0.0024389127471587603,0.6825109822383751,-0.00013348420521079048,0.0025950477376188697,-0.0031774647650308907,0.0,0.0,-0.6,0.0,0.0015065670013427734,0.002019166946411133,0.002984762191772461,0
1.8200228214263916,-0.1500181257724762,-0.15947167575359344,-0.4618285894393921,0.0023966299665702227,0.6826371897895874,-0.0006036154836825177,0.002579220582083287,-0.0031229615269694477,0.0,0.0,-0.6,0.0,0.0018463134765625,0.0023794174194335938,0.003614187240600586,0
1.829507827758789,-0.1512761265039444,-0.16000515222549438,-0.4653668701648712,0.0023611373083051073,0.6827688502019298,-0.0010550467682859481,0.002548877145407082,-0.0030714995227754116,0.0,0.0,-0.6,0.0,0.001134634017944336,0.0015149116516113281,0.0022628307342529297,0
1.8395860195159912,-0.15369383990764618,-0.16096732020378113,-0.47217437624931335,0.0022726484325835913,0.6829470762447635,-0.0017196998618521963,0.0026065375884192173,-0.003002292854944244,0.0,0.0,-0.6,0.0,0.0011827945709228516,0.001522064208984375,0.0021948814392089844,0
1.849677562713623,-0.15485459566116333,-0.16139660775661469,-0.47544580698013306,0.002228661343574046,0.6831275648540549,-0.0024287810713466357,0.002687608458444555,-0.002937353012384847,0.0,0.0,-0.6,0.0,0.001096487045288086,0.0014445781707763672,0.002180337905883789,0
1.859513759613037,-0.15598423779010773,-0.16179075837135315,-0.4786309003829956,0.0022014122816097765,0.6833112825289517,-0.0031680963666858106,0.0027989300256241415,-0.002881676744436845,0.0,0.0,-0.6,0.0,0.0010142326354980469,0.0013289451599121094,0.0019512176513671875,0
1.8696606159210205,-0.1570827215909958,-0.1621498316526413,-0.48173612356185913,0.00215277279690232,0.6834984605598063,-0.003979317095946998,0.0029191129334268664,-0.002824463532306254,0.0,0.0,-0.6,0.0,0.0011856555938720703,0.0015053749084472656,0.002278566360473633,0
1.8795292377471924,-0.15918929874897003,-0.16276943683624268,-0.48769453167915344,0.0020801431852756408,0.6837361043437269,-0.0049446944503440705,0.0031439045194657056,-0.0027571781538426876,0.0,0.0,-0.6,0.0,0.0011403560638427734,0.0014917850494384766,0.002218008041381836,0
1.8895666599273682,-0.16019685566425323,-0.16303156316280365,-0.49055159091949463,0.0020422504169946994,0.6839675873085704,-0.0058882642438850994,0.0034780203922684274,-0.002695868635782972,0.0,0.0,-0.6,0.0,0.0012331008911132812,0.001672983169555664,0.0024361610412597656,0
1.899907112121582,-0.16112524271011353,-0.16326943039894104,-0.493336021900177,0.002019955240805815,0.684194890036321,-0.006791705621233495,0.003863532825340175,-0.0026445912080816925,0.0,0.0,-0.6,0.0,0.0018320083618164062,0.0023436546325683594,0.0034317970275878906,0
1.9095196723937988,-0.16202561557292938,-0.16347673535346985,-0.49604174494743347,0.0020102570441823775,0.6844248378995957,-0.007701921073906635,0.004242877287199621,-0.0026050601445604116,0.0,0.0,-0.6,0.0,0.0012097358703613281,0.0016095638275146484,0.0023398399353027344,0
1.9195916652679443,-0.16374564170837402,-0.16379405558109283,-0.5012196898460388,0.0019139786881627147,0.6847079176298986,-0.009051722695391456,0.004795557925717287,-0.0025412840768694878,0.0,0.0,-0.6,0.0,0.0011751651763916016,0.001512289047241211,0.002202749252319336,0
1.9297521114349365,-0.16456560790538788,-0.1639060080051422,-0.5036937594413757,0.0018677257847165853,0.6849873726010783,-0.010283445786524964,0.005341117738258358,-0.002479295973898843,0.0,0.0,-0.6,0.0,0.0012645721435546875,0.0016431808471679688,0.0024912357330322266,0
1.9395301342010498,-0.16535836458206177,-0.1639900803565979,-0.5061118006706238,0.0018226738874937394,0.6852599197894056,-0.01129677573431719,0.0059622765386075985,-0.002419009877485223,0.0,0.0,-0.6,0.0,0.0009570121765136719,0.0012669563293457031,0.001856088638305664,0
1.949681043624878,-0.16612257063388824,-0.16404752433300018,-0.5084566473960876,0.0017857652972992407,0.6855291018738379,-0.01225765568100593,0.00665487649095165,-0.002362968909437768,0.0,0.0,-0.6,0.0,0.0010957717895507812,0.0014412403106689453,0.0021200180053710938,0
1.9595274925231934,-0.16751398146152496,-0.1640855222940445,-0.5129357576370239,0.0017125529209666497,0.6858541733833459,-0.013592859383859155,0.007594633362904995,-0.002296285587362945,0.0,0.0,-0.6,0.0,0.0010373592376708984,0.0013728141784667969,0.002020597457885742,0
1.969482183456421,-0.1681431084871292,-0.1640653759241104,-0.5150709748268127,0.0016652165253033368,0.6861700249704765,-0.014848651010368693,0.008540729911918225,-0.0022318560804706067,0.0,0.0,-0.6,0.0,0.0011012554168701172,0.0014240741729736328,0.0020673274993896484,0
1.9796726703643799,-0.16874659061431885,-0.16401682794094086,-0.5171359777450562,0.00160252035889391,0.6864789975552013,-0.01607631893860694,0.009519904670081404,-0.0021632443531416357,0.0,0.0,-0.6,0.0,0.0011513233184814453,0.0014808177947998047,0.0021958351135253906,0
1.989490032196045,-0.16932550072669983,-0.16394002735614777,-0.5191323161125183,0.0015648264631943874,0.6867828884900011,-0.017278541345731813,0.010479019978161544,-0.0021010809286963195,0.0,0.0,-0.6,0.0,0.0009450912475585938,0.0012509822845458984,0.001836538314819336,0
1.9995057582855225,-0.17040897905826569,-0.16370442509651184,-0.5229256749153137,0.0015054431088788224,0.6871335916654062,-0.01882517279438346,0.011781933632590572,-0.002035297788097523,0.0,0.0,-0.6,0.0,0.0011186599731445312,0.0014514923095703125,0.0021305084228515625,0
2.00957989692688,-0.17091338336467743,-0.16354623436927795,-0.5247464179992676,0.001464864271750189,0.6874700058957389,-0.020260664398573158,0.012980204384477452,-0.001974032580619678,0.0,0.0,-0.6,0.0,0.0011858940124511719,0.0015227794647216797,0.0022552013397216797,0
2.019547939300537,-0.17139503359794617,-0.16336147487163544,-0.5265019536018372,0.0014460352470391609,0.6878005406861606,-0.021598491519694646,0.01407157943974608,-0.0019240860419813544,0.0,0.0,-0.6,0.0,0.0009958744049072266,0.0013191699981689453,0.0019314289093017578,0
2.029860734939575,-0.17185382544994354,-0.16315129399299622,-0.528192937374115,0.0014273003345208091,0.68812376324358,-0.022895849817989353,0.015114620091922498,-0.0018820978584699333,0.0,0.0,-0.6,0.0,0.002462148666381836,0.003165006637573242,0.004408121109008789,0
2.039794921875,-0.17361097037792206,-0.16387997567653656,-0.5336353778839111,0.0013865498118194317,0.6884342107924146,-0.023966391453015105,0.016015922032774278,-0.00183742462832015,0.0,0.0,-0.6,0.0,0.0019085407257080078,0.0025327205657958984,0.003616809844970703,0
2.049583911895752,-0.17494559288024902,-0.16478651762008667,-0.5373257994651794,0.001383220504559278,0.6886791192140006,-0.024454632397813026,0.0164929848183785,-0.0018049049394903705,0.0,0.0,-0.6,0.0,0.0018038749694824219,0.002416849136352539,0.0034530162811279297,0
2.059619903564453,-0.17623664438724518,-0.16564279794692993,-0.5409006476402283,0.0013782054094473172,0.6888716067434145,-0.02456442597493914,0.01670070565446402,-0.0017802604852477089,0.0,0.0,-0.6,0.0,0.001497507095336914,0.0019431114196777344,0.002803802490234375,0
2.0694572925567627,-0.1774848848581314,-0.16645029187202454,-0.5443635582923889,0.0013669453173665899,0.6890247224454694,-0.02437567675684833,0.01671261638075465,-0.0017587868351256475,0.0,0.0,-0.6,0.0,0.0009624958038330078,0.0012984275817871094,0.001971006393432617,0
2.0794644355773926,-0.1786898970603943,-0.16721069812774658,-0.5477158427238464,0.0013278876603374712,0.6891503111213436,-0.02398148954735828,0.016664479643898257,-0.0017291086551267654,0.0,0.0,-0.6,0.0,0.0010390281677246094,0.001348257064819336,0.001987457275390625,0
2.0897748470306396,-0.18097639083862305,-0.16859367489814758,-0.5540704727172852,0.001253605178872555,0.6892581270123802,-0.023304002547714656,0.01637344983512071,-0.0016804779879748821,0.0,0.0,-0.6,0.0,0.0011637210845947266,0.0015137195587158203,0.002231597900390625,0
2.0995185375213623,-0.18206122517585754,-0.16921734809875488,-0.5570937395095825,0.0011976801800197751,0.6893507578418987,-0.02256566373025833,0.01600646176679557,-0.0016254646325251088,0.0,0.0,-0.6,0.0,0.0010204315185546875,0.0013434886932373047,0.0019366741180419922,0
2.1097793579101562,-0.18305909633636475,-0.1698039174079895,-0.5600237250328064,0.001165762062227715,0.6894357615988882,-0.021870334013875562,0.01566233486710877,-0.0015749860176583752,0.0,0.0,-0.6,0.0,0.001821279525756836,0.002824068069458008,0.0038759708404541016,0
2.1196022033691406,-0.1849425584077835,-0.1708480417728424,-0.5655903816223145,0.0011429687475465041,0.6895270172756544,-0.02097341879431797,0.015282556257406215,-0.0015311034803744406,0.0,0.0,-0.6,0.0,0.0012769699096679688,0.001680612564086914,0.002458810806274414,0
2.12955379486084,-0.18582989275455475,-0.17130888998508453,-0.5682308673858643,0.0011332102347714008,0.6896175807833319,-0.02016922239518515,0.015015012336062976,-0.0014967262832215056,0.0,0.0,-0.6,0.0,0.001134634017944336,0.0015270709991455078,0.0022411346435546875,0
2.1398913860321045,-0.1866811215877533,-0.17172867059707642,-0.5707778930664062,0.0011048672562839477,0.6897097968729274,-0.019473287659850864,0.014778747760955053,-0.0014620335859945044,0.0,0.0,-0.6,0.0,0.0017790794372558594,0.002290010452270508,0.0033998489379882812,0
2.149519205093384,-0.1874985694885254,-0.17210792005062103,-0.5732337236404419,0.0010816262134934196,0.6898018689314562,-0.01888736954394932,0.01452933838116532,-0.0014290332910604775,0.0,0.0,-0.6,0.0,0.0011548995971679688,0.0015518665313720703,0.0022859573364257812,0
2.159620761871338,-0.1890314519405365,-0.172748401761055,-0.5779117345809937,0.0010532846977955822,0.6899185687389833,-0.018263843423309643,0.014424480115916922,-0.0013953050802228972,0.0,0.0,-0.6,0.0,0.0013456344604492188,0.0017118453979492188,0.0024917125701904297,0
2.169724941253662,-0.18974600732326508,-0.17301246523857117,-0.5801200270652771,0.0010336490199139528,0.6900384350693495,-0.017774849543779007,0.014422858718550155,-0.001364331939839758,0.0,0.0,-0.6,0.0,0.0013065338134765625,0.0016598701477050781,0.0024895668029785156,0
2.179553508758545,-0.19038034975528717,-0.17324690520763397,-0.5822505950927734,0.0009852361914744715,0.6901603221421939,-0.017290340884764797,0.014536658709803911,-0.001324495897279121,0.0,0.0,-0.6,0.0,0.0010976791381835938,0.0014460086822509766,0.00209808349609375,0
2.189655303955078,-0.1909828782081604,-0.17344795167446136,-0.5842980146408081,0.0009651314750711555,0.6902862661102497,-0.016829037974718932,0.014675506552429728,-0.0012890713987872005,0.0,0.0,-0.6,0.0,0.0010523796081542969,0.0013651847839355469,0.0020182132720947266,0
2.1995484828948975,-0.19209624826908112,-0.173751562833786,-0.5881500840187073,0.0009284140629100031,0.6904473437765088,-0.016407084335323004,0.015007655612796508,-0.0012505052582127973,0.0,0.0,-0.6,0.0,0.001081705093383789,0.0014116764068603516,0.002078533172607422,0
2.20943546295166,-0.1926068514585495,-0.17385390400886536,-0.5899577736854553,0.0009097477572487863,0.6906132629145515,-0.016122487026601216,0.015402449176820753,-0.001216509066580329,0.0,0.0,-0.6,0.0,0.0010466575622558594,0.0013570785522460938,0.001982450485229492,0
2.2195465564727783,-0.1930871307849884,-0.17392447590827942,-0.5917162895202637,0.0008994888545921958,0.6907814568131404,-0.015856174512483806,0.015831312119287212,-0.0011888646768056788,0.0,0.0,-0.6,0.0,0.0011391639709472656,0.0014607906341552734,0.0021271705627441406,0
2.22953724861145,-0.1935386061668396,-0.17396481335163116,-0.5933979749679565,0.0008772617829815475,0.6909523580116237,-0.015626151449109196,0.01624601321086528,-0.0011611784429987893,0.0,0.0,-0.6,0.0,0.0009949207305908203,0.0013275146484375,0.0019345283508300781,0
2.239501953125,-0.19435817003250122,-0.1739516705274582,-0.5965394973754883,0.0008258235461780304,0.6911567601296034,-0.015578521231982083,0.01673960616933534,-0.0011225087291677482,0.0,0.0,-0.6,0.0,0.0014154911041259766,0.0018858909606933594,0.0027620792388916016,0
2.249725341796875,-0.19467632472515106,-0.1739060878753662,-0.5980091094970703,0.0008221883820076801,0.6913584267470765,-0.015518729866812882,0.017196615514978558,-0.001094076746085193,0.0,0.0,-0.6,0.0,0.0014405250549316406,0.0018270015716552734,0.0027532577514648438,0
2.2594597339630127,-0.19496974349021912,-0.17383161187171936,-0.5994085073471069,0.0007845057539941212,0.6915556147411116,-0.015558603019766864,0.017620761847230243,-0.001060043359757401,0.0,0.0,-0.6,0.0,0.0012574195861816406,0.0015940666198730469,0.002274751663208008,0
2.2695579528808594,-0.19523939490318298,-0.17372672259807587,-0.6007387638092041,0.0007488624473538721,0.6917557371195152,-0.0157251955890801,0.018006261759214416,-0.0010228537721559405,0.0,0.0,-0.6,0.0,0.0010058879852294922,0.0013003349304199219,0.0019538402557373047,0
