time,x,y,z,yaw,throttle,roll_rate,pitch_rate,yaw_rate,x_ref,y_ref,z_ref,yaw_ref,pred_time,nr_time,ctrl_callback_time,metadata
9.5367431640625e-07,0.030786659568548203,0.0005583834135904908,2.710636854171753,-0.002185593048004605,0.7105652543298803,-0.0273217337029984,0.01656613976939519,0.0005245420454866939,0.0,0.0,-0.6,0.0,0.17487692832946777,0.17516446113586426,0.17618751525878906,Sim
0.17630672454833984,0.030786659568548203,0.0005583834135904908,2.710636854171753,-0.002185593048004605,0.7273989350695693,-0.050357864337811455,0.02647043926839639,0.0009483716713411113,0.0,0.0,-0.6,0.0,0.0008554458618164062,0.0010347366333007812,0.0015461444854736328,jax_pred_jac_only
0.17963314056396484,0.03186257928609848,0.007727513089776039,2.715714693069458,-0.002589270960252173,0.7439408157950841,-0.07485106160731912,0.033521828001288244,0.001387709848646588,0.0,0.0,-0.6,0.0,0.0008180141448974609,0.0009679794311523438,0.0014400482177734375,1x Speed
0.18955039978027344,0.03176366537809372,0.00861143134534359,2.7195608615875244,-0.0026056764091735396,0.7602107128520237,-0.09477709406119278,0.03776979776970668,0.001746631199588532,0.0,0.0,-0.6,0.0,0.0007650852203369141,0.0008940696716308594,0.0013055801391601562,QuatYawError
0.19980883598327637,0.03170396387577057,0.009067653678357601,2.721705436706543,-0.00263160791647952,0.7761708462737419,-0.11016456457460005,0.04024995476357088,0.0020428648081157533,0.0,0.0,-0.6,0.0,0.0008676052093505859,0.0010066032409667969,0.0015697479248046875,0
0.20974278450012207,0.03163744881749153,0.009533217176795006,2.723991632461548,-0.0026354562302477987,0.7917926581965602,-0.12154835681958104,0.04170344053832552,0.0022831444678055347,0.0,0.0,-0.6,0.0,0.0009541511535644531,0.0011181831359863281,0.0018227100372314453,0
0.21963810920715332,0.03156418353319168,0.010008647106587887,2.7261176109313965,-0.0026304314442659863,0.8070486352182374,-0.12953507619395682,0.04254917793632114,0.002476084227601573,0.0,0.0,-0.6,0.0,0.0008304119110107422,0.0009715557098388672,0.001466989517211914,0
0.22972369194030762,0.03139953315258026,0.010986361652612686,2.730790138244629,-0.002658710442104465,0.8219212510986541,-0.13505129201792734,0.04301234384932746,0.002638766480059139,0.0,0.0,-0.6,0.0,0.0009856224060058594,0.0011582374572753906,0.0018165111541748047,0
0.2397775650024414,0.03130658343434334,0.011481738649308681,2.733304500579834,-0.0026880934030009984,0.8363630448349357,-0.13778468714733974,0.043257677223539716,0.0027772661177301178,0.0,0.0,-0.6,0.0,0.0015645027160644531,0.001870870590209961,0.0027801990509033203,0
0.24986624717712402,0.031205998733639717,0.011973911896348,2.7358906269073486,-0.002679161022844407,0.8503374767941984,-0.1380292835842494,0.04332644798273969,0.0028870293949661875,0.0,0.0,-0.6,0.0,0.0016477108001708984,0.0019326210021972656,0.002951383590698242,0
0.26001906394958496,0.03109692595899105,0.012465724721550941,2.7385129928588867,-0.0026734026031414184,0.8638140693867435,-0.136191843040085,0.04327087149850004,0.0029743361976120007,0.0,0.0,-0.6,0.0,0.0015742778778076172,0.0018329620361328125,0.0027611255645751953,0
0.2697000503540039,0.031351398676633835,0.012795250862836838,2.7344064712524414,-0.002654914713626506,0.8766442715729079,-0.12957191018814923,0.04265682502769575,0.0030404424413692337,0.0,0.0,-0.6,0.0,0.0012137889862060547,0.0014197826385498047,0.0021257400512695312,0
0.27986907958984375,0.03170361369848251,0.012645621784031391,2.7278614044189453,-0.0026443386986500584,0.888863912619231,-0.12114902973082975,0.04193781643960138,0.003091318775914575,0.0,0.0,-0.6,0.0,0.0014383792877197266,0.001712799072265625,0.0025207996368408203,0
0.29010796546936035,0.032040104269981384,0.012511004693806171,2.7212421894073486,-0.002613014399710867,0.9004562780190367,-0.11127172491202658,0.04110248659679157,0.003124909261293232,0.0,0.0,-0.6,0.0,0.002052783966064453,0.0023794174194335938,0.003676176071166992,0
0.29979705810546875,0.03236177936196327,0.012392046861350536,2.71476149559021,-0.0025766370297969437,0.9114100340702751,-0.10045213771343355,0.040179947054947596,0.00314331914397675,0.0,0.0,-0.6,0.0,0.0015451908111572266,0.0018837451934814453,0.002694368362426758,0
0.30985260009765625,0.0326700359582901,0.012289032340049744,2.708390235900879,-0.002542734152251583,0.9217178886874708,-0.0891037883903512,0.03916173977857993,0.0031500576824942733,0.0,0.0,-0.6,0.0,0.0014014244079589844,0.001628875732421875,0.0025463104248046875,0
0.31968045234680176,0.03324686363339424,0.012117964215576649,2.695861339569092,-0.002506554981083411,0.9311822963345924,-0.07222865176147039,0.03731434382614291,0.0031468196172287385,0.0,0.0,-0.6,0.0,0.0013456344604492188,0.0015790462493896484,0.0023415088653564453,0
0.3296937942504883,0.03351721912622452,0.012045218609273434,2.689646005630493,-0.002498663125945137,0.9399906511630713,-0.05794805688591146,0.03583284115422352,0.0031423091448766214,0.0,0.0,-0.6,0.0,0.001283407211303711,0.0014905929565429688,0.0022034645080566406,0
0.3399837017059326,0.03377559408545494,0.011975551024079323,2.6834256649017334,-0.0024908926203172197,0.9471049742823855,-0.045030021810697554,0.03449492026502516,0.003136800337796287,0.0,0.0,-0.6,0.0,0.0013346672058105469,0.0015587806701660156,0.0024373531341552734,0
0.3495502471923828,0.034021198749542236,0.011907747015357018,2.677177906036377,-0.0024907285032938205,0.9527618179318511,-0.03299952390723447,0.03320754655727794,0.003132309204055155,0.0,0.0,-0.6,0.0,0.0012347698211669922,0.0014383792877197266,0.0020897388458251953,0
0.35985493659973145,0.034253962337970734,0.011839555576443672,2.670879364013672,-0.002486531759160506,0.957265501091275,-0.021543474930550047,0.03192290112580358,0.003127673355966752,0.0,0.0,-0.6,0.0,0.0012784004211425781,0.0014841556549072266,0.002270936965942383,0
0.36972522735595703,0.034681349992752075,0.01169203408062458,2.6575851440429688,-0.0024700782616557996,0.9608546815657042,-0.003918238353402791,0.030080541128025634,0.0031199785768762102,0.0,0.0,-0.6,0.0,0.001377105712890625,0.001577138900756836,0.002410411834716797,0
0.3797423839569092,0.03487328439950943,0.011605411767959595,2.6507880687713623,-0.0024729985215293246,0.9637173063749321,0.009634509293450225,0.0285494796107273,0.003114462586247098,0.0,0.0,-0.6,0.0,0.001146554946899414,0.0013551712036132812,0.001995563507080078,0
0.38986825942993164,0.03505135327577591,0.011507505550980568,2.6438674926757812,-0.0024618189964400678,0.966001871418093,0.021390989535863145,0.02713897414198713,0.003107322647787668,0.0,0.0,-0.6,0.0,0.0012388229370117188,0.0014469623565673828,0.002261638641357422,0
0.39972758293151855,0.0352141447365284,0.011395078152418137,2.636805295944214,-0.002459150432736239,0.9678260042980528,0.03233237607512807,0.02576586292675707,0.003100913235857399,0.0,0.0,-0.6,0.0,0.0011737346649169922,0.0013976097106933594,0.0020978450775146484,0
0.4096858501434326,0.035490211099386215,0.011116334237158298,2.6221909523010254,-0.0024372373898930875,0.9692830700641248,0.04905448408969139,0.023941737666488282,0.003090475383632341,0.0,0.0,-0.6,0.0,0.0015747547149658203,0.00176239013671875,0.0024445056915283203,0
0.4199550151824951,0.03560369834303856,0.010945999063551426,2.6146128177642822,-0.0024471240180639715,0.9704472946867827,0.06135480507651642,0.022324575254201475,0.003084413579065406,0.0,0.0,-0.6,0.0,0.0012197494506835938,0.0014204978942871094,0.002201557159423828,0
0.42970752716064453,0.035785090178251266,0.010531415231525898,2.598600387573242,-0.0024526884501001062,0.9713777635005522,0.07776123560859775,0.020498375909162342,0.0030808511875956234,0.0,0.0,-0.6,0.0,0.0011034011840820312,0.0012955665588378906,0.0019769668579101562,0
0.4399256706237793,0.03585236147046089,0.010283530689775944,2.590156316757202,-0.00245208889613633,0.9721215571288546,0.0893553879477241,0.018862404812194953,0.0030778288697729988,0.0,0.0,-0.6,0.0,0.001313924789428711,0.0015172958374023438,0.0023212432861328125,0
0.4498016834259033,0.03590312972664833,0.01000446081161499,2.5815000534057617,-0.002460130647601307,0.9727162207079577,0.09901037553044569,0.017331479059983324,0.0030773172970356964,0.0,0.0,-0.6,0.0,0.0013630390167236328,0.0015773773193359375,0.00243377685546875,0
0.4596846103668213,0.035938721150159836,0.00969555601477623,2.572626829147339,-0.0024706814468480986,0.9731917143258304,0.10784113836835771,0.015867577021648833,0.003079435341618208,0.0,0.0,-0.6,0.0,0.0011525154113769531,0.0013668537139892578,0.0020775794982910156,0
0.4699835777282715,0.03596023470163345,0.00898038875311613,2.554213047027588,-0.002494233598846086,0.9735719575881887,0.12149417915891954,0.014273801478775473,0.0030867999996441868,0.0,0.0,-0.6,0.0,0.0017018318176269531,0.002031564712524414,0.0030956268310546875,0
0.48003602027893066,0.03594353422522545,0.008570851758122444,2.5446627140045166,-0.0024985446748266456,0.9738760552584422,0.13121082557361108,0.012746695794465135,0.0030937853392281516,0.0,0.0,-0.6,0.0,0.0016810894012451172,0.00199127197265625,0.0030050277709960938,0
0.4898693561553955,0.03590831533074379,0.008124933578073978,2.5348761081695557,-0.002496601865330965,0.9741192714068536,0.13932113786925177,0.011262741026299723,0.0030989632005873667,0.0,0.0,-0.6,0.0,0.001417398452758789,0.001644134521484375,0.0025207996368408203,0
0.4999525547027588,0.03585464134812355,0.0076423343271017075,2.524848461151123,-0.0024968985502538594,0.9743138046807905,0.14661678773112702,0.00982275378486023,0.0031032182380812358,0.0,0.0,-0.6,0.0,0.0013544559478759766,0.0016074180603027344,0.0024161338806152344,0
0.5095913410186768,0.03569211810827255,0.006562527734786272,2.503514528274536,-0.002515631337377942,0.9742848533686479,0.15753204770438917,0.008368228609170521,0.003111152353546602,0.0,0.0,-0.6,0.0,0.0011529922485351562,0.001336812973022461,0.0020313262939453125,0
0.5198538303375244,0.03558288887143135,0.00596603425219655,2.4924848079681396,-0.0025435078118368946,0.9739451399084692,0.16516319065538623,0.006901843358481535,0.0031242528738005012,0.0,0.0,-0.6,0.0,0.0013010501861572266,0.0015523433685302734,0.002307891845703125,0
0.5299341678619385,0.03545444458723068,0.005331617780029774,2.4812111854553223,-0.0025533570133112987,0.9733146509743785,0.17149084124255945,0.005445360025061951,0.0031372017742452895,0.0,0.0,-0.6,0.0,0.0013194084167480469,0.0015225410461425781,0.0023784637451171875,0
0.5396780967712402,0.0353081077337265,0.004657161422073841,2.469691038131714,-0.0025644915004825043,0.9724106896087378,0.1772128556194701,0.003990604617465325,0.0031503364411305046,0.0,0.0,-0.6,0.0,0.0014095306396484375,0.0016894340515136719,0.0024929046630859375,0
0.5500402450561523,0.03495940566062927,0.0031871944665908813,2.4459023475646973,-0.002591241941217228,0.9709371968644298,0.185595506856364,0.0025424450203664324,0.0031673696005106336,0.0,0.0,-0.6,0.0,0.002048969268798828,0.0023648738861083984,0.0035974979400634766,0
0.5598807334899902,0.034755196422338486,0.0023928398732095957,2.433629035949707,-0.0026145744123678497,0.9692448738963865,0.1915182498824025,0.0010229403224856918,0.0031867330149297243,0.0,0.0,-0.6,0.0,0.0015931129455566406,0.0018699169158935547,0.002803325653076172,0
0.5697376728057861,0.034531380981206894,0.0015580302570015192,2.421100616455078,-0.00262088299616041,0.9673480551046288,0.19647128883230094,-0.0005549579766184354,0.0032038925209493595,0.0,0.0,-0.6,0.0,0.0013244152069091797,0.0015413761138916016,0.0023851394653320312,0
0.5800824165344238,0.03428613394498825,0.0006835180101916194,2.4080617427825928,-0.0026339645442393584,0.9652586600810998,0.20088104757700034,-0.0022123121310283125,0.0032208969618504365,0.0,0.0,-0.6,0.0,0.0013318061828613281,0.0015397071838378906,0.002362966537475586,0
0.5896179676055908,0.03401867672801018,-0.000231388199608773,2.394772529602051,-0.002651546957635429,0.962989481263349,0.20509179030387487,-0.003935477800853741,0.0032388564537061534,0.0,0.0,-0.6,0.0,0.0009906291961669922,0.0011646747589111328,0.0017635822296142578,0
0.5998311042785645,0.03372785821557045,-0.001184332650154829,2.3812317848205566,-0.0026521539473686358,0.9605529059825626,0.2090343966463228,-0.005739987580092286,0.00325351247529616,0.0,0.0,-0.6,0.0,0.0012025833129882812,0.001384735107421875,0.0020771026611328125,0
0.6098003387451172,0.03308083862066269,-0.003207812551409006,2.353393316268921,-0.00265837162720114,0.9576503484057448,0.21463113445529491,-0.007637426085183682,0.0032668473150095057,0.0,0.0,-0.6,0.0,0.0012853145599365234,0.001489877700805664,0.002285480499267578,0
0.6197776794433594,0.032724831253290176,-0.004276399966329336,2.339097738265991,-0.002648485876944996,0.9546264535791468,0.21855677248217878,-0.009696805355586017,0.0032752493255002904,0.0,0.0,-0.6,0.0,0.001153707504272461,0.0013546943664550781,0.002005338668823242,0
0.6297552585601807,0.03234840929508209,-0.005380719434469938,2.3245527744293213,-0.002633318817302124,0.9514891223170916,0.22173898687392754,-0.011899122016572438,0.0032783975579890687,0.0,0.0,-0.6,0.0,0.0012352466583251953,0.0014297962188720703,0.0022039413452148438,0
0.6396231651306152,0.03153117746114731,-0.007697530090808868,2.294717788696289,-0.0026220388129837868,0.9479457885944271,0.22560484691456145,-0.014297018118230571,0.0032782349070751976,0.0,0.0,-0.6,0.0,0.0011687278747558594,0.0013916492462158203,0.0020825862884521484,0
0.6497108936309814,0.031091567128896713,-0.008907326497137547,2.2791285514831543,-0.0025760439280067167,0.944325970891514,0.22836372029353177,-0.016892816794080095,0.0032670647379998887,0.0,0.0,-0.6,0.0,0.0012249946594238281,0.0014231204986572266,0.0021746158599853516,0
0.6597557067871094,0.030631298199295998,-0.010149925015866756,2.263303518295288,-0.002570574432657224,0.9406353587320412,0.23063862977015617,-0.019689426184162313,0.003256726392877487,0.0,0.0,-0.6,0.0,0.0009014606475830078,0.001041412353515625,0.001672506332397461,0
0.6697976589202881,0.030098572373390198,-0.01292822789400816,2.2237119674682617,-0.002546791695964766,0.9365409574639507,0.2334526243304117,-0.02275124813584007,0.0032426650564945235,0.0,0.0,-0.6,0.0,0.0007982254028320312,0.0009322166442871094,0.0015492439270019531,0
0.6797089576721191,0.030015550553798676,-0.014457356184720993,2.200138807296753,-0.002526678870011883,0.9323678544332884,0.23558868734704885,-0.026055259041663135,0.003226476458933375,0.0,0.0,-0.6,0.0,0.0008306503295898438,0.00098419189453125,0.0014884471893310547,0
0.6896669864654541,0.029900550842285156,-0.01601383090019226,2.1765244007110596,-0.0024939051924653044,0.9281227303638955,0.23748780867217273,-0.029593152192360847,0.0032055305927557974,0.0,0.0,-0.6,0.0,0.0009474754333496094,0.0011093616485595703,0.0017476081848144531,0
0.6997687816619873,0.02975478395819664,-0.017596498131752014,2.1528656482696533,-0.002462651609854486,0.9238138607126513,0.23908902083358088,-0.03339067931561492,0.003181105493143836,0.0,0.0,-0.6,0.0,0.0012950897216796875,0.0015211105346679688,0.002215862274169922,0
0.7098379135131836,0.02937159314751625,-0.02083081379532814,2.1054131984710693,-0.0024145428515551953,0.9191334100526418,0.24064936241862767,-0.03765859495911122,0.0031498237876822033,0.0,0.0,-0.6,0.0,0.0013384819030761719,0.0015459060668945312,0.002409219741821289,0
0.7197208404541016,0.02913695015013218,-0.02248077094554901,2.0813825130462646,-0.0023889357277831506,0.9144263743232052,0.2418795897910452,-0.04225945923117716,0.0031184019124337837,0.0,0.0,-0.6,0.0,0.0012156963348388672,0.0014421939849853516,0.0021390914916992188,0
0.7296714782714844,0.028873613104224205,-0.0241510309278965,2.0573112964630127,-0.002384461220094683,0.909697444358948,0.24294316550667028,-0.047211340692143236,0.003091939492904859,0.0,0.0,-0.6,0.0,0.0011768341064453125,0.0013828277587890625,0.0020439624786376953,0
0.7397499084472656,0.028582967817783356,-0.025840751826763153,2.033198356628418,-0.0023747796664487487,0.9049503438322565,0.2438915104907252,-0.05253685719162777,0.0030682337644758464,0.0,0.0,-0.6,0.0,0.0011501312255859375,0.0013632774353027344,0.0021123886108398438,0
0.7496399879455566,0.027915943413972855,-0.029276616871356964,1.9848459959030151,-0.002315600010528993,0.8998969523062839,0.24450711833839545,-0.05863718218349908,0.0030348768162461273,0.0,0.0,-0.6,0.0,0.0012140274047851562,0.001435995101928711,0.0021376609802246094,0
0.7598893642425537,0.02754020504653454,-0.03102150559425354,1.9606071710586548,-0.002301886415271053,0.8948570441442413,0.24509518546708123,-0.06519886788583357,0.0030046331145926475,0.0,0.0,-0.6,0.0,0.0014705657958984375,0.0017459392547607422,0.002629995346069336,0
0.7696850299835205,0.027137259021401405,-0.03278304263949394,1.9363309144973755,-0.0022895043103269147,0.8898342687448026,0.24564145243797714,-0.07224658598812564,0.0029772246406799254,0.0,0.0,-0.6,0.0,0.001386404037475586,0.0016257762908935547,0.002441883087158203,0
0.7797901630401611,0.026707394048571587,-0.0345601849257946,1.9120184183120728,-0.0022679013878464196,0.8848301831422618,0.24606287786686667,-0.07980732484851917,0.0029498934723167372,0.0,0.0,-0.6,0.0,0.0012660026550292969,0.0015218257904052734,0.002246856689453125,0
0.7899525165557861,0.025766756385564804,-0.038152869790792465,1.8630566596984863,-0.0022092795015015575,0.8795818738294383,0.24575612540061828,-0.08850905303985014,0.00291374087112984,0.0,0.0,-0.6,0.0,0.001707315444946289,0.0019979476928710938,0.0029909610748291016,0
0.7998335361480713,0.025256961584091187,-0.03996829688549042,1.8384160995483398,-0.0021767775738948266,0.8743745361533558,0.24570333530405553,-0.09780138108436091,0.0028767296981301984,0.0,0.0,-0.6,0.0,0.0014519691467285156,0.0017075538635253906,0.002566099166870117,0
0.8097221851348877,0.02472156658768654,-0.04179481789469719,1.813750147819519,-0.0021564976146483546,0.8692086142306491,0.2456720345353136,-0.10773156638304479,0.0028419571625286372,0.0,0.0,-0.6,0.0,0.0013267993927001953,0.0015442371368408203,0.002317667007446289,0
0.8198549747467041,0.02416226454079151,-0.04363143444061279,1.789061188697815,-0.0021277648149655715,0.8640855368424554,0.24561040014101249,-0.11831234020666999,0.0028069651329502487,0.0,0.0,-0.6,0.0,0.0013208389282226562,0.0015516281127929688,0.0023622512817382812,0
0.8296236991882324,0.023580122739076614,-0.045476559549570084,1.7643522024154663,-0.002118993929374387,0.8590059448708947,0.24548027193365685,-0.12956452086407652,0.002776586908813962,0.0,0.0,-0.6,0.0,0.0011818408966064453,0.0013866424560546875,0.002010345458984375,0
0.8400344848632812,0.022347982972860336,-0.04918625205755234,1.7148829698562622,-0.002077341231122707,0.8537366695625319,0.2442354915154964,-0.14242610620991958,0.0027420442677280363,0.0,0.0,-0.6,0.0,0.001466989517211914,0.0017437934875488281,0.002690553665161133,0
0.8498959541320801,0.02169804275035858,-0.051047008484601974,1.690127968788147,-0.0020548710834554043,0.8485294400587868,0.24327008257551955,-0.1560507252304084,0.002708740562014813,0.0,0.0,-0.6,0.0,0.0017418861389160156,0.0020492076873779297,0.0031430721282958984,0
0.8598766326904297,0.021026158705353737,-0.05291035398840904,1.66536283493042,-0.002035226401984377,0.8433844684767646,0.24242513193193055,-0.17046052451869484,0.002677116738896675,0.0,0.0,-0.6,0.0,0.0014727115631103516,0.0017066001892089844,0.0025484561920166016,0
0.8697664737701416,0.01962282322347164,-0.05664291977882385,1.6153086423873901,-0.001981402990540382,0.8380867393978393,0.24054445343460903,-0.18677842736594522,0.002638646703482758,0.0,0.0,-0.6,0.0,0.0012564659118652344,0.0015032291412353516,0.0022721290588378906,0
0.8799264430999756,0.018889332190155983,-0.05850996822118759,1.5902913808822632,-0.0019517564272924512,0.8328667183721745,0.2390300854965862,-0.20396160354316345,0.0026004481542623342,0.0,0.0,-0.6,0.0,0.0012044906616210938,0.0014295578002929688,0.0021619796752929688,0
0.8897092342376709,0.018137063831090927,-0.060375235974788666,1.5652843713760376,-0.0019274227075423915,0.8277240332551834,0.23771432328331452,-0.2220082182882096,0.0025637432837662517,0.0,0.0,-0.6,0.0,0.0012350082397460938,0.0014424324035644531,0.0021696090698242188,0
0.8998982906341553,0.017368242144584656,-0.062239035964012146,1.5402910709381104,-0.0018833253013132263,0.8226583713699362,0.2364814873072428,-0.24091452758238527,0.00252350243613052,0.0,0.0,-0.6,0.0,0.0013492107391357422,0.0015742778778076172,0.002393007278442383,0
0.9096555709838867,0.016582245007157326,-0.06409952044487,1.515315294265747,-0.0018568173869269154,0.8176695646256402,0.23523400132891997,-0.26068752933853945,0.0024846264688743705,0.0,0.0,-0.6,0.0,0.0011725425720214844,0.0013859272003173828,0.002048492431640625,0
0.9198975563049316,0.014962893910706043,-0.06780808418989182,1.4654275178909302,-0.0018197258676942878,0.8125735496278459,0.23267020370711267,-0.2827627834798596,0.0024443121259603746,0.0,0.0,-0.6,0.0,0.0012392997741699219,0.0014369487762451172,0.0022192001342773438,0
0.9297757148742676,0.014132372103631496,-0.06965352594852448,1.4405220746994019,-0.001788406377228364,0.8075679929242594,0.2305092559600823,-0.30570019482741867,0.0024042214854346445,0.0,0.0,-0.6,0.0,0.0012733936309814453,0.0014808177947998047,0.002283334732055664,0
0.9397327899932861,0.013289378955960274,-0.07149218022823334,1.4154051542282104,-0.0017681071730666872,0.8026500770771884,0.2286106405964478,-0.32949474744037854,0.002366956805413364,0.0,0.0,-0.6,0.0,0.0012123584747314453,0.0014119148254394531,0.0020601749420166016,0
0.9497730731964111,0.011565051041543484,-0.07514997571706772,1.3652886152267456,-0.0017284834580472196,0.7976541841968443,0.22563128216664866,-0.3557815178487115,0.002327337231064576,0.0,0.0,-0.6,0.0,0.0012462139129638672,0.001440286636352539,0.002178668975830078,0
0.9597094058990479,0.010685275308787823,-0.07696788758039474,1.3402959108352661,-0.00172659524585377,0.7927584219796757,0.2231545972277638,-0.38289201531565725,0.002294871271639278,0.0,0.0,-0.6,0.0,0.001211404800415039,0.0014388561248779297,0.002129793167114258,0
0.969649076461792,0.009795590303838253,-0.07877691090106964,1.3153501749038696,-0.0017230054159254246,0.787962692537804,0.22092569573751145,-0.41076187388544516,0.002267777213209178,0.0,0.0,-0.6,0.0,0.0011916160583496094,0.0013897418975830078,0.0020411014556884766,0
0.9801647663116455,0.008898532018065453,-0.08057653903961182,1.2904561758041382,-0.0017062640792243923,0.7832671537371726,0.21886521554183697,-0.43930454547456677,0.002241867078705498,0.0,0.0,-0.6,0.0,0.0013244152069091797,0.0015499591827392578,0.0023338794708251953,0
0.989703893661499,0.00708387466147542,-0.08414413779973984,1.2408363819122314,-0.0017299553022309666,0.7785291576585933,0.2155552847357565,-0.4703409302541097,0.0022266177322206935,0.0,0.0,-0.6,0.0,0.001495361328125,0.0017707347869873047,0.002602100372314453,0
0.9998185634613037,0.006170055828988552,-0.08590847998857498,1.2161146402359009,-0.0017630148875469262,0.773901249723253,0.21258183319151636,-0.5019073391151659,0.0022222307309057855,0.0,0.0,-0.6,0.0,0.002069234848022461,0.002417325973510742,0.0035963058471679688,0
1.0100317001342773,0.005255147814750671,-0.08765830099582672,1.1911808252334595,-0.0017815351609639023,0.7693820160357941,0.2098325400018259,-0.5338967505783837,0.0022231311362490786,0.0,0.0,-0.6,0.0,0.002939939498901367,0.0033044815063476562,0.004624128341674805,0
1.0199828147888184,0.0043399157002568245,-0.08939289301633835,1.16632080078125,-0.001794242019967065,0.7649694765332865,0.20716452445412223,-0.5661962248028345,0.002226907570405893,0.0,0.0,-0.6,0.0,0.002004861831665039,0.002306699752807617,0.003441333770751953,0
1.0299177169799805,0.0025269589386880398,-0.09281177073717117,1.1168292760849,-0.001861644923837354,0.7605431529160658,0.20315075397384555,-0.6006906440405353,0.0022461358965640416,0.0,0.0,-0.6,0.0,0.001505136489868164,0.0017497539520263672,0.0027093887329101562,0
1.0397825241088867,0.0016287275357171893,-0.0944957584142685,1.0922045707702637,-0.0018917458791359925,0.7562335488691921,0.1995312232765499,-0.6351800032935264,0.0022688964419774345,0.0,0.0,-0.6,0.0,0.001218557357788086,0.001451730728149414,0.0022237300872802734,0
1.0498366355895996,0.0007367874495685101,-0.09616294503211975,1.0676662921905518,-0.001931684998258121,0.7520396542183506,0.1962283351162383,-0.6695002376924812,0.0022968725031184854,0.0,0.0,-0.6,0.0,0.001323699951171875,0.0015647411346435547,0.0024056434631347656,0
1.0599801540374756,-0.00014721290790475905,-0.09781206399202347,1.0432171821594238,-0.0019818721344849253,0.7479587453753883,0.19303054839515557,-0.7035035747247594,0.0023315220169001995,0.0,0.0,-0.6,0.0,0.0015976428985595703,0.0018513202667236328,0.0028352737426757812,0
1.0696513652801514,-0.0018623562064021826,-0.10286124050617218,0.986932635307312,-0.0021378134788986136,0.7438533669579444,0.1892109839087185,-0.7324525023073316,0.0023969454013727264,0.0,0.0,-0.6,0.0,0.0010170936584472656,0.0011973381042480469,0.0018155574798583984,0
1.079925775527954,-0.002687516389414668,-0.1062275618314743,0.9550923705101013,-0.002211972614559728,0.7398207881019283,0.18642694952921807,-0.7527167516151322,0.00246760536283862,0.0,0.0,-0.6,0.0,0.0009059906005859375,0.001062631607055664,0.001657247543334961,0
1.0897972583770752,-0.0034929057583212852,-0.1095399335026741,0.9235478043556213,-0.0022577379992458446,0.7358493454419356,0.18434450265654087,-0.7669017261305926,0.002535681862595269,0.0,0.0,-0.6,0.0,0.0010633468627929688,0.001234292984008789,0.0019423961639404297,0
1.0997693538665771,-0.004276208579540253,-0.11279734969139099,0.8922951221466064,-0.0023222785214667323,0.731931490294937,0.18275260561691645,-0.7768312082914148,0.0026061778881002365,0.0,0.0,-0.6,0.0,0.001100301742553711,0.001280069351196289,0.001875162124633789,0
1.1097772121429443,-0.0057661570608615875,-0.11914578080177307,0.830658495426178,-0.002484710815483234,0.7279553275299822,0.18070245467495874,-0.7837818458039904,0.0027021227957378688,0.0,0.0,-0.6,0.0,0.001043558120727539,0.001211404800415039,0.0019135475158691406,0
1.1196789741516113,-0.006466665305197239,-0.1222403347492218,0.800270140171051,-0.0025987514147280417,0.7240337229091698,0.17918507816791793,-0.7886472920627933,0.0028070154636301993,0.0,0.0,-0.6,0.0,0.0010521411895751953,0.0012366771697998047,0.0018498897552490234,0
1.1295523643493652,-0.007134694140404463,-0.12528261542320251,0.7701641917228699,-0.002715960547031533,0.7201641096062962,0.17800402875409194,-0.7920531044439553,0.0029198992727091145,0.0,0.0,-0.6,0.0,0.0009138584136962891,0.0010585784912109375,0.0015764236450195312,0
1.1398944854736328,-0.007767348550260067,-0.12827157974243164,0.7403396368026733,-0.002843874777542942,0.7163464700247818,0.177030717621002,-0.7944371731107687,0.0030418083815869222,0.0,0.0,-0.6,0.0,0.0011219978332519531,0.0013048648834228516,0.0020084381103515625,0
1.149653673171997,-0.00891152210533619,-0.134094700217247,0.6813068389892578,-0.0031407915040589673,0.7124932695682428,0.17550169270964858,-0.796106021177538,0.003211570613991409,0.0,0.0,-0.6,0.0,0.0011050701141357422,0.0012984275817871094,0.0019104480743408203,0
1.1598975658416748,-0.009416960179805756,-0.136931374669075,0.652100682258606,-0.0033208137718173806,0.7086965133620906,0.17432474021562389,-0.7972742148242766,0.0033919438686398407,0.0,0.0,-0.6,0.0,0.0011563301086425781,0.0013434886932373047,0.002077817916870117,0
1.1697311401367188,-0.009876251220703125,-0.13971853256225586,0.6231744289398193,-0.003503312645188169,0.7049558703577474,0.17335172228221465,-0.7980919503769937,0.0035814850201320012,0.0,0.0,-0.6,0.0,0.0012049674987792969,0.0013971328735351562,0.002179384231567383,0
1.179774522781372,-0.01028501708060503,-0.14245373010635376,0.5945257544517517,-0.003692947059549569,0.701271059362311,0.17237067696937552,-0.7986643652638956,0.003780146235768256,0.0,0.0,-0.6,0.0,0.000988006591796875,0.0011620521545410156,0.0017480850219726562,0
1.1897709369659424,-0.010938446968793869,-0.14776986837387085,0.5380548238754272,-0.004104168912178257,0.6975762390741822,0.17073144072512947,-0.799065055684727,0.004039358787640756,0.0,0.0,-0.6,0.0,0.0010366439819335938,0.0012202262878417969,0.0018973350524902344,0
1.1996431350708008,-0.011178149841725826,-0.15035632252693176,0.5102307200431824,-0.004328904414525033,0.6939425484864329,0.16935733829552352,-0.7993455389793089,0.004302738819348234,0.0,0.0,-0.6,0.0,0.0010657310485839844,0.001291036605834961,0.0018749237060546875,0
1.209670066833496,-0.011356443166732788,-0.15289396047592163,0.4826790392398834,-0.004569430792302402,0.6903689162105173,0.1680833338343354,-0.7995418772855163,0.004573276377531741,0.0,0.0,-0.6,0.0,0.0011551380157470703,0.0013403892517089844,0.0020287036895751953,0
1.2198796272277832,-0.011470627039670944,-0.15538106858730316,0.4553968906402588,-0.004804336880852207,0.6868551047227065,0.16678884632015348,-0.7996793140998614,0.0048482483510714335,0.0,0.0,-0.6,0.0,0.0012395381927490234,0.0014491081237792969,0.0022132396697998047,0
1.2295844554901123,-0.011489617638289928,-0.16021086275577545,0.4011487066745758,-0.005303370589892192,0.6833489410231062,0.16477886711624737,-0.799775519869903,0.005190193899264827,0.0,0.0,-0.6,0.0,0.000982522964477539,0.001148223876953125,0.0017452239990234375,0
1.2397570610046387,-0.011389287188649178,-0.16255734860897064,0.37443628907203674,-0.005562942267846433,0.6799042083304282,0.16299579061452846,-0.7998428639089321,0.00552878151930076,0.0,0.0,-0.6,0.0,0.0011057853698730469,0.0013000965118408203,0.0019698143005371094,0
1.2497844696044922,-0.011212705634534359,-0.16485680639743805,0.34799790382385254,-0.005846796544508774,0.6765206448734546,0.16129918782445193,-0.7998900047362525,0.005870485808521406,0.0,0.0,-0.6,0.0,0.0011684894561767578,0.0013496875762939453,0.0020737648010253906,0
1.259737253189087,-0.010954707860946655,-0.1671070158481598,0.32183408737182617,-0.006144075590028172,0.6731980789663511,0.1595051159079747,-0.7999230033153768,0.006217930105517173,0.0,0.0,-0.6,0.0,0.0010952949523925781,0.0012879371643066406,0.0019283294677734375,0
1.269723892211914,-0.01018616370856762,-0.17145594954490662,0.2703285813331604,-0.006749873070602295,0.6698989199565084,0.15685695798981109,-0.7999461023207638,0.006644057097937096,0.0,0.0,-0.6,0.0,0.0009362697601318359,0.001085042953491211,0.0017039775848388672,0
1.279745101928711,-0.009670794941484928,-0.17355872690677643,0.24498425424098969,-0.007059326929054286,0.6666607443080532,0.1544123815184361,-0.7999622716245347,0.0070626366938513745,0.0,0.0,-0.6,0.0,0.0010533332824707031,0.0012586116790771484,0.001909017562866211,0
1.2896344661712646,-0.009062610566616058,-0.1756133735179901,0.21991083025932312,-0.007373368286311478,0.6634830009789754,0.15203837863869618,-0.7999735901371743,0.007476218331447069,0.0,0.0,-0.6,0.0,0.0011401176452636719,0.0013349056243896484,0.0020134449005126953,0
1.2998542785644531,-0.008358105085790157,-0.17761743068695068,0.1948741227388382,-0.007685914423270268,0.6603650479727661,0.1495804274935984,-0.7999815130960221,0.007885401484090627,0.0,0.0,-0.6,0.0,0.001071929931640625,0.0012726783752441406,0.0019218921661376953,0
1.3095431327819824,-0.007555462419986725,-0.17957232892513275,0.17011691629886627,-0.008010239740877542,0.6573057110506217,0.1470757771300841,-0.7999870591672155,0.008293860440721028,0.0,0.0,-0.6,0.0,0.0010025501251220703,0.0011641979217529297,0.0017158985137939453,0
1.3198297023773193,-0.005641635041683912,-0.18334153294563293,0.12143804132938385,-0.008719779419388833,0.6542800898289332,0.14382022418186982,-0.7999909414170508,0.008794186343827932,0.0,0.0,-0.6,0.0,0.0011837482452392578,0.001394033432006836,0.0021233558654785156,0
1.3296878337860107,-0.00452628405764699,-0.18515540659427643,0.09751763194799423,-0.009080578032180039,0.6513134588727719,0.14067532724074527,-0.7999936589919356,0.009285039584268904,0.0,0.0,-0.6,0.0,0.0010793209075927734,0.0012688636779785156,0.0019230842590332031,0
1.3395860195159912,-0.0033032104838639498,-0.18692052364349365,0.07387605309486389,-0.00944626112543211,0.6484048692227357,0.13750271624286242,-0.7996286166334317,0.009769414902548046,0.0,0.0,-0.6,0.0,0.00102996826171875,0.0012059211730957031,0.0017938613891601562,0
1.3498053550720215,-0.0005187666974961758,-0.19030746817588806,0.027427367866039276,-0.010192052906782692,0.6455367726308364,0.1334786526642674,-0.7959997074659957,0.010339779389060172,0.0,0.0,-0.6,0.0,0.0012035369873046875,0.001402139663696289,0.0021076202392578125,0
1.3596885204315186,0.0010467590764164925,-0.1919330656528473,0.004621186759322882,-0.010553852722487631,0.6427216729924661,0.12967568595177328,-0.7895859427786648,0.010887463799875046,0.0,0.0,-0.6,0.0,0.0010182857513427734,0.001207590103149414,0.0018546581268310547,0
1.3696775436401367,0.0027337369974702597,-0.19351232051849365,-0.018159091472625732,-0.010921924235100784,0.6399540940404077,0.12600755043084455,-0.7804615981642854,0.011418335910837551,0.0,0.0,-0.6,0.0,0.001177072525024414,0.0013625621795654297,0.0020732879638671875,0
1.3801085948944092,0.004543623421341181,-0.195044606924057,-0.04065432399511337,-0.011310135610318715,0.6372318228320172,0.12235279341108297,-0.7686449379833521,0.011940450167421185,0.0,0.0,-0.6,0.0,0.001135110855102539,0.0013201236724853516,0.0020287036895751953,0
1.389549732208252,0.008540698327124119,-0.19797402620315552,-0.08478247374296188,-0.012100461149165635,0.6345442078482039,0.11784479614677094,-0.7530815485025826,0.012551992014558607,0.0,0.0,-0.6,0.0,0.0010476112365722656,0.0012278556823730469,0.0017936229705810547,0
1.399960994720459,0.010730952024459839,-0.19937320053577423,-0.10641402006149292,-0.012519093352726446,0.6318960486302757,0.11361650768919698,-0.7347954125268549,0.013146591363023393,0.0,0.0,-0.6,0.0,0.0012965202331542969,0.0015187263488769531,0.002334117889404297,0
1.409592866897583,0.013051876798272133,-0.2007286250591278,-0.12775753438472748,-0.012907176323031084,0.6292848901833289,0.1095563700790708,-0.7138388288831277,0.013720171145723567,0.0,0.0,-0.6,0.0,0.0012967586517333984,0.0015048980712890625,0.0022611618041992188,0
1.4197664260864258,0.015505748800933361,-0.20203618705272675,-0.1488134264945984,-0.013305544983865157,0.6267083278606598,0.10551490799002129,-0.6902820708496403,0.014279231915946369,0.0,0.0,-0.6,0.0,0.0012042522430419922,0.0014178752899169922,0.002122640609741211,0
1.4297301769256592,0.02082255855202675,-0.2045116424560547,-0.19006377458572388,-0.01418417055150255,0.6241625046767878,0.10064891851827443,-0.6626484561969181,0.014941821423630394,0.0,0.0,-0.6,0.0,0.0011038780212402344,0.0012924671173095703,0.0019989013671875,0
1.4395833015441895,0.02369239553809166,-0.20568375289440155,-0.21053391695022583,-0.01461606852485955,0.6216459678033771,0.09603682551959006,-0.632470803408129,0.01558084427429427,0.0,0.0,-0.6,0.0,0.0010383129119873047,0.0012202262878417969,0.001888275146484375,0
1.4496805667877197,0.026704445481300354,-0.20681218802928925,-0.23070856928825378,-0.015073883270492654,0.6191583725408001,0.09163348179543979,-0.5997708418688198,0.0162070545552161,0.0,0.0,-0.6,0.0,0.0012187957763671875,0.0014121532440185547,0.0021080970764160156,0
1.459822416305542,0.02986372634768486,-0.20789510011672974,-0.2505865693092346,-0.015531125940422835,0.6166991731590384,0.08736055276401211,-0.5645941701308739,0.016822768464292905,0.0,0.0,-0.6,0.0,0.0014293193817138672,0.0017058849334716797,0.0025513172149658203,0
1.4698023796081543,0.03490324690937996,-0.21210312843322754,-0.2978537678718567,-0.016397430872869063,0.6142403247976266,0.0828604902134986,-0.526265640207996,0.017528180978635212,0.0,0.0,-0.6,0.0,0.0016131401062011719,0.0019307136535644531,0.0029299259185791016,0
1.4801924228668213,0.036821648478507996,-0.21518577635288239,-0.32503074407577515,-0.01694593064771489,0.6117790399732388,0.07917857567831371,-0.4865366265288916,0.018229795710736914,0.0,0.0,-0.6,0.0,0.0015306472778320312,0.0017864704132080078,0.0026984214782714844,0
1.4898629188537598,0.038924604654312134,-0.2181837558746338,-0.351704865694046,-0.01747753037120997,0.6093180801852364,0.07621318752688033,-0.44534297394475064,0.01892428314707579,0.0,0.0,-0.6,0.0,0.0013952255249023438,0.0016298294067382812,0.0025463104248046875,0
1.4995036125183105,0.0412120558321476,-0.2210988998413086,-0.3778807818889618,-0.01800987826649752,0.606859884985931,0.07383888759845954,-0.4026234252567903,0.019613190250802166,0.0,0.0,-0.6,0.0,0.0008616447448730469,0.0010004043579101562,0.0014603137969970703,0
1.509720802307129,0.04634358733892441,-0.22668246924877167,-0.4289417266845703,-0.01904347052114999,0.6043879334882643,0.07159294333008176,-0.35723931356793254,0.020417886685789068,0.0,0.0,-0.6,0.0,0.0009663105010986328,0.0011138916015625,0.0017004013061523438,0
1.5195927619934082,0.04918813705444336,-0.22935262322425842,-0.45383238792419434,-0.019520351312801762,0.6019248101068294,0.06966041923509474,-0.31019408608734994,0.021182536534110723,0.0,0.0,-0.6,0.0,0.0008327960968017578,0.000982046127319336,0.0015149116516113281,0
1.529592514038086,0.052219606935977936,-0.2319468855857849,-0.4782417118549347,-0.019984192845213085,0.5994728947660947,0.06808620327705799,-0.2614596017544831,0.021911691334182234,0.0,0.0,-0.6,0.0,0.001079559326171875,0.0012774467468261719,0.001940011978149414,0
1.5398361682891846,0.055435605347156525,-0.23446698486804962,-0.502174437046051,-0.020436712864872787,0.5970353962521291,0.06685072679806076,-0.21098200612560447,0.022609462015964713,0.0,0.0,-0.6,0.0,0.001363992691040039,0.0015783309936523438,0.0023598670959472656,0
1.5495929718017578,0.05883648246526718,-0.236912801861763,-0.5256348252296448,-0.020892534997926513,0.594615331089388,0.0658183023497998,-0.1587441872877276,0.023282652222187943,0.0,0.0,-0.6,0.0,0.001180410385131836,0.0013957023620605469,0.002058744430541992,0
1.5602664947509766,0.06242193654179573,-0.23928402364253998,-0.5486264824867249,-0.02135371433520244,0.5922162167360705,0.06490859482392804,-0.10471629268117172,0.023937268868208593,0.0,0.0,-0.6,0.0,0.0027208328247070312,0.003084421157836914,0.0044324398040771484,0
1.5696995258331299,0.0701475739479065,-0.24380603432655334,-0.5932222008705139,-0.0222261800125316,0.5898345213376908,0.0638557960656936,-0.04737524583879417,0.02467560234983298,0.0,0.0,-0.6,0.0,0.002247333526611328,0.002648591995239258,0.0038585662841796875,0
1.5802412033081055,0.07428835332393646,-0.24596276879310608,-0.6148346066474915,-0.022606805144988328,0.587481291786618,0.06297859781180777,0.011812710080393037,0.025363522121818888,0.0,0.0,-0.6,0.0,0.0016198158264160156,0.0019078254699707031,0.002835512161254883,0
1.5898711681365967,0.0831284448504448,-0.2500649690628052,-0.657103955745697,-0.02332692733748226,0.5851573362485263,0.06185592060878007,0.07440899103100099,0.026092192168772024,0.0,0.0,-0.6,0.0,0.0013501644134521484,0.0015597343444824219,0.0024187564849853516,0
1.599649429321289,0.08782891184091568,-0.25201427936553955,-0.6775646209716797,-0.0236252008761251,0.5828705802030102,0.0608141622598777,0.13883324879078568,0.026752542089109495,0.0,0.0,-0.6,0.0,0.0011882781982421875,0.0013964176177978516,0.002068758010864258,0
1.6096396446228027,0.09271297603845596,-0.2538983225822449,-0.6975806355476379,-0.023902731457289536,0.5806256358806401,0.05985527603262659,0.2050576330072019,0.027352706235735262,0.0,0.0,-0.6,0.0,0.001130819320678711,0.0013158321380615234,0.001993894577026367,0
1.6198952198028564,0.09777922183275223,-0.25571897625923157,-0.717157244682312,-0.02415308007847948,0.578426428808587,0.059004893138607725,0.27304595218316446,0.027897724197062802,0.0,0.0,-0.6,0.0,0.0012416839599609375,0.0014348030090332031,0.0021839141845703125,0
1.6295857429504395,0.10845594108104706,-0.25917261838912964,-0.7550078630447388,-0.024559157921777517,0.5762863076110738,0.0578967623020755,0.3444227193752408,0.028435552836580093,0.0,0.0,-0.6,0.0,0.0011012554168701172,0.001283407211303711,0.0019233226776123047,0
1.639801025390625,0.11406368017196655,-0.26080501079559326,-0.773285984992981,-0.024678815237168725,0.574205029501779,0.056834887680135546,0.4174364667780728,0.028898847317418045,0.0,0.0,-0.6,0.0,0.0013060569763183594,0.001523733139038086,0.0022728443145751953,0
1.6497535705566406,0.11985054612159729,-0.26237475872039795,-0.7911365032196045,-0.024759171595830423,0.5721880168578798,0.05578967816931741,0.4920109359197983,0.029292462826227526,0.0,0.0,-0.6,0.0,0.0012035369873046875,0.0014050006866455078,0.002172708511352539,0
1.6596431732177734,0.12581653892993927,-0.2638818025588989,-0.8087872266769409,-0.024812743894250304,0.5702406129607431,0.054759064837543704,0.5680356772739915,0.029623366368936196,0.0,0.0,-0.6,0.0,0.0011036396026611328,0.0012967586517333984,0.0019483566284179688,0
1.6697814464569092,0.1382777839899063,-0.266715407371521,-0.8428023457527161,-0.024776770309372184,0.5683886547539125,0.0533628826523784,0.6376249740917941,0.029882110540331668,0.0,0.0,-0.6,0.0,0.0011982917785644531,0.0013949871063232422,0.0021703243255615234,0
1.6798615455627441,0.14477044343948364,-0.26804405450820923,-0.8591756224632263,-0.02472935659713194,0.5666179306185948,0.05201685428481788,0.6863374818642559,0.03007979444059592,0.0,0.0,-0.6,0.0,0.0013506412506103516,0.0016443729400634766,0.0024678707122802734,0
1.6900725364685059,0.15143541991710663,-0.2693150043487549,-0.8751311302185059,-0.024599406412785445,0.5649267248749141,0.050670291081835114,0.7204362373049792,0.030208328727618868,0.0,0.0,-0.6,0.0,0.002240896224975586,0.002585887908935547,0.003924369812011719,0
1.7002952098846436,0.15827162563800812,-0.27052897214889526,-0.8906718492507935,-0.02441919327025635,0.5633124632623057,0.04930242425075763,0.7443053661134854,0.030268935035138132,0.0,0.0,-0.6,0.0,0.002603292465209961,0.0030584335327148438,0.0044634342193603516,0
1.7098650932312012,0.17244766652584076,-0.2727892994880676,-0.9205225110054016,-0.023860651175525348,0.5618035467746558,0.04750308002469566,0.7610137562794398,0.030183859095679725,0.0,0.0,-0.6,0.0,0.0015153884887695312,0.0017859935760498047,0.002780914306640625,0
1.7199909687042236,0.17978402972221375,-0.2738373279571533,-0.934838593006134,-0.02348153118008365,0.5603687696913089,0.04569267516571985,0.7727096293956078,0.03002412889192425,0.0,0.0,-0.6,0.0,0.0014443397521972656,0.0016949176788330078,0.0025527477264404297,0
1.729783535003662,0.1872832030057907,-0.27483129501342773,-0.9489808082580566,-0.02308481334770066,0.5590062184501967,0.04387115117384267,0.7808967405769255,0.029799848026947292,0.0,0.0,-0.6,0.0,0.0013332366943359375,0.001552581787109375,0.0023441314697265625,0
1.7397754192352295,0.1949416548013687,-0.2757725715637207,-0.9627177119255066,-0.022648165279400626,0.557714764486573,0.04202640860561707,0.7866277184038478,0.029513836283095757,0.0,0.0,-0.6,0.0,0.0012640953063964844,0.0014734268188476562,0.0021932125091552734,0
1.7497823238372803,0.21073026955127716,-0.2774946987628937,-0.9889909625053406,-0.0215987603992478,0.5565346947960569,0.03972616460624895,0.7906394028826935,0.0290308861669243,0.0,0.0,-0.6,0.0,0.0012416839599609375,0.001438140869140625,0.002212047576904297,0
1.7596967220306396,0.21885541081428528,-0.2782757580280304,-1.0015345811843872,-0.020990646821504328,0.5554262303411451,0.03740919542310952,0.7934475820178855,0.02849471278468338,0.0,0.0,-0.6,0.0,0.0011076927185058594,0.001313924789428711,0.0019931793212890625,0
1.7697229385375977,0.22713196277618408,-0.2790035009384155,-1.0136860609054565,-0.020374281656049726,0.5543893472036283,0.03509234702034652,0.7954133074125198,0.02791355263667758,0.0,0.0,-0.6,0.0,0.001255035400390625,0.0014646053314208984,0.0022547245025634766,0
1.780005693435669,0.23555777966976166,-0.2796797454357147,-1.0254485607147217,-0.019727788744805484,0.5534244150488276,0.03277158795984845,0.7967893151887638,0.027288821649047133,0.0,0.0,-0.6,0.0,0.0012183189392089844,0.001432657241821289,0.0022420883178710938,0
1.789527416229248,0.2528451085090637,-0.280882865190506,-1.04781973361969,-0.01832108838475805,0.5525845420881039,0.030037324547271274,0.7977525206321348,0.02644643148212724,0.0,0.0,-0.6,0.0,0.00113677978515625,0.0013275146484375,0.001962423324584961,0
1.7997121810913086,0.2616998255252838,-0.2814113199710846,-1.0586568117141724,-0.017569244023585593,0.5518177512913707,0.0273479224896799,0.7984267644424944,0.025585338226736365,0.0,0.0,-0.6,0.0,0.0008728504180908203,0.0010256767272949219,0.0015938282012939453,0
1.809685230255127,0.2706916332244873,-0.2818916141986847,-1.0691112279891968,-0.01679148614202424,0.5511232238085774,0.024692435700946248,0.7988987351097461,0.02470291382248139,0.0,0.0,-0.6,0.0,0.001032114028930664,0.0011985301971435547,0.0018270015716552734,0
1.8197343349456787,0.2798149883747101,-0.2823237180709839,-1.0791866779327393,-0.016016893720474233,0.5505015282676713,0.022023463175988585,0.7992291145768222,0.023804005800546063,0.0,0.0,-0.6,0.0,0.0009927749633789062,0.00115203857421875,0.0017344951629638672,0
1.8299403190612793,0.2984549105167389,-0.2830420732498169,-1.0982110500335693,-0.014450800718738164,0.5500166191078371,0.018993294188530813,0.7994603802037755,0.02270182752473704,0.0,0.0,-0.6,0.0,0.0011324882507324219,0.0013196468353271484,0.0020155906677246094,0
1.8397536277770996,0.30796435475349426,-0.2833312749862671,-1.1071652173995972,-0.013638463361059415,0.5496067094148791,0.015998344374598582,0.7996222661426429,0.02161630877471403,0.0,0.0,-0.6,0.0,0.0010912418365478516,0.0012936592102050781,0.0019648075103759766,0
1.8496956825256348,0.31759482622146606,-0.28357651829719543,-1.1157511472702026,-0.01279682714801887,0.5492720068904958,0.013069857233536935,0.79973558629985,0.02053721827013559,0.0,0.0,-0.6,0.0,0.0011813640594482422,0.0013766288757324219,0.002077341079711914,0
1.859956979751587,0.32734349370002747,-0.28377819061279297,-1.1239731311798096,-0.011960996049980467,0.5490122203204104,0.010233871595240612,0.799814910409895,0.019464711467275533,0.0,0.0,-0.6,0.0,0.0012593269348144531,0.0014603137969970703,0.0022461414337158203,0
1.8696610927581787,0.34491705894470215,-0.28538304567337036,-1.1487382650375366,-0.010310820824650709,0.548861283234582,0.007557827129743791,0.7998704372869265,0.01820208555309584,0.0,0.0,-0.6,0.0,0.0011653900146484375,0.001363992691040039,0.0020661354064941406,0
1.8799543380737305,0.35278499126434326,-0.28676316142082214,-1.1650511026382446,-0.009690461010880013,0.5487488858847087,0.005267208570278132,0.7999093061008485,0.01703299637129274,0.0,0.0,-0.6,0.0,0.0011374950408935547,0.0013210773468017578,0.0020148754119873047,0
1.889777421951294,0.3608042001724243,-0.2880778908729553,-1.1807836294174194,-0.009034816917818272,0.5486773180277355,0.003296017104933703,0.799936514270594,0.015931017584663268,0.0,0.0,-0.6,0.0,0.0012001991271972656,0.0013914108276367188,0.0021479129791259766,0
1.8997879028320312,0.368969589471817,-0.28932884335517883,-1.1959443092346191,-0.008372668356071075,0.548648078325792,0.0016416199151367457,0.7999555599894158,0.014881703159124585,0.0,0.0,-0.6,0.0,0.001226186752319336,0.0014264583587646484,0.0021321773529052734,0
1.909764051437378,0.3857191801071167,-0.29164811968803406,-1.2245924472808838,-0.007106641997505942,0.5487075068135282,0.0004605256841261195,0.7999688919925911,0.013730011557192515,0.0,0.0,-0.6,0.0,0.00124359130859375,0.0014395713806152344,0.002192258834838867,0
1.9196908473968506,0.39429542422294617,-0.29271578788757324,-1.238099217414856,-0.006482724154066108,0.548813108416263,-0.0005307552853135496,0.7999782243948138,0.012649702436359836,0.0,0.0,-0.6,0.0,0.0010976791381835938,0.001302957534790039,0.001957416534423828,0
1.929718017578125,0.40299972891807556,-0.2937217652797699,-1.2510727643966675,-0.005871564830747223,0.5489659198269424,-0.0014252645885013179,0.7999847570763696,0.011630135591406687,0.0,0.0,-0.6,0.0,0.001268148422241211,0.0014641284942626953,0.002213716506958008,0
1.9399199485778809,0.4118271470069885,-0.29466643929481506,-1.2635222673416138,-0.005255579029650834,0.5491673938785717,-0.002257512431903465,0.7999893299534587,0.010658488506071706,0.0,0.0,-0.6,0.0,0.001604318618774414,0.0018968582153320312,0.002824544906616211,0
1.9496150016784668,0.4207718074321747,-0.2955518364906311,-1.2756482362747192,-0.004659374857098573,0.5494173904473751,-0.0029827600491279505,0.7999925309674212,0.009730308771857023,0.0,0.0,-0.6,0.0,0.0010917186737060547,0.0013077259063720703,0.002003908157348633,0
1.9600698947906494,0.438992977142334,-0.2971594035625458,-1.2983713150024414,-0.0034887794435836104,0.5497747075237589,-0.0033866016844697248,0.7999947716771948,0.008699396412881692,0.0,0.0,-0.6,0.0,0.0016014575958251953,0.0018568038940429688,0.0028052330017089844,0
1.9697840213775635,0.4482642412185669,-0.29788103699684143,-1.3089849948883057,-0.0029238892452843317,0.5501835937168591,-0.0037346558602345484,0.7999963401740364,0.00773084694188262,0.0,0.0,-0.6,0.0,0.0014011859893798828,0.0016405582427978516,0.0024945735931396484,0
1.9798088073730469,0.4576384723186493,-0.29854658246040344,-1.3191099166870117,-0.002358701620397173,0.5506449656095418,-0.004077659377210667,0.7999974381218256,0.006812613671105132,0.0,0.0,-0.6,0.0,0.0012640953063964844,0.0014719963073730469,0.0021812915802001953,0
1.9898738861083984,0.47667187452316284,-0.299713671207428,-1.3379297256469727,-0.0012071979939702437,0.5512234257500298,-0.004426446508512675,0.7999982066852779,0.005794319198313989,0.0,0.0,-0.6,0.0,0.0013484954833984375,0.0015718936920166016,0.002370119094848633,0
1.999762773513794,0.48632457852363586,-0.30022045969963074,-1.3466392755508423,-0.0006528066439240469,0.5518557042916684,-0.004684920225697479,0.7999987446796946,0.004838484396484814,0.0,0.0,-0.6,0.0,0.001222848892211914,0.0014407634735107422,0.002153158187866211,0
2.0097875595092773,0.49606257677078247,-0.30067843198776245,-1.3548911809921265,-0.00010961103573323329,0.5525423190443236,-0.004864397042600487,0.7999991212757862,0.003935803067451921,0.0,0.0,-0.6,0.0,0.0013539791107177734,0.0016036033630371094,0.002488851547241211,0
2.0198330879211426,0.5058813095092773,-0.30108770728111267,-1.3628716468811035,0.000416806073128499,0.5532824555157553,-0.005024149872965044,0.7999993848930503,0.0030800968580987353,0.0,0.0,-0.6,0.0,0.0012555122375488281,0.0015201568603515625,0.002287626266479492,0
2.029798746109009,0.5257429480552673,-0.3017604947090149,-1.3774995803833008,0.001463911749813832,0.5541482210850818,-0.005282163571825797,0.7999995694251353,0.0021373806211788943,0.0,0.0,-0.6,0.0,0.0014009475708007812,0.001627206802368164,0.0024595260620117188,0
2.039965867996216,0.5357792973518372,-0.30202528834342957,-1.384158968925476,0.001981917042477466,0.5550684931690975,-0.00557014422782275,0.7999996985975947,0.00125134305996321,0.0,0.0,-0.6,0.0,0.0013680458068847656,0.0015823841094970703,0.002398967742919922,0
2.0498125553131104,0.5458829998970032,-0.3022468090057373,-1.390391230583191,0.0024934834640590094,0.556043545331034,-0.005811241510550747,0.7999997890183163,0.00041264863964194515,0.0,0.0,-0.6,0.0,0.0013136863708496094,0.0015234947204589844,0.002370119094848633,0
2.0597286224365234,0.5560485124588013,-0.3024229407310486,-1.3962023258209229,0.003001384159464361,0.5570732848923231,-0.006049091913137117,0.7999998523128214,-0.00038691108866983903,0.0,0.0,-0.6,0.0,0.0012049674987792969,0.0014240741729736328,0.002096891403198242,0
2.070066452026367,0.5765489935874939,-0.3026355803012848,-1.4065884351730347,0.004003129676700804,0.5582356562366091,-0.00631525107477131,0.7999998966189751,-0.0012733735003707114,0.0,0.0,-0.6,0.0,0.0014047622680664062,0.0016798973083496094,0.002569913864135742,0
2.0801072120666504,0.586877167224884,-0.3026735782623291,-1.4111744165420532,0.004507092906688793,0.5594527281068565,-0.006719735645864487,0.7999999276332825,-0.0021105900802629654,0.0,0.0,-0.6,0.0,0.001604318618774414,0.0021648406982421875,0.0031054019927978516,0
2.089770555496216,0.5972537398338318,-0.3026670217514038,-1.4155428409576416,0.004995581983506465,0.5607240308042617,-0.0071895978659373295,0.7999999493432978,-0.002904293879146133,0.0,0.0,-0.6,0.0,0.0014026165008544922,0.0016412734985351562,0.0024576187133789062,0
2.0999794006347656,0.607677161693573,-0.30261921882629395,-1.4195154905319214,0.0054943702770649345,0.562048941919333,-0.007649018773771818,0.7999999645403084,-0.0036653199534359,0.0,0.0,-0.6,0.0,0.001451730728149414,0.0016758441925048828,0.0025289058685302734,0
2.109626531600952,0.6181407570838928,-0.3025309145450592,-1.423098087310791,0.005969493352864397,0.5634276289336689,-0.008100702800259431,0.7999999751782159,-0.004394257774100074,0.0,0.0,-0.6,0.0,0.0010488033294677734,0.0012810230255126953,0.0019834041595458984,0
2.1199779510498047,0.6391770839691162,-0.3022298514842987,-1.4291167259216309,0.006905585837132235,0.5649437233540577,-0.008590231465105739,0.7999999826247511,-0.005207900153263709,0.0,0.0,-0.6,0.0,0.0015532970428466797,0.001829385757446289,0.002743959426879883,0
2.129845142364502,0.6497422456741333,-0.3020167946815491,-1.4315638542175293,0.007379073089826006,0.5665122806101752,-0.00924251214033226,0.7999999878373258,-0.005978958689267233,0.0,0.0,-0.6,0.0,0.0010612010955810547,0.0012104511260986328,0.002023935317993164,0
2.139827251434326,0.660332441329956,-0.30176326632499695,-1.4336458444595337,0.007864501153520826,0.56813235957922,-0.00996594004209774,0.7999999914861281,-0.006718479941760114,0.0,0.0,-0.6,0.0,0.0012917518615722656,0.001512765884399414,0.0023009777069091797,0
2.1496663093566895,0.6815797090530396,-0.30114004015922546,-1.436734914779663,0.008765641187876391,0.5698905509528304,-0.010686480294958813,0.7999999940402897,-0.007532287164923657,0.0,0.0,-0.6,0.0,0.001299142837524414,0.0015037059783935547,0.002266407012939453,0
2.1597344875335693,0.6922308206558228,-0.3007664978504181,-1.4379621744155884,0.009214156917056557,0.5716980453196528,-0.011507172935614807,0.7999999958282028,-0.00829748463060094,0.0,0.0,-0.6,0.0,0.0012505054473876953,0.0014851093292236328,0.0021774768829345703,0
2.1696770191192627,0.7028943300247192,-0.30035191774368286,-1.438840627670288,0.009659078455483918,0.5735541895109365,-0.012460659725350308,0.799999997079742,-0.009022544761594045,0.0,0.0,-0.6,0.0,0.0012428760528564453,0.0014421939849853516,0.0021514892578125,0
2.180051326751709,0.7135607600212097,-0.2998967468738556,-1.4393742084503174,0.010089264893139783,0.5754594934303344,-0.013611727934977162,0.7999999979558194,-0.009711637161152184,0.0,0.0,-0.6,0.0,0.0012214183807373047,0.0014119148254394531,0.002145528793334961,0
2.1896612644195557,0.7349052429199219,-0.29887306690216064,-1.4394257068634033,0.010900476782940866,0.5775023190769475,-0.014814957317207715,0.7999999985690737,-0.010463115247449958,0.0,0.0,-0.6,0.0,0.0010981559753417969,0.0012803077697753906,0.0019283294677734375,0
2.1999008655548096,0.7455766201019287,-0.29830634593963623,-1.4389562606811523,0.011296591476201037,0.5795913472997103,-0.016082145714129595,0.7999999989983516,-0.011165376503307234,0.0,0.0,-0.6,0.0,0.001218557357788086,0.001413583755493164,0.0021207332611083984,0
2.209752082824707,0.7562409043312073,-0.2977007031440735,-1.4381630420684814,0.011724549974241702,0.5817265411113077,-0.017433586452370045,0.7999999992988461,-0.011835517095532155,0.0,0.0,-0.6,0.0,0.0011959075927734375,0.001401662826538086,0.0021474361419677734,0
2.219850540161133,0.7668942213058472,-0.29705655574798584,-1.4370499849319458,0.012147956187492938,0.5839074514610014,-0.018911633331064593,0.7999999995091923,-0.012478605166871742,0.0,0.0,-0.6,0.0,0.001247406005859375,0.0014498233795166016,0.0021872520446777344,0
2.2298173904418945,0.788158118724823,-0.29565393924713135,-1.4341137409210205,0.012997835220781202,0.5862235774358695,-0.020631239557932102,0.7999999996564346,-0.013202192989488715,0.0,0.0,-0.6,0.0,0.0013549327850341797,0.001567840576171875,0.002357959747314453,0
2.2397398948669434,0.7987604141235352,-0.2949005365371704,-1.4322941303253174,0.013433773857527559,0.5885817834772135,-0.022336092905078268,0.7999999997595043,-0.01389148141370844,0.0,0.0,-0.6,0.0,0.001207590103149414,0.0014302730560302734,0.0021414756774902344,0
2.2497377395629883,0.8093348741531372,-0.2941119968891144,-1.430169701576233,0.013853411544062692,0.5909816155759295,-0.024044175979097738,0.799999999831653,-0.014549132586310458,0.0,0.0,-0.6,0.0,0.0012195110321044922,0.0014255046844482422,0.002187490463256836,0
2.2599079608917236,0.8198817372322083,-0.29328978061676025,-1.4277429580688477,0.014274230556395233,0.5934238483265991,-0.02578476858223212,0.7999999998821572,-0.01518151619120988,0.0,0.0,-0.6,0.0,0.0013430118560791016,0.0015544891357421875,0.002335786819458008,0
2.2696621417999268,0.8414624929428101,-0.29219484329223633,-1.4313206672668457,0.015090579336820193,0.595961846755004,-0.027612121014064885,0.79999999991751,-0.015888405540153402,0.0,0.0,-0.6,0.0,0.0012309551239013672,0.001444101333618164,0.0021631717681884766,0
2.2803783416748047,0.8524729013442993,-0.29191315174102783,-1.437103033065796,0.015315956820227145,0.5985011872637256,-0.0293528081247445,0.799999999942257,-0.016513665313807963,0.0,0.0,-0.6,0.0,0.001516580581665039,0.001737833023071289,0.002582550048828125,0
2.289860963821411,0.8634265065193176,-0.29159191250801086,-1.442374587059021,0.015528909509375811,0.6010437468840457,-0.030939473743633473,0.7999999999595799,-0.017069981403492626,0.0,0.0,-0.6,0.0,0.0015070438385009766,0.0017445087432861328,0.0027189254760742188,0
2.2997753620147705,0.874320387840271,-0.2912310063838959,-1.4471436738967896,0.01575702252647057,0.6035908496463841,-0.03239621726866572,0.799999999971706,-0.01757422545289973,0.0,0.0,-0.6,0.0,0.0013055801391601562,0.001535177230834961,0.002321958541870117,0
2.309912919998169,0.8851515650749207,-0.29082947969436646,-1.451543927192688,0.01599012556460871,0.6061426863847852,-0.033807606712033846,0.7999999999801942,-0.018037601154332214,0.0,0.0,-0.6,0.0,0.0012650489807128906,0.0014693737030029297,0.0023543834686279297,0
2.3197600841522217,0.9066080451011658,-0.28990912437438965,-1.4589005708694458,0.07905115092167476,0.6087532469450527,-0.014209136423362946,0.799999999986136,-0.03354660031051942,0.0,0.0,-0.6,0.0,0.0012664794921875,0.0014967918395996094,0.002231121063232422,0
2.32977294921875,0.9172272682189941,-0.28939658403396606,-1.4618780612945557,0.07925219843735508,0.6113778375088748,0.0007150316071840423,0.7999999999902953,-0.04612621497058493,0.0,0.0,-0.6,0.0,0.0016870498657226562,0.0018992424011230469,0.002672910690307617,0
2.339892625808716,0.927772045135498,-0.28885480761528015,-1.4644010066986084,0.07944798374135668,0.6140146546808395,0.011980711007695311,0.7999999999932067,-0.05633746816302303,0.0,0.0,-0.6,0.0,0.0013527870178222656,0.0015573501586914062,0.002335071563720703,0
2.3497040271759033,0.9486212730407715,-0.28768205642700195,-1.4681164026260376,0.0798505908717295,0.6167283921792323,0.020940513076272878,0.7999999999952447,-0.06468479280934918,0.0,0.0,-0.6,0.0,0.0011606216430664062,0.00138092041015625,0.0020575523376464844,0
2.359882116317749,0.9589162468910217,-0.28705036640167236,-1.4693262577056885,0.08004506726273702,0.6194523130895565,0.027434506091853637,0.7999999999966714,-0.07147614298236342,0.0,0.0,-0.6,0.0,0.0012514591217041016,0.0014574527740478516,0.0022144317626953125,0
2.3697547912597656,0.9691197276115417,-0.28638914227485657,-1.4701160192489624,0.08022494719536126,0.622185908966363,0.03206562472549482,0.79999999999767,-0.07700670276516712,0.0,0.0,-0.6,0.0,0.0012810230255126953,0.0014884471893310547,0.002234935760498047,0
2.3798322677612305,0.9792299270629883,-0.2857015132904053,-1.47063410282135,0.08038695197794968,0.6249288349206544,0.035349577389605834,0.799999999998369,-0.08151427443564872,0.0,0.0,-0.6,0.0,0.0012090206146240234,0.0014257431030273438,0.002170085906982422,0
2.3898394107818604,0.9892430901527405,-0.28498733043670654,-1.470744252204895,0.08053888958689029,0.6276817970837295,0.037581450427931755,0.7999999999988583,-0.08519286094152435,0.0,0.0,-0.6,0.0,0.0013260841369628906,0.0015377998352050781,0.002347707748413086,0
