time,x,y,z,yaw,throttle,roll_rate,pitch_rate,yaw_rate,x_ref,y_ref,z_ref,yaw_ref,pred_time,nr_time,ctrl_callback_time,metadata
7.152557373046875e-07,-0.000865040929056704,-0.0062406025826931,-0.01099205482751131,0.020092621750635295,0.7086168759551218,0.00645505286433221,-0.0035444285840954114,-0.007534738634697003,0.0,0.0,-0.6,0.0,0.2077181339263916,0.20817160606384277,0.2090599536895752,Sim
0.209259033203125,-0.000865040929056704,-0.0062406025826931,-0.01099205482751131,0.020092621750635295,0.720499419013362,0.010465193995030717,-0.005706070231481262,-0.012809043828633696,0.0,0.0,-0.6,0.0,0.0008780956268310547,0.001127004623413086,0.0016434192657470703,jax_pred_jac_only
0.21120762825012207,-0.0018624106887727976,-0.006672615185379982,-0.009752439334988594,0.019878810248052135,0.7299293952506367,0.013420649085659264,-0.007178174713403394,-0.016420888635981956,0.0,0.0,-0.6,0.0,0.0006573200225830078,0.0008962154388427734,0.0012929439544677734,1x Speed
0.21989703178405762,-0.0018624106887727976,-0.006672615185379982,-0.009752439334988594,0.019878810248052135,0.7373971790017171,0.015346414708283565,-0.008127954304080278,-0.01894917803433735,0.0,0.0,-0.6,0.0,0.0008785724639892578,0.0011317729949951172,0.0016713142395019531,QuatYawError
0.229905366897583,-0.0018486441113054752,-0.006594232749193907,-0.009629687294363976,0.019925845970746654,0.7433227745573623,0.0165290602642823,-0.008749402747860836,-0.020736617035172315,0.0,0.0,-0.6,0.0,0.001088857650756836,0.0013620853424072266,0.0019335746765136719,0
0.2397937774658203,-0.0018417064566165209,-0.006557891611009836,-0.009568567387759686,0.019929920198883722,0.74803801175282,0.01726369997422742,-0.009074940879948546,-0.02198934866014607,0.0,0.0,-0.6,0.0,0.0008363723754882812,0.0010771751403808594,0.0015943050384521484,0
0.2500133514404297,-0.0018337131477892399,-0.006523211020976305,-0.009516456164419651,0.019925646396443834,0.7517986536449315,0.017677033287415492,-0.009250719056960602,-0.022864664692734623,0.0,0.0,-0.6,0.0,0.0010678768157958984,0.0013108253479003906,0.0018687248229980469,0
0.25979018211364746,-0.0018268844578415155,-0.006489133462309837,-0.009462266229093075,0.019922630120617176,0.754799809369598,0.01787866798415806,-0.009393448596767915,-0.023476254065592044,0.0,0.0,-0.6,0.0,0.0008831024169921875,0.001161336898803711,0.001703023910522461,0
0.27004027366638184,-0.0018212288850918412,-0.006455777678638697,-0.0094072837382555,0.019913421120113,0.7571962834216012,0.017959763176273718,-0.009478616876051348,-0.023900917258199362,0.0,0.0,-0.6,0.0,0.0012247562408447266,0.0015461444854736328,0.0022771358489990234,0
0.2801089286804199,-0.0018167542293667793,-0.0064245485700666904,-0.00935059692710638,0.019876667637573564,0.7591161837899406,0.01801886194850296,-0.009553627586018751,-0.02418439592927255,0.0,0.0,-0.6,0.0,0.0010924339294433594,0.0014064311981201172,0.0020973682403564453,0
0.2898387908935547,-0.0018054363317787647,-0.00636781333014369,-0.009241042658686638,0.01984952356618974,0.7606101308017711,0.01792470136365618,-0.009454627340638459,-0.024372648015739202,0.0,0.0,-0.6,0.0,0.0011289119720458984,0.0014672279357910156,0.002088785171508789,0
0.3000509738922119,-0.0017999454867094755,-0.006337342318147421,-0.009220787324011326,0.01982513800869178,0.7617035952498811,0.017714095325023226,-0.009270802412096225,-0.02449527892512503,0.0,0.0,-0.6,0.0,0.0012364387512207031,0.0016040802001953125,0.002401113510131836,0
0.31002187728881836,-0.0017866333946585655,-0.006274119950830936,-0.00936469342559576,0.019761410770187914,0.7622789317784228,0.017329530976534585,-0.008804223921441168,-0.024557225998194696,0.0,0.0,-0.6,0.0,0.001461029052734375,0.001905202865600586,0.002810955047607422,0
0.32015299797058105,-0.0017799749039113522,-0.006243288982659578,-0.009546973742544651,0.01975483971251501,0.7625649783761188,0.016939430487555168,-0.008342463313679733,-0.024598122195802118,0.0,0.0,-0.6,0.0,0.0017197132110595703,0.002281665802001953,0.003358602523803711,0
0.3298518657684326,-0.001773914322257042,-0.006213655695319176,-0.009804156608879566,0.019710068069869566,0.7626015343535627,0.016541131697589407,-0.00783337231987475,-0.02460996552159343,0.0,0.0,-0.6,0.0,0.001012563705444336,0.0012488365173339844,0.0018157958984375,0
0.3397960662841797,-0.001767472131177783,-0.006183777470141649,-0.010141967795789242,0.019648408878456376,0.7624289225063158,0.016083504712820443,-0.007247786711497638,-0.02459513164216707,0.0,0.0,-0.6,0.0,0.0008170604705810547,0.0010802745819091797,0.0016016960144042969,0
0.34991908073425293,-0.0017607193440198898,-0.0061537702567875385,-0.010561859235167503,0.019578346239941383,0.7620853710486936,0.015629968622784745,-0.006649393621885483,-0.02455847686312345,0.0,0.0,-0.6,0.0,0.0010983943939208984,0.001378774642944336,0.00197601318359375,0
0.3600118160247803,-0.0017554917139932513,-0.006098804995417595,-0.011654266156256199,0.019426925120396676,0.7613823087636108,0.015074978250902264,-0.0058683134123794466,-0.024476030484792015,0.0,0.0,-0.6,0.0,0.0010783672332763672,0.0013663768768310547,0.0020427703857421875,0
0.3698611259460449,-0.0017553073121234775,-0.006073028314858675,-0.01231763418763876,0.019331325591130166,0.7606002016990039,0.014555463851643746,-0.005101091058574244,-0.024382468745458352,0.0,0.0,-0.6,0.0,0.0010614395141601562,0.0013549327850341797,0.0019500255584716797,0
0.38002777099609375,-0.001752927782945335,-0.006048174109309912,-0.013066896237432957,0.019255208137334456,0.7597529934638726,0.014048301275185443,-0.004344423939118115,-0.024288430800443458,0.0,0.0,-0.6,0.0,0.0011506080627441406,0.0014712810516357422,0.0021648406982421875,0
0.38990330696105957,-0.0017503967974334955,-0.006023672875016928,-0.013902965933084488,0.019156847353129083,0.7588476007458309,0.013481134237056274,-0.0036564315847502776,-0.02418571521034053,0.0,0.0,-0.6,0.0,0.001276254653930664,0.0016210079193115234,0.0023391246795654297,0
0.3999755382537842,-0.00174904172308743,-0.005998925305902958,-0.014824901707470417,0.01903939192050587,0.7579016468010266,0.012909072923447912,-0.0030182196928030024,-0.024069775598038804,0.0,0.0,-0.6,0.0,0.0011372566223144531,0.0014770030975341797,0.0021750926971435547,0
0.4098696708679199,-0.0017478324007242918,-0.005947452038526535,-0.016920648515224457,0.018759921603361835,0.7566956532159931,0.0120471575894916,-0.0021078603633743276,-0.02388381406364678,0.0,0.0,-0.6,0.0,0.001035928726196289,0.0013151168823242188,0.0018849372863769531,0
0.4198415279388428,-0.0017452632309868932,-0.005920277908444405,-0.01809428632259369,0.018637302663513478,0.7555011116142526,0.011258635280976925,-0.0012056320095953654,-0.023707666393769228,0.0,0.0,-0.6,0.0,0.0010373592376708984,0.0013263225555419922,0.0018973350524902344,0
0.4299304485321045,-0.0017330606933683157,-0.005860954988747835,-0.02069457620382309,0.018342131573674716,0.7540832829662238,0.01025724447103805,-1.4454836508540504e-06,-0.023473665067202075,0.0,0.0,-0.6,0.0,0.0011572837829589844,0.001466512680053711,0.002153635025024414,0
0.44008660316467285,-0.0017231161473318934,-0.005827610846608877,-0.022144315764307976,0.01819312327821465,0.7527194971077953,0.009332533498267237,0.001160971885888724,-0.023253984002619812,0.0,0.0,-0.6,0.0,0.0010960102081298828,0.0014004707336425781,0.002157449722290039,0
0.44986772537231445,-0.0017096970696002245,-0.005793669726699591,-0.023672813549637794,0.018048418321144066,0.7514029586808354,0.008487035265234727,0.0023109524471925467,-0.02304594039317731,0.0,0.0,-0.6,0.0,0.001129150390625,0.0014595985412597656,0.002081155776977539,0
0.4600636959075928,-0.0016933801816776395,-0.005759931169450283,-0.025279037654399872,0.017872843541632,0.7501229674672423,0.007686387158258902,0.003417424446724354,-0.022834472227872223,0.0,0.0,-0.6,0.0,0.0012161731719970703,0.001558065414428711,0.002335786819458008,0
0.47002649307250977,-0.0016745030879974365,-0.005725886672735214,-0.026961371302604675,0.017685508640657623,0.7488774834093724,0.006901602762821224,0.004490689644510483,-0.02261619589305758,0.0,0.0,-0.6,0.0,0.001377105712890625,0.0017192363739013672,0.002485513687133789,0
0.4799377918243408,-0.0016283703735098243,-0.0056549678556621075,-0.030544733628630638,0.01734697639499142,0.7474467601577545,0.005921909958902398,0.005728343155861109,-0.02233644725680676,0.0,0.0,-0.6,0.0,0.0011205673217773438,0.0014379024505615234,0.0020918846130371094,0
0.4900197982788086,-0.0016027989331632853,-0.00561925582587719,-0.03244198486208916,0.017167000032245472,0.7460868404031104,0.00510028855653983,0.006834867827542547,-0.02207313353757938,0.0,0.0,-0.6,0.0,0.0011816024780273438,0.0014922618865966797,0.0021979808807373047,0
0.4998283386230469,-0.001575429574586451,-0.0055834888480603695,-0.0344085693359375,0.016974192454729916,0.7447812383871479,0.00432788342669402,0.007825528842673669,-0.021816521778810726,0.0,0.0,-0.6,0.0,0.0009760856628417969,0.0012793540954589844,0.0018815994262695312,0
0.5099477767944336,-0.0015151354018598795,-0.005509415175765753,-0.038546498864889145,0.016654440841607006,0.7433146540838945,0.003365883977576476,0.00896523983488797,-0.02151698187953908,0.0,0.0,-0.6,0.0,0.0011289119720458984,0.0014340877532958984,0.002076387405395508,0
0.5199263095855713,-0.0014834151370450854,-0.005469269584864378,-0.040713630616664886,0.016493440622441673,0.741933908125175,0.0024690813891475837,0.009947207397658916,-0.021246925959446758,0.0,0.0,-0.6,0.0,0.0011501312255859375,0.0014624595642089844,0.00218963623046875,0
0.529848575592041,-0.001450141309760511,-0.005425413139164448,-0.04294320568442345,0.016319568709699958,0.7406221465303185,0.0015712413437192901,0.010817037401674435,-0.020992687784999988,0.0,0.0,-0.6,0.0,0.0011265277862548828,0.0013997554779052734,0.0019528865814208984,0
0.5399930477142334,-0.0014156203251332045,-0.0053788465447723866,-0.04523330181837082,0.01615196343791071,0.7393721556791645,0.0007720566434691627,0.011630520920934017,-0.020751868977499553,0.0,0.0,-0.6,0.0,0.0011832714080810547,0.0015625953674316406,0.002324342727661133,0
0.5501041412353516,-0.0013402800541371107,-0.005281292367726564,-0.0499805249273777,0.01579504133411536,0.7379898112256441,-0.00016294988620505293,0.01255231804315862,-0.020449455094418558,0.0,0.0,-0.6,0.0,0.0017578601837158203,0.002244234085083008,0.0032439231872558594,0
0.5600137710571289,-0.0013004490174353123,-0.005229052621871233,-0.05243467912077904,0.015649362247971005,0.7366921713247974,-0.001022267910096324,0.013403607443046554,-0.02018313291749874,0.0,0.0,-0.6,0.0,0.0013778209686279297,0.0017876625061035156,0.002655506134033203,0
0.5700047016143799,-0.0012592768762260675,-0.0051733385771512985,-0.05494160205125809,0.015467361102988787,0.7354626699259186,-0.0018885509464868565,0.014140530652837803,-0.019928451634171195,0.0,0.0,-0.6,0.0,0.001466989517211914,0.001863241195678711,0.002764463424682617,0
0.5799167156219482,-0.0012119037564843893,-0.005113605875521898,-0.057500164955854416,0.015296975356775277,0.7342907089087399,-0.002703671362901921,0.01481433097042052,-0.019686284418895455,0.0,0.0,-0.6,0.0,0.0012264251708984375,0.0016014575958251953,0.002370119094848633,0
0.5900278091430664,-0.0008447032887488604,-0.005058003589510918,-0.061871487647295,0.014969675539197124,0.7330320023005099,-0.0033307553140862413,0.015646964117426932,-0.019394025169604815,0.0,0.0,-0.6,0.0,0.0013239383697509766,0.0017292499542236328,0.002585887908935547,0
0.6003386974334717,-0.000531047466211021,-0.005061340518295765,-0.0636698305606842,0.014808520530574052,0.7318825392863071,-0.003853566297533993,0.016476610590191964,-0.01912900802029211,0.0,0.0,-0.6,0.0,0.002000093460083008,0.002585887908935547,0.0038285255432128906,0
0.6098942756652832,-0.000219811248825863,-0.0050619919784367085,-0.06552813202142715,0.014647113730023777,0.7308249672906691,-0.004348459826475122,0.017279258747719798,-0.018882976236057575,0.0,0.0,-0.6,0.0,0.001497507095336914,0.001993894577026367,0.0028913021087646484,0
0.6200940608978271,8.922346751205623e-05,-0.005060918629169464,-0.06744314730167389,0.014463035767276942,0.7298434353237854,-0.004753099153519981,0.018147170979239423,-0.018641725627748046,0.0,0.0,-0.6,0.0,0.001688241958618164,0.0023283958435058594,0.003536701202392578,0
0.6299324035644531,0.0007034005247987807,-0.005052994471043348,-0.0714389905333519,0.014146263843879042,0.7287905357351703,-0.00520387024778945,0.019300312733122025,-0.01835405680378535,0.0,0.0,-0.6,0.0,0.0012230873107910156,0.001544952392578125,0.0022513866424560547,0
0.6400024890899658,0.0010077307233586907,-0.005046420264989138,-0.07351485639810562,0.014004068460994328,0.7278183618953509,-0.005542971910293883,0.02030534983371123,-0.01809936869740787,0.0,0.0,-0.6,0.0,0.001241445541381836,0.0015964508056640625,0.002393007278442383,0
0.6500160694122314,0.0013096786569803953,-0.005038578528910875,-0.07564056664705276,0.013850946159213848,0.7269118333757207,-0.005792739010683194,0.02119327611490539,-0.017863668265731488,0.0,0.0,-0.6,0.0,0.00144195556640625,0.0018422603607177734,0.002721071243286133,0
0.6598761081695557,0.0016098709311336279,-0.005029602441936731,-0.07782197743654251,0.013723905589728146,0.7260653430449147,-0.006068870743138661,0.022072542281817563,-0.017651029538076422,0.0,0.0,-0.6,0.0,0.0011858940124511719,0.001562356948852539,0.002252817153930664,0
0.6700019836425781,0.002205947181209922,-0.005001680925488472,-0.08231695741415024,0.013404215277880282,0.7251457298143587,-0.0064814020047283035,0.02305593113478981,-0.017382306413441028,0.0,0.0,-0.6,0.0,0.001256704330444336,0.0015857219696044922,0.0023026466369628906,0
0.6800456047058105,0.0025015026330947876,-0.00498405983671546,-0.08462677150964737,0.013236059616504075,0.7242930036818785,-0.0068113464764907585,0.0239204092615897,-0.017131138742267456,0.0,0.0,-0.6,0.0,0.001211404800415039,0.0015435218811035156,0.002310037612915039,0
0.6898586750030518,0.0027948031201958656,-0.004964736290276051,-0.08697645366191864,0.013054870748331763,0.7234911432009093,-0.007109012049944636,0.024648993083412785,-0.016887376991187537,0.0,0.0,-0.6,0.0,0.0012094974517822266,0.0015506744384765625,0.0022819042205810547,0
0.7000401020050049,0.003085650270804763,-0.004942379426211119,-0.0893651619553566,0.012894776582202679,0.7227338160642398,-0.007398059108246711,0.025320723414601953,-0.016656702088135977,0.0,0.0,-0.6,0.0,0.0012583732604980469,0.0015990734100341797,0.0023736953735351562,0
0.7099244594573975,0.0036637887824326754,-0.004889862146228552,-0.09424835443496704,0.012583561355491879,0.7219108072805002,-0.0077223139249197265,0.026125339470311572,-0.016378526138191667,0.0,0.0,-0.6,0.0,0.0011887550354003906,0.0014977455139160156,0.0022246837615966797,0
0.7198219299316406,0.003953009378165007,-0.004859645385295153,-0.09673872590065002,0.012445184049290261,0.7211459194694694,-0.008021833405625593,0.026897780108558117,-0.016131914139851742,0.0,0.0,-0.6,0.0,0.0013997554779052734,0.0018808841705322266,0.0027456283569335938,0
0.7302179336547852,0.004242124035954475,-0.004827337339520454,-0.09927026182413101,0.012285660447732123,0.7204307973985327,-0.00822686705680648,0.027604125137380826,-0.015899464729908993,0.0,0.0,-0.6,0.0,0.0016279220581054688,0.0020711421966552734,0.003078460693359375,0
0.7398731708526611,0.004530818201601505,-0.004794257692992687,-0.10183085501194,0.012161127712039796,0.7197531159773174,-0.008341565172146381,0.028202042084526244,-0.015690051339651852,0.0,0.0,-0.6,0.0,0.0011355876922607422,0.001537322998046875,0.0022420883178710938,0
0.7500638961791992,0.005101136863231659,-0.004722302313894033,-0.10703875869512558,0.01184317129559774,0.7190043545319842,-0.00851750705760703,0.02872939690124459,-0.015424222625692478,0.0,0.0,-0.6,0.0,0.0013799667358398438,0.0017457008361816406,0.002560138702392578,0
0.7601096630096436,0.005383084528148174,-0.004682612605392933,-0.10968118906021118,0.011695585671728514,0.7183096441686898,-0.008673817983089777,0.02913870368151889,-0.015182801802239751,0.0,0.0,-0.6,0.0,0.00128936767578125,0.0016655921936035156,0.0024878978729248047,0
0.7699499130249023,0.0056634023785591125,-0.0046410514041781425,-0.112346351146698,0.011573408366789028,0.7176621067929804,-0.00878598810749968,0.029470221650754694,-0.014967991362588697,0.0,0.0,-0.6,0.0,0.0012633800506591797,0.0016300678253173828,0.0023436546325683594,0
0.7800917625427246,0.005942240823060274,-0.004598873667418957,-0.11503342539072037,0.011438275910478298,0.7170499229828953,-0.008852018515095018,0.02965970613076554,-0.014766944813044903,0.0,0.0,-0.6,0.0,0.001271963119506836,0.0016417503356933594,0.002421855926513672,0
0.7899303436279297,0.006218094378709793,-0.004554941784590483,-0.11774279177188873,0.011289023792283567,0.7164630072267221,-0.008943012858953653,0.02976140694415385,-0.014570243368570247,0.0,0.0,-0.6,0.0,0.00122833251953125,0.0015671253204345703,0.002278566360473633,0
0.8000321388244629,0.006492960266768932,-0.004508047830313444,-0.12047532200813293,0.01114173023644116,0.7158964209037079,-0.009036873671253949,0.029823527586800378,-0.014377316009183141,0.0,0.0,-0.6,0.0,0.0012104511260986328,0.0015532970428466797,0.002276182174682617,0
0.8100755214691162,0.007035437971353531,-0.004412236623466015,-0.1260194480419159,0.010839670370615112,0.7152628728857061,-0.00898515926574051,0.029788348662691456,-0.014128996900131103,0.0,0.0,-0.6,0.0,0.0012831687927246094,0.001653909683227539,0.002454042434692383,0
0.8197829723358154,0.00730273500084877,-0.004362465348094702,-0.12881749868392944,0.010701647816299443,0.714673953871331,-0.00902932830649006,0.029696771500983644,-0.013903414472983043,0.0,0.0,-0.6,0.0,0.0011854171752929688,0.0015423297882080078,0.002270221710205078,0
0.8300225734710693,0.007834364660084248,-0.00425346614792943,-0.13445670902729034,0.01040581850804377,0.7140367594286162,-0.009019660239520827,0.029742932662378364,-0.013634568625025899,0.0,0.0,-0.6,0.0,0.0013072490692138672,0.0016522407531738281,0.002429962158203125,0
0.8398754596710205,0.008099185302853584,-0.004199283197522163,-0.13729871809482574,0.010261939121680493,0.713444410073474,-0.00884866968889126,0.029673359629614548,-0.013392426037568825,0.0,0.0,-0.6,0.0,0.0009160041809082031,0.0011835098266601562,0.0017974376678466797,0
0.8497240543365479,0.008362109772861004,-0.004146274644881487,-0.14015406370162964,0.010115724916887938,0.7128908962696494,-0.008674318936364373,0.029592583035389204,-0.013168096515145318,0.0,0.0,-0.6,0.0,0.00112152099609375,0.0014727115631103516,0.0021047592163085938,0
0.860004186630249,0.008623908273875713,-0.004091961309313774,-0.14302179217338562,0.009980004867786317,0.7123677187333176,-0.008562250146243443,0.029450187744324462,-0.01296017037395892,0.0,0.0,-0.6,0.0,0.0012660026550292969,0.0016374588012695312,0.002474546432495117,0
0.8701064586639404,0.009149877354502678,-0.003981573507189751,-0.14882570505142212,0.009734125865144869,0.7117974202206271,-0.008430417430016929,0.02924897176444221,-0.012722412920176538,0.0,0.0,-0.6,0.0,0.0015120506286621094,0.0019164085388183594,0.0028166770935058594,0
0.8799917697906494,0.009411090053617954,-0.003924948163330555,-0.1517600417137146,0.00960909047534421,0.7112624294925383,-0.008269612470594082,0.029055366691575255,-0.012509096325874235,0.0,0.0,-0.6,0.0,0.0011799335479736328,0.0015277862548828125,0.002242565155029297,0
0.8900258541107178,0.00967121496796608,-0.003867235966026783,-0.15470246970653534,0.009476449342475254,0.7107635306403995,-0.008112350794545416,0.02888211434061772,-0.012310036122766647,0.0,0.0,-0.6,0.0,0.0012021064758300781,0.0015292167663574219,0.0022530555725097656,0
0.8999807834625244,0.009930822066962719,-0.0038081028033047915,-0.1576501876115799,0.00934367826801399,0.7102971294202427,-0.007975493165690243,0.028721106625035776,-0.012120904596974801,0.0,0.0,-0.6,0.0,0.0010416507720947266,0.0013861656188964844,0.0020914077758789062,0
0.9101095199584961,0.010446068830788136,-0.003686953568831086,-0.1635601669549942,0.009115065257010176,0.7097880073966758,-0.007821888422321241,0.028391005830857494,-0.011902785706812651,0.0,0.0,-0.6,0.0,0.0018353462219238281,0.002348184585571289,0.0033843517303466797,0
0.9201993942260742,0.010700644925236702,-0.0036249959375709295,-0.1665220409631729,0.009000050336396514,0.7093119822514593,-0.007661851713428446,0.028047061824512224,-0.011706971208732696,0.0,0.0,-0.6,0.0,0.0017085075378417969,0.002191781997680664,0.003215312957763672,0
0.930009126663208,0.010953189805150032,-0.0035629807971417904,-0.16948837041854858,0.008890257180578134,0.7088638501402948,-0.007470999374092852,0.027647132507720266,-0.011528726172461652,0.0,0.0,-0.6,0.0,0.001440286636352539,0.001850128173828125,0.002669811248779297,0
0.9400699138641357,0.011203040368855,-0.003501979634165764,-0.1724579632282257,0.008764372459238577,0.7084409206410778,-0.007256973706449937,0.02722192104600436,-0.011356750182440324,0.0,0.0,-0.6,0.0,0.0013206005096435547,0.0016903877258300781,0.0025196075439453125,0
0.9500277042388916,0.01169615238904953,-0.003377963090315461,-0.1784469485282898,0.008491649762571307,0.7079801570610971,-0.007119265709156147,0.02671152196637503,-0.011134095999324526,0.0,0.0,-0.6,0.0,0.0014467239379882812,0.0018181800842285156,0.0026085376739501953,0
0.9599778652191162,0.011938855983316898,-0.003314384026452899,-0.18144045770168304,0.008390844115710281,0.7075559039372432,-0.007019130304021277,0.026187101585556823,-0.010940433177484003,0.0,0.0,-0.6,0.0,0.0012013912200927734,0.001531362533569336,0.0022661685943603516,0
0.9700591564178467,0.012179451063275337,-0.0032503949478268623,-0.18443235754966736,0.008285692087511535,0.7071582947533898,-0.006965675567692906,0.025747365495914883,-0.010765437722457395,0.0,0.0,-0.6,0.0,0.0013778209686279297,0.0017256736755371094,0.002513408660888672,0
0.9799315929412842,0.012418351136147976,-0.0031836230773478746,-0.18742316961288452,0.008183656859552161,0.7067814255405872,-0.006987792533965144,0.025282133727740515,-0.010604677942126056,0.0,0.0,-0.6,0.0,0.0010826587677001953,0.001428365707397461,0.002105712890625,0
0.9899966716766357,0.012807106599211693,-0.0032231449149549007,-0.19332857429981232,0.007966583049621188,0.7063739139525966,-0.006768779123384039,0.024661470804098327,-0.010410741730025104,0.0,0.0,-0.6,0.0,0.001245260238647461,0.0015842914581298828,0.002321481704711914,0
1.0000829696655273,0.012958870269358158,-0.0033271003048866987,-0.196243554353714,0.00787660009125713,0.7059938427517076,-0.006446126621522834,0.024038762636019097,-0.010241243911152718,0.0,0.0,-0.6,0.0,0.0011272430419921875,0.0014312267303466797,0.0021295547485351562,0
1.009737491607666,0.013109062798321247,-0.003428688971325755,-0.19915691018104553,0.00777375195949747,0.7056406457537624,-0.006105992270915164,0.02336853001956551,-0.010084028027502015,0.0,0.0,-0.6,0.0,0.0010972023010253906,0.0014171600341796875,0.0020368099212646484,0
1.0200138092041016,0.013257118873298168,-0.0035260897129774094,-0.20208847522735596,0.00765680640826459,0.7053088262473309,-0.00573511306611414,0.02261557575296127,-0.00993012068797302,0.0,0.0,-0.6,0.0,0.0012238025665283203,0.0015561580657958984,0.0022957324981689453,0
1.0299255847930908,0.013547231443226337,-0.003710896708071232,-0.20793837308883667,0.007417515944700132,0.704950230961893,-0.005194554942249974,0.021624737622610416,-0.009732651826419284,0.0,0.0,-0.6,0.0,0.0012054443359375,0.001544952392578125,0.002257108688354492,0
1.03999924659729,0.013689410872757435,-0.0037990701384842396,-0.21085631847381592,0.007321915096317476,0.704614710267456,-0.004688362935914596,0.020673216696807314,-0.009558575550347299,0.0,0.0,-0.6,0.0,0.0011887550354003906,0.0015194416046142578,0.0022161006927490234,0
1.0498969554901123,0.013828926719725132,-0.003883654484525323,-0.21376925706863403,0.0072210329974395785,0.7043011093006665,-0.004266521914886383,0.019754060297756306,-0.009398888866191467,0.0,0.0,-0.6,0.0,0.0011069774627685547,0.0013942718505859375,0.002062559127807617,0
1.0598764419555664,0.013966251164674759,-0.003963559400290251,-0.21667659282684326,0.007122355898639738,0.7040051387229275,-0.0038854241283101834,0.018892636093223836,-0.009250103775755926,0.0,0.0,-0.6,0.0,0.001050710678100586,0.0013630390167236328,0.0019881725311279297,0
1.0700151920318604,0.014232486486434937,-0.004110096488147974,-0.22247062623500824,0.006909195751200947,0.7036834578960759,-0.0034780670748926212,0.017765630609480554,-0.009066023358077253,0.0,0.0,-0.6,0.0,0.0011816024780273438,0.0015108585357666016,0.0022170543670654297,0
1.0801727771759033,0.014360478147864342,-0.004176604561507702,-0.22535814344882965,0.006805377934942042,0.7033823708487507,-0.0031459621908517966,0.016714129477553744,-0.008898234723356489,0.0,0.0,-0.6,0.0,0.001062631607055664,0.001359701156616211,0.0020513534545898438,0
1.0897696018218994,0.014486093074083328,-0.004240499343723059,-0.2282358855009079,0.006712188868830375,0.7031034134797821,-0.002787227092513764,0.0157734111997705,-0.008745836061646493,0.0,0.0,-0.6,0.0,0.0011954307556152344,0.0016150474548339844,0.0024061203002929688,0
1.1000316143035889,0.014609436504542828,-0.004301813896745443,-0.2311050146818161,0.006625471655671743,0.702841937062824,-0.002444585239100288,0.014912577964525576,-0.008606638630233967,0.0,0.0,-0.6,0.0,0.0013821125030517578,0.001798868179321289,0.0027894973754882812,0
1.1099472045898438,0.014849196188151836,-0.004416956100612879,-0.23681822419166565,0.006432118367160743,0.7025552684108908,-0.0020099739929578106,0.013855911048962699,-0.008436692551096121,0.0,0.0,-0.6,0.0,0.0014729499816894531,0.0018351078033447266,0.002666950225830078,0
1.1199865341186523,0.014964181929826736,-0.004471145570278168,-0.23966076970100403,0.006323393720362484,0.7022925688327326,-0.0016039753385533677,0.012871221203735668,-0.008276955944228021,0.0,0.0,-0.6,0.0,0.001146078109741211,0.001477956771850586,0.0021848678588867188,0
1.1300127506256104,0.015074970200657845,-0.0045235734432935715,-0.24249260127544403,0.006227582896012101,0.7020494751340756,-0.0012046720255927564,0.011958562692086597,-0.008129213109375654,0.0,0.0,-0.6,0.0,0.0013616085052490234,0.0017018318176269531,0.0024652481079101562,0
1.1398870944976807,0.01518318336457014,-0.004574818070977926,-0.2453129142522812,0.006153209673444773,0.7018258423013652,-0.0008228875102966652,0.011180317925470393,-0.007997900668065683,0.0,0.0,-0.6,0.0,0.001184225082397461,0.0015306472778320312,0.002229452133178711,0
1.1500036716461182,0.015288881957530975,-0.0046246969141066074,-0.24812021851539612,0.006052321028738793,0.7016210430106345,-0.0004416313275331758,0.010435924048859544,-0.007868149574553928,0.0,0.0,-0.6,0.0,0.0012578964233398438,0.0016007423400878906,0.002338886260986328,0
1.1599440574645996,0.015493853949010372,-0.004723052028566599,-0.2536731958389282,0.005849927293257735,0.7014040096948747,4.629600881924837e-05,0.009482986435376995,-0.007701429143725737,0.0,0.0,-0.6,0.0,0.0011758804321289062,0.001508951187133789,0.0022585391998291016,0
1.1698744297027588,0.015591527335345745,-0.004770397674292326,-0.25641974806785583,0.0057569240717884,0.7012039979446134,0.0004788569808781456,0.008594310785530992,-0.00754984613304518,0.0,0.0,-0.6,0.0,0.001089334487915039,0.0014252662658691406,0.0020325183868408203,0
1.1800506114959717,0.015684688463807106,-0.004816828295588493,-0.25915369391441345,0.005657729265884767,0.701018072368135,0.0008979160455361653,0.007723955428975086,-0.007406540374104118,0.0,0.0,-0.6,0.0,0.0011594295501708984,0.0014872550964355469,0.0022063255310058594,0
1.189927101135254,0.01586068980395794,-0.004905482288450003,-0.26458439230918884,0.0054621380827977965,0.7008152369783475,0.0013745308111489337,0.00670231809554024,-0.007232881872081725,0.0,0.0,-0.6,0.0,0.001176595687866211,0.0015010833740234375,0.002167224884033203,0
1.1999506950378418,0.01594226434826851,-0.004947970155626535,-0.2672818601131439,0.005387021277070638,0.7006264080674744,0.0017868289666199408,0.005756810011790566,-0.007083149967941245,0.0,0.0,-0.6,0.0,0.001108407974243164,0.0014388561248779297,0.002103090286254883,0
1.2100169658660889,0.016020283102989197,-0.004988961387425661,-0.26996535062789917,0.005301481586230612,0.7004556260083292,0.0021462858667064756,0.004947883693613795,-0.006946262220752248,0.0,0.0,-0.6,0.0,0.0012934207916259766,0.0016436576843261719,0.0023860931396484375,0
1.219754695892334,0.016094917431473732,-0.0050289928913116455,-0.27263501286506653,0.005225730366227249,0.7002946175781348,0.002444412459094217,0.004164117168330517,-0.006822031416217239,0.0,0.0,-0.6,0.0,0.0011723041534423828,0.0015270709991455078,0.002223491668701172,0
1.2300164699554443,0.016234995797276497,-0.0051042684353888035,-0.277954638004303,0.005111148903086542,0.7001225954215516,0.002787406825962574,0.0033125281757624345,-0.006692102960810766,0.0,0.0,-0.6,0.0,0.0012226104736328125,0.0015647411346435547,0.002304553985595703,0
1.2400059700012207,0.016302773728966713,-0.005140370223671198,-0.2806054353713989,0.0050659253392527775,0.6999596619064419,0.0030663472296087162,0.0025580213388729073,-0.00658419280525136,0.0,0.0,-0.6,0.0,0.001298666000366211,0.0016558170318603516,0.002452373504638672,0
1.2499909400939941,0.01636691577732563,-0.005173890385776758,-0.28324225544929504,0.004964458186646924,0.6998059814623353,0.0032428821962789092,0.0018462623836049104,-0.006470607691496426,0.0,0.0,-0.6,0.0,0.001268625259399414,0.0016143321990966797,0.0023310184478759766,0
1.259927749633789,0.016429023817181587,-0.005203966051340103,-0.2858651280403137,0.004899410984281006,0.6996604098067211,0.003294996606333622,0.0012782789357859835,-0.006366706281943408,0.0,0.0,-0.6,0.0,0.0012505054473876953,0.0015916824340820312,0.0023086071014404297,0
1.2699353694915771,0.016541946679353714,-0.005256470292806625,-0.2910606563091278,0.004746434205173902,0.699514820222044,0.003378233389425261,0.000534563067347848,-0.006236606899539091,0.0,0.0,-0.6,0.0,0.0011975765228271484,0.0015320777893066406,0.002228260040283203,0
1.2800202369689941,0.016591832041740417,-0.005281078163534403,-0.2936331629753113,0.004654238132663865,0.6993825788976488,0.003476229452697018,-0.000133949938124917,-0.006110965150794096,0.0,0.0,-0.6,0.0,0.0010981559753417969,0.0014116764068603516,0.002079486846923828,0
1.2900264263153076,0.016637228429317474,-0.005304341670125723,-0.29618868231773376,0.004593081406460653,0.6992619194631577,0.0035705682761715987,-0.0007553317807893322,-0.006000080722068952,0.0,0.0,-0.6,0.0,0.001093149185180664,0.00140380859375,0.0021131038665771484,0
1.2998826503753662,0.016677873209118843,-0.005326250568032265,-0.2987264394760132,0.004539523782788626,0.6991546487141642,0.0036617618364703907,-0.0013521507265302716,-0.005902378920802319,0.0,0.0,-0.6,0.0,0.001062631607055664,0.0013921260833740234,0.0020732879638671875,0
1.3099966049194336,0.01674906723201275,-0.0053625209257006645,-0.3037925958633423,0.004408811712852641,0.6990417825959448,0.0036693508981686077,-0.0019556587424871107,-0.005784970112200587,0.0,0.0,-0.6,0.0,0.0015149116516113281,0.001840353012084961,0.002542257308959961,0
1.3199126720428467,0.016780640929937363,-0.005376923363655806,-0.30629903078079224,0.004366037683918566,0.6989363694864008,0.0036519144659211042,-0.002517374928084051,-0.005686742481466755,0.0,0.0,-0.6,0.0,0.0012569427490234375,0.0015931129455566406,0.0023386478424072266,0
1.32987642288208,0.016808688640594482,-0.005390855949372053,-0.30878764390945435,0.004301091231050262,0.6988401021451646,0.0037424535181258623,-0.002999406041848546,-0.00559362822147839,0.0,0.0,-0.6,0.0,0.0011827945709228516,0.001528024673461914,0.0021660327911376953,0
1.34004807472229,0.01683264598250389,-0.005405088420957327,-0.3112582564353943,0.004235206097960063,0.6987494372395657,0.0038290812962045086,-0.003447668605246516,-0.005503743785808936,0.0,0.0,-0.6,0.0,0.0012083053588867188,0.0015375614166259766,0.0023031234741210938,0
1.3499751091003418,0.01685340143740177,-0.005417807027697563,-0.3137114942073822,0.0041822349950791935,0.698663868969245,0.0038545167997287126,-0.0038176947982579996,-0.0054209586518260125,0.0,0.0,-0.6,0.0,0.0012950897216796875,0.0016508102416992188,0.0024166107177734375,0
1.3599393367767334,0.016871826723217964,-0.005429401062428951,-0.3161472976207733,0.004130448158394355,0.6985804668313622,0.003918232396166291,-0.0041218457802179595,-0.005343590295471137,0.0,0.0,-0.6,0.0,0.0011670589447021484,0.0015118122100830078,0.0022127628326416016,0
1.3700358867645264,0.016890069469809532,-0.005448671989142895,-0.3209642767906189,0.004034261961847815,0.6984967055314921,0.00398148802966675,-0.00454084545881187,-0.005253362714193905,0.0,0.0,-0.6,0.0,0.0013968944549560547,0.0017974376678466797,0.0026292800903320312,0
1.3799760341644287,0.016892770305275917,-0.005457550287246704,-0.32336246967315674,0.003991959487806899,0.6984133135067391,0.004028788490418153,-0.00492214687548715,-0.005174339722095584,0.0,0.0,-0.6,0.0,0.0014789104461669922,0.0019345283508300781,0.0028514862060546875,0
1.390120267868042,0.016908973455429077,-0.005406754091382027,-0.32857877016067505,0.003889558635509546,0.6983096974330241,0.004082172748224057,-0.005321403019506523,-0.005080623114750674,0.0,0.0,-0.6,0.0,0.0016238689422607422,0.0020227432250976562,0.0029294490814208984,0
1.4000420570373535,0.016922684386372566,-0.005348613020032644,-0.3313843607902527,0.0038359938499529793,0.6982051272538188,0.004070450289701104,-0.005664692904399986,-0.004994934390438312,0.0,0.0,-0.6,0.0,0.001283884048461914,0.0016431808471679688,0.002462148666381836,0
1.4098317623138428,0.016933247447013855,-0.005289943888783455,-0.33415985107421875,0.0037814492200117992,0.6981011662144684,0.00399401414083509,-0.005922284391685486,-0.004914496599724098,0.0,0.0,-0.6,0.0,0.0011284351348876953,0.0014579296112060547,0.002119779586791992,0
1.419945478439331,0.01694127358496189,-0.005231119226664305,-0.3369060456752777,0.003733390701115393,0.6979969095078663,0.003897803577873248,-0.006133387270822591,-0.0048401692259876635,0.0,0.0,-0.6,0.0,0.0014612674713134766,0.0019497871398925781,0.002900362014770508,0
1.4299883842468262,0.016943126916885376,-0.005114532075822353,-0.34231069684028625,0.0036577281336381893,0.6978776324410417,0.0037269553028582646,-0.00640631000957514,-0.004759765790848374,0.0,0.0,-0.6,0.0,0.0013272762298583984,0.0017595291137695312,0.002574920654296875,0
1.4400873184204102,0.016937443986535072,-0.0050575146451592445,-0.344969779253006,0.0036170501863773477,0.6977641757783329,0.0035651242984961707,-0.006641539157430774,-0.00468823063373867,0.0,0.0,-0.6,0.0,0.0014190673828125,0.0018360614776611328,0.0027189254760742188,0
1.4514987468719482,0.0169285386800766,-0.005001130513846874,-0.34763091802597046,0.0035583323292763197,0.6976574874364609,0.003386745566000945,-0.00685514491237618,-0.00461613585289192,0.0,0.0,-0.6,0.0,0.0012111663818359375,0.001560211181640625,0.0036215782165527344,0
1.4601693153381348,0.01691608317196369,-0.0049465112388134,-0.3502630293369293,0.0035103242373374292,0.6975534708350694,0.003311491387092615,-0.007054452143049237,-0.004547665402695488,0.0,0.0,-0.6,0.0,0.0020079612731933594,0.002797842025756836,0.004183769226074219,0
1.470069169998169,0.016881676390767097,-0.004839134868234396,-0.3554435074329376,0.003416804194111708,0.6974328049193201,0.003102388569228778,-0.007228281701879152,-0.004464666973925561,0.0,0.0,-0.6,0.0,0.0010268688201904297,0.0012860298156738281,0.002178668975830078,0
1.4801080226898193,0.016860656440258026,-0.004786277189850807,-0.3579929769039154,0.003375538111330776,0.6973218579870979,0.002938865640499235,-0.007335861173375889,-0.004391093573256454,0.0,0.0,-0.6,0.0,0.0009851455688476562,0.0012569427490234375,0.001958608627319336,0
1.4898176193237305,0.016836555674672127,-0.004735555499792099,-0.36051321029663086,0.0033280023799131314,0.6972251133104055,0.0028603653124834633,-0.007461678865009013,-0.004321766502388739,0.0,0.0,-0.6,0.0,0.0008873939514160156,0.001184225082397461,0.0016794204711914062,0
1.4999308586120605,0.01680665649473667,-0.004685110878199339,-0.3630034327507019,0.003270980990493739,0.6971380499312864,0.002730040155750106,-0.007597082155679499,-0.004251855417963081,0.0,0.0,-0.6,0.0,0.0009131431579589844,0.0011587142944335938,0.0017552375793457031,0
1.5098016262054443,0.01673882268369198,-0.004579623229801655,-0.36790403723716736,0.0031226250367183874,0.6970350357337178,0.0024094742275899313,-0.007673860734376722,-0.004147282271990849,0.0,0.0,-0.6,0.0,0.001096487045288086,0.0013844966888427734,0.0020055770874023438,0
1.519899845123291,0.01670176535844803,-0.004525712691247463,-0.37034091353416443,0.003085355634284605,0.6969398365472204,0.0021312051348865418,-0.007697429569582353,-0.004060106684742114,0.0,0.0,-0.6,0.0,0.0010385513305664062,0.001379251480102539,0.0021016597747802734,0
1.5300722122192383,0.016663024201989174,-0.0044727446511387825,-0.3727513253688812,0.003032140744132849,0.6968491111252928,0.0019183161463604468,-0.007675305614198168,-0.00397912748249279,0.0,0.0,-0.6,0.0,0.0013554096221923828,0.0017688274383544922,0.002655029296875,0
1.5399854183197021,0.016621796414256096,-0.0044199093244969845,-0.37513476610183716,0.0029757686869981655,0.696767725661973,0.0016879848166117253,-0.0076980830438963775,-0.003901303398695095,0.0,0.0,-0.6,0.0,0.0014503002166748047,0.0019044876098632812,0.0028579235076904297,0
1.5501277446746826,0.016526561230421066,-0.004313693847507238,-0.3798186480998993,0.002887650512562588,0.6966850792948648,0.001442460682005021,-0.007830241392438757,-0.003813781115647471,0.0,0.0,-0.6,0.0,0.0014827251434326172,0.0018999576568603516,0.00279998779296875,0
1.5600955486297607,0.01647314243018627,-0.004261767026036978,-0.382119745016098,0.002848452975218902,0.6966140061179811,0.001225909502436328,-0.007963395256941189,-0.003737816164835197,0.0,0.0,-0.6,0.0,0.0013303756713867188,0.0017135143280029297,0.0025589466094970703,0
1.5698788166046143,0.016417311504483223,-0.004208412952721119,-0.38439279794692993,0.0028189003694690357,0.6965521074199073,0.000998767376025893,-0.008093724132988315,-0.003673558841405378,0.0,0.0,-0.6,0.0,0.001298666000366211,0.0016608238220214844,0.0024003982543945312,0
1.580090045928955,0.016357410699129105,-0.004154314287006855,-0.38663941621780396,0.002797103597102341,0.6964938172560701,0.0007339785214033562,-0.008243724768909604,-0.003620405544318206,0.0,0.0,-0.6,0.0,0.0012295246124267578,0.001580953598022461,0.0024318695068359375,0
1.589982032775879,0.01622866466641426,-0.00404385756701231,-0.3910787105560303,0.0027387413234177074,0.6964367546673352,0.0004391214445464908,-0.008385421400296108,-0.003561312735319885,0.0,0.0,-0.6,0.0,0.0012378692626953125,0.0015714168548583984,0.0022573471069335938,0
1.5999813079833984,0.016159972175955772,-0.0039890785701572895,-0.39327099919319153,0.002707457963318876,0.6963892568917796,0.00014588374383293885,-0.008498922091773112,-0.0035082164233659285,0.0,0.0,-0.6,0.0,0.0011000633239746094,0.0014150142669677734,0.0020935535430908203,0
1.6100225448608398,0.01608799397945404,-0.003933344502002001,-0.3954346179962158,0.0026655258724017235,0.6963522977795343,-0.00011329540046641244,-0.008621905849225673,-0.0034553237543101458,0.0,0.0,-0.6,0.0,0.0012509822845458984,0.00159454345703125,0.002315998077392578,0
1.6197731494903564,0.016011416912078857,-0.0038769857492297888,-0.3975697159767151,0.002608664104144353,0.6963229169279229,-0.0003492779873041027,-0.008800053178735359,-0.0033969758017687634,0.0,0.0,-0.6,0.0,0.0011293888092041016,0.0014722347259521484,0.002185821533203125,0
1.6300737857818604,0.015930425375699997,-0.003820054931566119,-0.3996764123439789,0.0025486084489370277,0.6963010769592974,-0.0005899972392151516,-0.00897539501906149,-0.003333611233409826,0.0,0.0,-0.6,0.0,0.0013124942779541016,0.0016472339630126953,0.002403736114501953,0
1.6400303840637207,0.01576022244989872,-0.0037033366970717907,-0.4038107991218567,0.0024508287753263348,0.6962739717760533,-0.000817000581377719,-0.009056687062243763,-0.0032525880179368073,0.0,0.0,-0.6,0.0,0.0012183189392089844,0.001543283462524414,0.002299070358276367,0
1.6499009132385254,0.015670202672481537,-0.0036450964398682117,-0.40584006905555725,0.0023994035062129505,0.6962527224055366,-0.0009738941662772227,-0.009168545444974557,-0.003176587761473872,0.0,0.0,-0.6,0.0,0.001196146011352539,0.001550912857055664,0.0022017955780029297,0
1.6600079536437988,0.015576601028442383,-0.0035870412830263376,-0.40784233808517456,0.0023500844540768006,0.6962380670861826,-0.0011108993110378201,-0.009273878873981347,-0.003104893112537748,0.0,0.0,-0.6,0.0,0.0011794567108154297,0.0015168190002441406,0.002261638641357422,0
1.6698925495147705,0.015383874997496605,-0.003472736570984125,-0.41182470321655273,0.002295123771432388,0.6962386547991263,-0.0012539223855013485,-0.009292479633130709,-0.003034097002622605,0.0,0.0,-0.6,0.0,0.0013823509216308594,0.0017352104187011719,0.0025048255920410156,0
1.679917335510254,0.015286397188901901,-0.003415447659790516,-0.4137725830078125,0.002262851751739432,0.6962453751340937,-0.0014046068916202742,-0.009200325495588111,-0.0029724375503086577,0.0,0.0,-0.6,0.0,0.0010983943939208984,0.0014147758483886719,0.002056121826171875,0
1.69002366065979,0.015188717283308506,-0.0033577766735106707,-0.4156924784183502,0.0022135321850374756,0.6962570106148795,-0.0015695589626175247,-0.009045228732557805,-0.0029107815425704273,0.0,0.0,-0.6,0.0,0.0011415481567382812,0.0014564990997314453,0.0021851062774658203,0
1.6998603343963623,0.01509026437997818,-0.0032995601650327444,-0.41758355498313904,0.002172724168940413,0.6962768076533108,-0.0017305113905852483,-0.008882286603755335,-0.0028523191546101162,0.0,0.0,-0.6,0.0,0.001146078109741211,0.0014829635620117188,0.002201080322265625,0
1.7099330425262451,0.014890681952238083,-0.003184033092111349,-0.4212821125984192,0.0020857543232280654,0.6963037275269514,-0.0019173555967327094,-0.008721076992377485,-0.002778781757216552,0.0,0.0,-0.6,0.0,0.0012362003326416016,0.0015561580657958984,0.002219676971435547,0
1.7199275493621826,0.014788860455155373,-0.00312730111181736,-0.42309311032295227,0.002059633367823186,0.6963274285382697,-0.002006187350450835,-0.008623631493933616,-0.0027175090045619336,0.0,0.0,-0.6,0.0,0.0011818408966064453,0.0015034675598144531,0.002249002456665039,0
1.7298502922058105,0.014683895744383335,-0.003072708146646619,-0.42487674951553345,0.0020164524501514345,0.6963530347265371,-0.002004973031199708,-0.00857614069017426,-0.0026584265117383776,0.0,0.0,-0.6,0.0,0.0011205673217773438,0.001455545425415039,0.002094745635986328,0
1.7400362491607666,0.014577453024685383,-0.0030191584955900908,-0.4266339838504791,0.001972187974643957,0.6963817585527526,-0.0020280696899507202,-0.008495819961332383,-0.0026004692984334795,0.0,0.0,-0.6,0.0,0.0012106895446777344,0.0015587806701660156,0.0023369789123535156,0
1.7500762939453125,0.014361180365085602,-0.0029095730278640985,-0.43007102608680725,0.0019304912256632343,0.6964227438618711,-0.002023087330997954,-0.008325416488077943,-0.002544262194434236,0.0,0.0,-0.6,0.0,0.001390695571899414,0.0017309188842773438,0.0025463104248046875,0
1.7598483562469482,0.01425252202898264,-0.002856174483895302,-0.43174976110458374,0.0019202636763003727,0.6964673891314553,-0.0019928075503085146,-0.008117121283738711,-0.002501083067969235,0.0,0.0,-0.6,0.0,0.0010564327239990234,0.0013883113861083984,0.0020186901092529297,0
1.7699308395385742,0.014142978936433792,-0.0028027247171849012,-0.43340232968330383,0.0018908452045009537,0.6965150985894719,-0.0019821472242534497,-0.00793643015080249,-0.0024598255973093,0.0,0.0,-0.6,0.0,0.0012292861938476562,0.0015494823455810547,0.0022735595703125,0
1.7798538208007812,0.014028111472725868,-0.0027474507223814726,-0.4350280463695526,0.0018624765670578504,0.6965692147490272,-0.002075518205990135,-0.007780287250237077,-0.002420307153640464,0.0,0.0,-0.6,0.0,0.0011181831359863281,0.001478433609008789,0.0022585391998291016,0
1.789933681488037,0.013911442831158638,-0.002691032364964485,-0.43664467334747314,0.0018270318552831874,0.6966268657900916,-0.002172865888142377,-0.007659596698964501,-0.002379351468068775,0.0,0.0,-0.6,0.0,0.001149892807006836,0.00147247314453125,0.0021140575408935547,0
1.8000385761260986,0.013698332011699677,-0.0024521523155272007,-0.43865612149238586,0.0018086086785797947,0.6966717384656483,-0.0024019980286915685,-0.007589813204428532,-0.0023437740510251453,0.0,0.0,-0.6,0.0,0.001237630844116211,0.0015747547149658203,0.0023298263549804688,0
1.809831142425537,0.013276740908622742,-0.0019838849548250437,-0.442571759223938,0.0017855847064290168,0.6967103484731472,-0.0028055189356537428,-0.007519488805157635,-0.0023102357088517923,0.0,0.0,-0.6,0.0,0.0010857582092285156,0.001413106918334961,0.002022266387939453,0
1.8200924396514893,0.013067242689430714,-0.001755999750457704,-0.44447827339172363,0.001754326979266877,0.6967402371639791,-0.003132113424021017,-0.007441744015641517,-0.002275037402912462,0.0,0.0,-0.6,0.0,0.0013077259063720703,0.0016639232635498047,0.0024797916412353516,0
1.8300893306732178,0.0126566207036376,-0.0013107836712151766,-0.4481937289237976,0.0017322077149845704,0.6967643926276545,-0.003584637576234892,-0.007285217253041349,-0.0022421045192845806,0.0,0.0,-0.6,0.0,0.0016069412231445312,0.0019958019256591797,0.002886056900024414,0
1.8399195671081543,0.01245481614023447,-0.0010918809566646814,-0.4500029385089874,0.0017264398875421198,0.6967832182399587,-0.004033416859113545,-0.007158049977961035,-0.002216888419714044,0.0,0.0,-0.6,0.0,0.0011670589447021484,0.001508951187133789,0.0021882057189941406,0
1.850064992904663,0.012254386208951473,-0.0008751334971748292,-0.45178067684173584,0.0017025283003286697,0.696801669615912,-0.0044529778282576685,-0.0072205573995175205,-0.002190270154489214,0.0,0.0,-0.6,0.0,0.0013566017150878906,0.0017156600952148438,0.0025205612182617188,0
1.8598918914794922,0.012052495032548904,-0.000660593737848103,-0.4535539150238037,0.0016837104813772384,0.6968216582598168,-0.004846090629472835,-0.007276825663980925,-0.0021645800222542147,0.0,0.0,-0.6,0.0,0.0011453628540039062,0.0015120506286621094,0.0022153854370117188,0
1.870009183883667,0.01165192760527134,-0.00023927949951030314,-0.457005113363266,0.0016481222412431528,0.6968417268909739,-0.005358181744107302,-0.007244486429818709,-0.002133251819220626,0.0,0.0,-0.6,0.0,0.0012938976287841797,0.0016515254974365234,0.002415895462036133,0
1.880251169204712,0.011454331688582897,-3.2843483495526016e-05,-0.4586853086948395,0.001628194723687463,0.6968570705489994,-0.005782399631168154,-0.007152918127424167,-0.002103849110009855,0.0,0.0,-0.6,0.0,0.0012011528015136719,0.0015599727630615234,0.0023458003997802734,0
1.8898470401763916,0.011258707381784916,0.00017070936155505478,-0.46033623814582825,0.0016199916844366186,0.6968730158844535,-0.006154383533751908,-0.007056311860860459,-0.002080191371103986,0.0,0.0,-0.6,0.0,0.0010123252868652344,0.0013203620910644531,0.0018930435180664062,0
1.900036334991455,0.011064044199883938,0.00037099976907484233,-0.4619573950767517,0.0015958248203773538,0.6968892591529924,-0.00643791971417645,-0.006977199651681294,-0.0020545684808284588,0.0,0.0,-0.6,0.0,0.0012803077697753906,0.0016283988952636719,0.00241851806640625,0
1.910006046295166,0.010871423408389091,0.0005682142218574882,-0.46354925632476807,0.0015663471022574454,0.6969068825313196,-0.006632326608484223,-0.006803729168534195,-0.002025578336300555,0.0,0.0,-0.6,0.0,0.0013127326965332031,0.0016455650329589844,0.002362966537475586,0
1.9199092388153076,0.010682069696485996,0.0007626238511875272,-0.46511217951774597,0.001537941610352376,0.696926566369821,-0.006816476268787652,-0.0066135043035522225,-0.0019946326414945524,0.0,0.0,-0.6,0.0,0.0011882781982421875,0.0015337467193603516,0.0022339820861816406,0
1.9300696849822998,0.010303452610969543,0.0011454402701929212,-0.46814480423927307,0.0015067341904343406,0.696958665091636,-0.006987375786438749,-0.006397320430674688,-0.001961267872302574,0.0,0.0,-0.6,0.0,0.0013196468353271484,0.0016984939575195312,0.0025153160095214844,0
1.9398655891418457,0.010118597187101841,0.0013308566994965076,-0.4696158170700073,0.0014826592610116505,0.6969903584179021,-0.007095091177343618,-0.006117182389445671,-0.0019288845244961658,0.0,0.0,-0.6,0.0,0.0011508464813232422,0.0015163421630859375,0.0022249221801757812,0
1.9499859809875488,0.009757312014698982,0.0016938645858317614,-0.4724801778793335,0.0014375351077428851,0.6970235665417954,-0.007260830502602147,-0.005838674536915583,-0.0018892946745497547,0.0,0.0,-0.6,0.0,0.0012404918670654297,0.001600503921508789,0.0023484230041503906,0
1.960097312927246,0.009577935561537743,0.001872303313575685,-0.4738730490207672,0.001427213079552189,0.6970594683479965,-0.007458507072843408,-0.005620227767858457,-0.0018577114838581935,0.0,0.0,-0.6,0.0,0.001287698745727539,0.001638650894165039,0.0024557113647460938,0
1.969878911972046,0.009399812668561935,0.0020494491327553988,-0.47523874044418335,0.001394532078204548,0.697098022594241,-0.007651818735753569,-0.005430697088944247,-0.001823347967629658,0.0,0.0,-0.6,0.0,0.0012357234954833984,0.0016145706176757812,0.002294301986694336,0
1.9801411628723145,0.009222003631293774,0.0022229852620512247,-0.4765791893005371,0.0013490751979686718,0.6971329704250783,-0.0077264876992185596,-0.005285504126064126,-0.0017822469637102344,0.0,0.0,-0.6,0.0,0.0013225078582763672,0.0016994476318359375,0.0025148391723632812,0
1.990067481994629,0.008873536251485348,0.0025620583910495043,-0.47918134927749634,0.0013071676021171074,0.6971890132788829,-0.007743056524857202,-0.00502338903573878,-0.0017377604789338974,0.0,0.0,-0.6,0.0,0.0014660358428955078,0.0018153190612792969,0.0026640892028808594,0
1.9999668598175049,0.008703061379492283,0.002728393068537116,-0.48043718934059143,0.0012920203261341258,0.6972448306616505,-0.007781152041498889,-0.004832796647636179,-0.0017009402826427818,0.0,0.0,-0.6,0.0,0.0013544559478759766,0.0018146038055419922,0.0026879310607910156,0
2.01031494140625,0.008533397689461708,0.0028942967765033245,-0.48166853189468384,0.0012641013527928899,0.6972981416980114,-0.007876900611936579,-0.004690386970253678,-0.0016646960703175203,0.0,0.0,-0.6,0.0,0.0022971630096435547,0.0028061866760253906,0.00400996208190918,0
2.0197646617889404,0.008365838788449764,0.003058447502553463,-0.48287567496299744,0.001259735437381563,0.6973525834900707,-0.007912343761109992,-0.004507491641756812,-0.0016376880274508905,0.0,0.0,-0.6,0.0,0.001110076904296875,0.0015158653259277344,0.002276897430419922,0
2.0300915241241455,0.008036560378968716,0.00337930372916162,-0.4852171838283539,0.001222532716349764,0.6974189670805704,-0.007883079398076035,-0.004291788514324117,-0.0016048313736669686,0.0,0.0,-0.6,0.0,0.0012881755828857422,0.0016434192657470703,0.0024726390838623047,0
2.0399811267852783,0.007874773815274239,0.003535522846505046,-0.4863511621952057,0.0011929199255929484,0.6974894644391639,-0.00780938100705204,-0.00406903657092249,-0.001570726736703782,0.0,0.0,-0.6,0.0,0.0012662410736083984,0.0016787052154541016,0.0025093555450439453,0
2.0498850345611572,0.007715180981904268,0.0036879400722682476,-0.4874599575996399,0.001163421115814962,0.6975613155100997,-0.007682061046302887,-0.0038411215071775928,-0.001535791647737523,0.0,0.0,-0.6,0.0,0.0012564659118652344,0.001653909683227539,0.002406597137451172,0
2.060208320617676,0.007557564880698919,0.0038371747359633446,-0.48854419589042664,0.0011510169636390483,0.6976363291150859,-0.007620674468516975,-0.0036124832722677206,-0.0015066856866059854,0.0,0.0,-0.6,0.0,0.0015747547149658203,0.002063274383544922,0.003091096878051758,0
2.06982159614563,0.007241895888000727,0.004133714362978935,-0.49064716696739197,0.0011302868216397277,0.6977316929883537,-0.007591622160338142,-0.0033993787982917784,-0.0014785374689860046,0.0,0.0,-0.6,0.0,0.0015301704406738281,0.001960277557373047,0.0028183460235595703,0
2.080204725265503,0.007087272126227617,0.0042800274677574635,-0.4916659891605377,0.001118757192250303,0.6978267570242153,-0.007560512331275971,-0.0031666633752868846,-0.0014545101272361186,0.0,0.0,-0.6,0.0,0.0011646747589111328,0.0015463829040527344,0.0022819042205810547,0
2.0901474952697754,0.006935513112694025,0.004425518214702606,-0.49266088008880615,0.0010976161975000825,0.6979192128141839,-0.007490628497094098,-0.002927316148350902,-0.001429763225414753,0.0,0.0,-0.6,0.0,0.0014407634735107422,0.0018301010131835938,0.002661466598510742,0
2.0998969078063965,0.0067864167504012585,0.004569143522530794,-0.49363264441490173,0.001060433147764092,0.6980107145147448,-0.007355006225101134,-0.0026841053541285585,-0.0013984969539117351,0.0,0.0,-0.6,0.0,0.0011758804321289062,0.0015270709991455078,0.0022432804107666016,0
2.1098763942718506,0.006495448295027018,0.004847384057939053,-0.49550697207450867,0.0010444942994304752,0.6981187049388244,-0.007172636044636025,-0.002448049194115574,-0.0013706331859178614,0.0,0.0,-0.6,0.0,0.0016527175903320312,0.0023195743560791016,0.0032529830932617188,0
2.1200742721557617,0.006354278419166803,0.004984814673662186,-0.4964110255241394,0.0010359818181006944,0.6982206365252619,-0.007023515058308752,-0.002161627220832992,-0.0013479364597644343,0.0,0.0,-0.6,0.0,0.0014638900756835938,0.0018887519836425781,0.0028443336486816406,0
2.1299867630004883,0.0062157935462892056,0.005119968671351671,-0.4972936511039734,0.0010156887836047222,0.6983186092663712,-0.00686229453410542,-0.0019020814245671606,-0.0013244386488397081,0.0,0.0,-0.6,0.0,0.0013344287872314453,0.0016896724700927734,0.0024755001068115234,0
2.140113592147827,0.006079690996557474,0.00525279063731432,-0.4981551170349121,0.0009967554789094525,0.6984126368376816,-0.006699169768373905,-0.0016672778168694208,-0.0013008901388423637,0.0,0.0,-0.6,0.0,0.0012438297271728516,0.001600027084350586,0.002447366714477539,0
2.150057792663574,0.005812488961964846,0.005510756280273199,-0.4997372627258301,0.0009587919622947124,0.6985237905259393,-0.0065292033149626895,-0.0014658127886217668,-0.0012701703048711628,0.0,0.0,-0.6,0.0,0.0014328956604003906,0.0017962455749511719,0.0026388168334960938,0
2.159817695617676,0.005681369919329882,0.005636867601424456,-0.5004985928535461,0.0009333664143303203,0.6986314888763369,-0.006406609221278674,-0.0012612315992100612,-0.0012391314379817289,0.0,0.0,-0.6,0.0,0.0011475086212158203,0.0014905929565429688,0.0021681785583496094,0
2.1700966358184814,0.0055524068884551525,0.005760249216109514,-0.5012409687042236,0.0009111158201453427,0.698734508544568,-0.006223517371425356,-0.0010386918090048477,-0.0012090606982816023,0.0,0.0,-0.6,0.0,0.0013790130615234375,0.0017290115356445312,0.0026216506958007812,0
2.1799376010894775,0.005426332820206881,0.005880385637283325,-0.5019645094871521,0.0009026283123270981,0.6988356682275405,-0.006009637632893601,-0.000783396545612659,-0.0011848282127441352,0.0,0.0,-0.6,0.0,0.0011518001556396484,0.0014865398406982422,0.0021462440490722656,0
2.190020799636841,0.005324111320078373,0.006238859612494707,-0.5037617087364197,0.0008875981284653059,0.6989403773465103,-0.00578775927460709,-0.00035006076191577447,-0.001162229049835865,0.0,0.0,-0.6,0.0,0.0012521743774414062,0.0015668869018554688,0.0023047924041748047,0
2.199911594390869,0.005344961769878864,0.0064744967967271805,-0.5048283934593201,0.0008759753306960982,0.6990264953801539,-0.005631401919091186,9.673502207721373e-05,-0.001142051399907808,0.0,0.0,-0.6,0.0,0.0011067390441894531,0.0014548301696777344,0.002154827117919922,0
2.2098748683929443,0.005365034099668264,0.006705140694975853,-0.5058695673942566,0.0008587088939361605,0.6990982446219082,-0.005511206111572189,0.0005355747266094365,-0.001121451689645101,0.0,0.0,-0.6,0.0,0.0013349056243896484,0.0016739368438720703,0.002361774444580078,0
2.2201337814331055,0.0053839185275137424,0.0069299121387302876,-0.5068559646606445,0.0008605288260388719,0.6991633003229578,-0.005383458533212787,0.0009563045254193031,-0.0011077144454962951,0.0,0.0,-0.6,0.0,0.0018210411071777344,0.002397298812866211,0.0035080909729003906,0
2.2298927307128906,0.005420778412371874,0.0073610395193099976,-0.508751392364502,0.000834960672411548,0.699238299224254,-0.005267807427624177,0.001476251199265293,-0.0010885100881985643,0.0,0.0,-0.6,0.0,0.0011587142944335938,0.0014586448669433594,0.0021572113037109375,0
2.239950180053711,0.0054381852969527245,0.007570168003439903,-0.5096607804298401,0.0008224427008834172,0.6993058704007531,-0.005234341330723048,0.0018888086291634148,-0.001070372889937547,0.0,0.0,-0.6,0.0,0.0010306835174560547,0.0013365745544433594,0.0019478797912597656,0
2.2499136924743652,0.005455002188682556,0.007776585873216391,-0.5105465054512024,0.0008087708440988119,0.6993694038438983,-0.00527549772066866,0.0023154916685335617,-0.0010525499522068638,0.0,0.0,-0.6,0.0,0.001043558120727539,0.0013191699981689453,0.0019116401672363281,0
2.259868621826172,0.005472301971167326,0.007980108261108398,-0.511408269405365,0.0007938474447234807,0.6994296491989798,-0.005289922060864603,0.002703889331595436,-0.0010344776287155894,0.0,0.0,-0.6,0.0,0.0013425350189208984,0.0018243789672851562,0.0027310848236083984,0
2.2700014114379883,0.005510668735951185,0.008374460972845554,-0.5130682587623596,0.0007690602472878047,0.6994870173560985,-0.005315783602498334,0.003284547858312862,-0.0010125318096929597,0.0,0.0,-0.6,0.0,0.0017375946044921875,0.0022008419036865234,0.003202199935913086,0
2.2804014682769775,0.005530852358788252,0.008566970005631447,-0.5138653516769409,0.0007453135462312515,0.6995461576392462,-0.005312856066787058,0.0038162775679914367,-0.000988264687200993,0.0,0.0,-0.6,0.0,0.0014445781707763672,0.001856088638305664,0.0027048587799072266,0
2.2898733615875244,0.005552216898649931,0.008755441755056381,-0.5146362781524658,0.000727779460449203,0.699609228150489,-0.005246061370425858,0.004315935085226134,-0.0009647024110550615,0.0,0.0,-0.6,0.0,0.0012192726135253906,0.0015900135040283203,0.0022733211517333984,0
2.299931526184082,0.005575111601501703,0.008939146995544434,-0.5153849124908447,0.0007037495592865974,0.6996686243002223,-0.005130952280355031,0.00481224943776629,-0.0009391976342620358,0.0,0.0,-0.6,0.0,0.0011515617370605469,0.001470804214477539,0.002171039581298828,0
2.3099894523620605,0.005626771133393049,0.009291642345488071,-0.5168207883834839,0.0006404727272418847,0.6997388672547107,-0.0049647532767259465,0.005442660133474327,-0.0008976154802202383,0.0,0.0,-0.6,0.0,0.0012979507446289062,0.0016489028930664062,0.0023763179779052734,0
2.319819211959839,0.005654926411807537,0.009460748173296452,-0.5175077319145203,0.0006341214624819483,0.6998051807375684,-0.004839705720393146,0.005963548575674984,-0.0008661265083481288,0.0,0.0,-0.6,0.0,0.0010962486267089844,0.0014011859893798828,0.0020761489868164062,0
2.329984426498413,0.00568447494879365,0.009626912884414196,-0.5181743502616882,0.0006245741557055353,0.6998713789486047,-0.004785433788697732,0.006390419610796623,-0.0008405038543253699,0.0,0.0,-0.6,0.0,0.0012180805206298828,0.001560211181640625,0.0023164749145507812,0
2.339838743209839,0.005714264698326588,0.009790814481675625,-0.5188211798667908,0.0006053726931253484,0.6999366160568056,-0.004752325854715035,0.006800511984277545,-0.0008153675633274072,0.0,0.0,-0.6,0.0,0.0010685920715332031,0.0014111995697021484,0.0020775794982910156,0
2.3500235080718994,0.0057841939851641655,0.010110274888575077,-0.5200566649436951,0.0005894196571847618,0.7000148847454305,-0.004660478595127415,0.007444747214065586,-0.0007917897537531539,0.0,0.0,-0.6,0.0,0.0011827945709228516,0.0015163421630859375,0.0022420883178710938,0
2.3600611686706543,0.005822239443659782,0.01026343647390604,-0.5206254720687866,0.000574527723028256,0.7000930006341267,-0.004581725247075937,0.008006361203340655,-0.0007697007478167532,0.0,0.0,-0.6,0.0,0.001196146011352539,0.0015211105346679688,0.0022771358489990234,0
