time,x,y,z,yaw,throttle,roll_rate,pitch_rate,yaw_rate,x_ref,y_ref,z_ref,yaw_ref,pred_time,nr_time,ctrl_callback_time,metadata
1.1920928955078125e-06,0.012044241651892662,-0.014588821679353714,-0.013635409064590931,0.02156660080356692,0.7572614828627261,0.028414838016033173,-0.004696774296462536,-0.00808747485280037,0.0,0.0,-10.0,0.0,0.3701615333557129,0.3701615333557129,0.43369054794311523,Sim
0.43378114700317383,0.012044241651892662,-0.014588821679353714,-0.013635409064590931,0.02156660080356692,0.80503159475236,0.018878916278481483,-0.00301623553968966,-0.013748707249760628,0.0,0.0,-10.0,0.0,0.0007898807525634766,0.0007898807525634766,0.0036592483520507812,jax_reg_wardi
0.43952155113220215,0.009750373661518097,-0.014873861335217953,-0.017403587698936462,0.02178060129419434,0.8415041821468453,0.020793456584215164,-0.005874946713447571,-0.01779182069003582,0.0,0.0,-10.0,0.0,0.00077056884765625,0.00077056884765625,0.0034117698669433594,1x Speed
0.4493875503540039,0.00965617224574089,-0.014860778115689754,-0.017444977536797523,0.02179002361588802,0.8696950551590948,0.02064458839595318,-0.005852454341948032,-0.020625533536076546,0.0,0.0,-10.0,0.0,0.0009238719940185547,0.0009238719940185547,0.003977060317993164,QuatYawError
0.45964503288269043,0.009563579224050045,-0.014848589897155762,-0.017484460026025772,0.02179198689929344,0.8916708753412091,0.020470598712563515,-0.005848721135407686,-0.02260986715555191,0.0,0.0,-10.0,0.0,0.0009121894836425781,0.0009121894836425781,0.003726959228515625,0
0.46938347816467285,0.009385737590491772,-0.014827358536422253,-0.01756068505346775,0.021770674791837707,0.9089069890232697,0.02045951783657074,-0.0059483968652784824,-0.02399091050028801,0.0,0.0,-10.0,0.0,0.0008616447448730469,0.0008616447448730469,0.003935337066650391,0
0.4796438217163086,0.00930054858326912,-0.014819756150245667,-0.017596570774912834,0.021777220187723174,0.9224866747297981,0.020488517358899117,-0.006003106944262981,-0.024960095062851906,0.0,0.0,-10.0,0.0,0.0010671615600585938,0.0010671615600585938,0.004319429397583008,0
0.4893960952758789,0.00913761556148529,-0.01480837818235159,-0.01767338253557682,0.02177954755285653,0.9332219630844091,0.020341690629720688,-0.006132599897682667,-0.025639396160840988,0.0,0.0,-10.0,0.0,0.0007207393646240234,0.0007207393646240234,0.0036323070526123047,0
0.49956774711608887,0.009058590978384018,-0.01480262540280819,-0.01782912388443947,0.021775404060024737,0.9417305313755568,0.020131811499595642,-0.0059989322908222675,-0.026113353669643402,0.0,0.0,-10.0,0.0,0.0009710788726806641,0.0009710788726806641,0.003952741622924805,0
0.5094118118286133,0.00898207537829876,-0.014798703603446484,-0.018189918249845505,0.021773418561284067,0.9484876608716004,0.019861524924635887,-0.005724044516682625,-0.02644437924027443,0.0,0.0,-10.0,0.0,0.0006949901580810547,0.0006949901580810547,0.0036177635192871094,0
0.5194463729858398,0.008907457813620567,-0.014796477742493153,-0.018820002675056458,0.02173733020281693,0.9538621233349265,0.01949434168636799,-0.0053117242641747,-0.026662563905119896,0.0,0.0,-10.0,0.0,0.0008876323699951172,0.0008876323699951172,0.003724813461303711,0
0.5295062065124512,0.008761262521147728,-0.014799043536186218,-0.02105330117046833,0.021620502730429505,0.9581420627685113,0.018661541864275932,-0.004046186804771423,-0.026771482080221176,0.0,0.0,-10.0,0.0,0.000835418701171875,0.000835418701171875,0.0038068294525146484,0
0.539459228515625,0.00868952739983797,-0.014805246144533157,-0.02271084673702717,0.021545524952807076,0.9615535784876804,0.01801731251180172,-0.0031567178666591644,-0.026819609105587006,0.0,0.0,-10.0,0.0,0.0012035369873046875,0.0012035369873046875,0.005819797515869141,0
0.5495395660400391,0.008620059117674828,-0.01481272280216217,-0.02475612238049507,0.021470449671164984,0.9642749292358623,0.017370514571666718,-0.0023618056438863277,-0.02682514488697052,0.0,0.0,-10.0,0.0,0.0012760162353515625,0.0012760162353515625,0.005258321762084961,0
0.5596859455108643,0.008551748469471931,-0.014820548705756664,-0.02720438875257969,0.021383629724898847,0.966447021656491,0.01677938736975193,-0.0015943453181535006,-0.026796462014317513,0.0,0.0,-10.0,0.0,0.0010230541229248047,0.0010230541229248047,0.00435638427734375,0
0.5695216655731201,0.008420783095061779,-0.014837672002613544,-0.033344220370054245,0.02115129878863679,0.9681815154738449,0.01599382795393467,-0.00016760951257310808,-0.026689261198043823,0.0,0.0,-10.0,0.0,0.0007219314575195312,0.0007219314575195312,0.0035059452056884766,0
0.5795197486877441,0.008359350264072418,-0.014846320264041424,-0.03705048933625221,0.021012204155910846,0.9695670853200372,0.015580981969833374,0.0007917087059468031,-0.026562059298157692,0.0,0.0,-10.0,0.0,0.0009295940399169922,0.0009295940399169922,0.004425764083862305,0
0.5894269943237305,0.008300901390612125,-0.014856080524623394,-0.041186098009347916,0.020842193277020013,0.970674261855584,0.015171156264841557,0.0016136026242747903,-0.026409264653921127,0.0,0.0,-10.0,0.0,0.0010521411895751953,0.0010521411895751953,0.0043792724609375,0
0.5995032787322998,0.008244769647717476,-0.014867798425257206,-0.04575438052415848,0.020712622808773205,0.971559144424609,0.01466047391295433,0.002311522141098976,-0.02625371888279915,0.0,0.0,-10.0,0.0,0.0008690357208251953,0.0008690357208251953,0.0036787986755371094,0
0.6094441413879395,0.008145136758685112,-0.014888059347867966,-0.056199248880147934,0.020415904772201274,0.9722665247036297,0.013614857569336891,0.003653749590739608,-0.026033567264676094,0.0,0.0,-10.0,0.0,0.0008420944213867188,0.0008420944213867188,0.003931522369384766,0
0.6195132732391357,0.008100377395749092,-0.014897921122610569,-0.062078770250082016,0.020243388253572706,0.972832116409646,0.012858085334300995,0.004544535186141729,-0.02581476792693138,0.0,0.0,-10.0,0.0,0.0007503032684326172,0.0007503032684326172,0.003528118133544922,0
0.6294538974761963,0.008058471605181694,-0.01490819826722145,-0.06839755177497864,0.020067563981337178,0.973284386823921,0.012156439013779163,0.005301366094499826,-0.02559567242860794,0.0,0.0,-10.0,0.0,0.0008251667022705078,0.0008251667022705078,0.0036711692810058594,0
0.6396894454956055,0.00801855232566595,-0.01491886842995882,-0.07510480284690857,0.01989056332563076,0.9736460659826403,0.011399169452488422,0.0060278684832155704,-0.025375932455062866,0.0,0.0,-10.0,0.0,0.000957489013671875,0.000957489013671875,0.003820657730102539,0
0.6495428085327148,0.00794591847807169,-0.014939451590180397,-0.08983742445707321,0.019502144152593312,0.9739352866909626,0.010121770203113556,0.007302990183234215,-0.025076456367969513,0.0,0.0,-10.0,0.0,0.0007908344268798828,0.0007908344268798828,0.0037016868591308594,0
0.659562349319458,0.007914508692920208,-0.014950262382626534,-0.09786158800125122,0.019314169800567958,0.9741666537367468,0.009375224821269512,0.008251553401350975,-0.02479633316397667,0.0,0.0,-10.0,0.0,0.0008499622344970703,0.0008499622344970703,0.003824949264526367,0
0.6695044040679932,0.007886783219873905,-0.014962287619709969,-0.10632220655679703,0.01913142371432422,0.9743516649589182,0.008813449181616306,0.009047575294971466,-0.024531716480851173,0.0,0.0,-10.0,0.0,0.000705718994140625,0.000705718994140625,0.0036704540252685547,0
0.6795668601989746,0.00796927697956562,-0.014900417067110538,-0.11456915736198425,0.018944680357686133,0.974499709167015,0.008279841393232346,0.00982363149523735,-0.024276455864310265,0.0,0.0,-10.0,0.0,0.0008702278137207031,0.0008702278137207031,0.003720998764038086,0
0.6895825862884521,0.008138476870954037,-0.014777426607906818,-0.13240273296833038,0.018566105079750504,0.9746180716887279,0.007343869190663099,0.011098109185695648,-0.023955808952450752,0.0,0.0,-10.0,0.0,0.0008511543273925781,0.0008511543273925781,0.0038051605224609375,0
0.699394702911377,0.008224312216043472,-0.014717078767716885,-0.14198507368564606,0.018382551788860467,0.9747128104754311,0.006632696837186813,0.011958520859479904,-0.023662522435188293,0.0,0.0,-10.0,0.0,0.0007855892181396484,0.0007855892181396484,0.0037620067596435547,0
0.7094197273254395,0.008310820907354355,-0.01465858705341816,-0.1519797444343567,0.018199997199928705,0.9747885838619611,0.006012381054461002,0.012634607031941414,-0.023388763889670372,0.0,0.0,-10.0,0.0,0.0008866786956787109,0.0008866786956787109,0.003964424133300781,0
0.7197139263153076,0.00839925091713667,-0.014601713046431541,-0.16241152584552765,0.018008854399916528,0.9748491754660279,0.005379508715122938,0.013189084827899933,-0.023125454783439636,0.0,0.0,-10.0,0.0,0.0009622573852539062,0.0009622573852539062,0.0038979053497314453,0
0.7294008731842041,0.008579280227422714,-0.014485916122794151,-0.18457582592964172,0.017615718823965735,0.9748976695481296,0.0043132007122039795,0.013933769427239895,-0.022793712094426155,0.0,0.0,-10.0,0.0,0.0006742477416992188,0.0006742477416992188,0.0034105777740478516,0
0.739579439163208,0.00867280550301075,-0.014425346627831459,-0.1963050216436386,0.017416926629752087,0.9749364516100475,0.0035567507147789,0.014494625851511955,-0.022486945614218712,0.0,0.0,-10.0,0.0,0.0010027885437011719,0.0010027885437011719,0.003849029541015625,0
0.7493572235107422,0.008768463507294655,-0.014363952912390232,-0.20846258103847504,0.017222453263955932,0.9749674995087062,0.003068292047828436,0.014961570501327515,-0.02219928242266178,0.0,0.0,-10.0,0.0,0.0006721019744873047,0.0006721019744873047,0.0036211013793945312,0
0.7595322132110596,0.00886751152575016,-0.014301696792244911,-0.221048504114151,0.01702896120213213,0.9749923255540014,0.0025675154756754637,0.015532267279922962,-0.02192535810172558,0.0,0.0,-10.0,0.0,0.0008471012115478516,0.0008471012115478516,0.0036351680755615234,0
0.769437313079834,0.009072115644812584,-0.014170900918543339,-0.24750588834285736,0.016641800565450792,0.9750121510941167,0.0019470218103379011,0.016302090138196945,-0.02158842608332634,0.0,0.0,-10.0,0.0,0.0008375644683837891,0.0008375644683837891,0.003857135772705078,0
0.7793996334075928,0.009178931824862957,-0.014104120433330536,-0.2613605260848999,0.0164438583744945,0.9750280228905662,0.0015487967757508159,0.01680566929280758,-0.021278344094753265,0.0,0.0,-10.0,0.0,0.0008096694946289062,0.0008096694946289062,0.003834962844848633,0
0.7895216941833496,0.009289362467825413,-0.014037096872925758,-0.2756311893463135,0.016243705362717346,0.9750407550414077,0.0012435360113158822,0.017198825255036354,-0.020986229181289673,0.0,0.0,-10.0,0.0,0.0008044242858886719,0.0008044242858886719,0.003595113754272461,0
0.7996947765350342,0.009403780102729797,-0.01396987959742546,-0.2903154492378235,0.016030689850860314,0.9750509290261554,0.0008476648363284767,0.0175993200391531,-0.020701870322227478,0.0,0.0,-10.0,0.0,0.0009107589721679688,0.0009107589721679688,0.004186391830444336,0
0.8095309734344482,0.009647047147154808,-0.013833725824952126,-0.3209128975868225,0.01566525768513974,0.975059010008288,0.0001433204161003232,0.017913060262799263,-0.020365780219435692,0.0,0.0,-10.0,0.0,0.0007100105285644531,0.0007100105285644531,0.003475189208984375,0
0.8197271823883057,0.009774642065167427,-0.013762342743575573,-0.336821585893631,0.015476703420338585,0.9750655212590534,-0.0003428978379815817,0.018079249188303947,-0.02005981095135212,0.0,0.0,-10.0,0.0,0.0008606910705566406,0.0008606910705566406,0.00396275520324707,0
0.8294873237609863,0.009905530139803886,-0.013688054867088795,-0.35312414169311523,0.015282743843723337,0.9750707534855555,-0.000731984619051218,0.01833054982125759,-0.01977289654314518,0.0,0.0,-10.0,0.0,0.0007631778717041016,0.0007631778717041016,0.004068136215209961,0
0.8395648002624512,0.01004144735634327,-0.013611840084195137,-0.3698281943798065,0.015110050763233556,0.975074881112939,-0.0010540673974901438,0.018625877797603607,-0.01950729638338089,0.0,0.0,-10.0,0.0,0.0008046627044677734,0.0008046627044677734,0.0036153793334960938,0
0.84954833984375,0.010324054397642612,-0.013456643559038639,-0.40442851185798645,0.014766842867694339,0.9750781948304971,-0.0016484127845615149,0.01901526376605034,-0.01919267326593399,0.0,0.0,-10.0,0.0,0.0008344650268554688,0.0008344650268554688,0.0038878917694091797,0
0.8593714237213135,0.010470367036759853,-0.013375642709434032,-0.4223211109638214,0.014600612274264117,0.9750808690512542,-0.0020661568269133568,0.01922650635242462,-0.018910100683569908,0.0,0.0,-10.0,0.0,0.0007266998291015625,0.0007266998291015625,0.0038902759552001953,0
0.869556188583374,0.0106199374422431,-0.013292361982166767,-0.4406053125858307,0.01442906188485391,0.9750830200500797,-0.0023907171562314034,0.01937023550271988,-0.018647968769073486,0.0,0.0,-10.0,0.0,0.0009257793426513672,0.0009257793426513672,0.004517078399658203,0
0.8798270225524902,0.0107727674767375,-0.013207338750362396,-0.45927873253822327,0.014284160713484394,0.9750847059650696,-0.002738239010795951,0.019467797130346298,-0.01841013878583908,0.0,0.0,-10.0,0.0,0.0011630058288574219,0.0011630058288574219,0.005074024200439453,0
0.8893899917602539,0.011079302057623863,-0.013030515983700752,-0.497787207365036,0.013965287637750522,0.9750860430681817,-0.0031630888115614653,0.019374653697013855,-0.018124079331755638,0.0,0.0,-10.0,0.0,0.0007672309875488281,0.0007672309875488281,0.0037145614624023438,0
0.8996741771697998,0.01123755518347025,-0.012939195148646832,-0.5176311731338501,0.013802965193269108,0.9750871476303677,-0.0034119118936359882,0.019349120557308197,-0.017862968146800995,0.0,0.0,-10.0,0.0,0.0008747577667236328,0.0008747577667236328,0.0037157535552978516,0
0.909538745880127,0.011398361064493656,-0.012846562080085278,-0.5378562211990356,0.013625756590795289,0.9750880196523447,-0.00364817027002573,0.019350169226527214,-0.017613736912608147,0.0,0.0,-10.0,0.0,0.0007975101470947266,0.0007975101470947266,0.003815174102783203,0
0.9196019172668457,0.011562198400497437,-0.012752004899084568,-0.5584595799446106,0.01346136661828516,0.9750887172694167,-0.0038262028247117996,0.01941097527742386,-0.01737762801349163,0.0,0.0,-10.0,0.0,0.0008053779602050781,0.0008053779602050781,0.0036165714263916016,0
0.9295542240142822,0.011729738675057888,-0.012655630707740784,-0.5794406533241272,0.013305556056354785,0.975089240481924,-0.003964212257415056,0.019460726529359818,-0.017153922468423843,0.0,0.0,-10.0,0.0,0.0008869171142578125,0.0008869171142578125,0.00396418571472168,0
0.9394440650939941,0.012072759680449963,-0.012460581958293915,-0.6225260496139526,0.012995110965834689,0.9750897055594941,-0.004153660964220762,0.019555704668164253,-0.016880912706255913,0.0,0.0,-10.0,0.0,0.0009360313415527344,0.0009360313415527344,0.004868030548095703,0
0.9496099948883057,0.012249398045241833,-0.01236308366060257,-0.6446252465248108,0.012828788873385203,0.97509005436754,-0.004269686993211508,0.01968533545732498,-0.016627434641122818,0.0,0.0,-10.0,0.0,0.0010356903076171875,0.0010356903076171875,0.0042934417724609375,0
0.9596619606018066,0.012432929128408432,-0.012266791425645351,-0.6670935153961182,0.01265718255569238,0.975090345040825,-0.004325155634433031,0.019806941971182823,-0.016385648399591446,0.0,0.0,-10.0,0.0,0.0008900165557861328,0.0008900165557861328,0.003821849822998047,0
0.9693772792816162,0.012809609062969685,-0.01207261998206377,-0.7131428122520447,0.012356836509036528,0.9750905775793963,-0.004407225642353296,0.019958380609750748,-0.01610376685857773,0.0,0.0,-10.0,0.0,0.0007314682006835938,0.0007314682006835938,0.003428220748901367,0
0.979621410369873,0.013002175837755203,-0.011972482316195965,-0.7367211580276489,0.012213689081974751,0.975090751983292,-0.004461701028048992,0.02000357210636139,-0.01585276983678341,0.0,0.0,-10.0,0.0,0.0008425712585449219,0.0008425712585449219,0.003744840621948242,0
0.9894809722900391,0.01319550909101963,-0.011870434507727623,-0.7606594562530518,0.012071713468146538,0.9750908682525399,-0.004499032162129879,0.01999652571976185,-0.015623832121491432,0.0,0.0,-10.0,0.0,0.0007777214050292969,0.0007777214050292969,0.0036232471466064453,0
0.9995071887969971,0.013391148298978806,-0.011766623705625534,-0.7849552631378174,0.011931931722174329,0.9750909845217752,-0.004560861270874739,0.02000546082854271,-0.01541115716099739,0.0,0.0,-10.0,0.0,0.0008335113525390625,0.0008335113525390625,0.0035779476165771484,0
1.009455919265747,0.013783229514956474,-0.011552119627594948,-0.8346056342124939,0.01167504339291647,0.9750911007909981,-0.0047133550979197025,0.019807355478405952,-0.01516595110297203,0.0,0.0,-10.0,0.0,0.0008299350738525391,0.0008299350738525391,0.00357818603515625,0
1.01951003074646,0.013979297131299973,-0.011439813300967216,-0.8599563837051392,0.01152169207328575,0.9750912170602082,-0.004819033667445183,0.019633466377854347,-0.014936800114810467,0.0,0.0,-10.0,0.0,0.0008058547973632812,0.0008058547973632812,0.003671884536743164,0
1.0295557975769043,0.014178449288010597,-0.0113252904266119,-0.8856542706489563,0.011386542145861007,0.9750912751948088,-0.004892734345048666,0.01949857734143734,-0.014725713059306145,0.0,0.0,-10.0,0.0,0.000797271728515625,0.000797271728515625,0.0035691261291503906,0
1.039658546447754,0.014378543943166733,-0.011208667419850826,-0.9116964936256409,0.011264686921426835,0.9750913333294061,-0.0049529350362718105,0.01918915845453739,-0.014532256871461868,0.0,0.0,-10.0,0.0,0.0008847713470458984,0.0008847713470458984,0.0037779808044433594,0
1.0495054721832275,0.014778968878090382,-0.010968622751533985,-0.9648655652999878,0.010970005165343112,0.9750913333294061,-0.005016370676457882,0.01880892552435398,-0.014286331832408905,0.0,0.0,-10.0,0.0,0.0007851123809814453,0.0007851123809814453,0.003670930862426758,0
1.0595788955688477,0.01497962698340416,-0.010846316814422607,-0.9919605255126953,0.010809994373190438,0.9750913333294061,-0.005111256148666143,0.01855706237256527,-0.01405418012291193,0.0,0.0,-10.0,0.0,0.0008802413940429688,0.0008802413940429688,0.003806591033935547,0
1.0694892406463623,0.01518119778484106,-0.010723261162638664,-1.0193935632705688,0.010669268067148437,0.9750913333294061,-0.005215676035732031,0.018374023959040642,-0.013838902115821838,0.0,0.0,-10.0,0.0,0.0007541179656982422,0.0007541179656982422,0.0037615299224853516,0
1.079547643661499,0.01517926249653101,-0.010203054174780846,-1.0436360836029053,0.010532905572595183,0.9750913333294061,-0.005437483079731464,0.01808209903538227,-0.013637070544064045,0.0,0.0,-10.0,0.0,0.0008392333984375,0.0008392333984375,0.003698110580444336,0
1.089540958404541,0.015186035074293613,-0.009177296422421932,-1.093345284461975,0.010294193274538635,0.9750913333294061,-0.005893065594136715,0.017537765204906464,-0.013406272046267986,0.0,0.0,-10.0,0.0,0.0008373260498046875,0.0008373260498046875,0.003763437271118164,0
1.0995171070098877,0.015193188562989235,-0.008672536350786686,-1.1188058853149414,0.010174456664820784,0.9750913333294061,-0.0062387422658503056,0.01697135716676712,-0.013199811801314354,0.0,0.0,-10.0,0.0,0.0007369518280029297,0.0007369518280029297,0.003487110137939453,0
1.1095376014709473,0.015202547423541546,-0.008173285983502865,-1.1446645259857178,0.010032081579145247,0.9750913333294061,-0.006535527296364307,0.01640511117875576,-0.013001899234950542,0.0,0.0,-10.0,0.0,0.0008051395416259766,0.0008051395416259766,0.003613710403442383,0
1.119675874710083,0.015215475112199783,-0.007680016104131937,-1.1709659099578857,0.009888699861922036,0.9750913333294061,-0.006828614976257086,0.015936346724629402,-0.012809592299163342,0.0,0.0,-10.0,0.0,0.0008864402770996094,0.0008864402770996094,0.003883838653564453,0
1.1295011043548584,0.015252700075507164,-0.006710398476570845,-1.2247329950332642,0.00962675683223558,0.9750913333294061,-0.00725591043010354,0.015468474477529526,-0.012576747685670853,0.0,0.0,-10.0,0.0,0.0006763935089111328,0.0006763935089111328,0.0033121109008789062,0
1.139594554901123,0.015276534482836723,-0.006233781576156616,-1.2521926164627075,0.009512482754848525,0.9750913333294061,-0.007597716525197029,0.015069391578435898,-0.01237090490758419,0.0,0.0,-10.0,0.0,0.0008256435394287109,0.0008256435394287109,0.0035257339477539062,0
1.149458646774292,0.015302740037441254,-0.005761329084634781,-1.2800308465957642,0.009403648913558525,0.9750913333294061,-0.007951654493808746,0.014695996418595314,-0.012186001054942608,0.0,0.0,-10.0,0.0,0.0006830692291259766,0.0006830692291259766,0.0035827159881591797,0
1.159391164779663,0.015330868773162365,-0.005292657297104597,-1.3082436323165894,0.009298116815656492,0.9750913333294061,-0.008332198485732079,0.014381459914147854,-0.012016993947327137,0.0,0.0,-10.0,0.0,0.000885009765625,0.000885009765625,0.0037183761596679688,0
1.169520378112793,0.015393879264593124,-0.004368075635284185,-1.3657804727554321,0.009066120198621694,0.9750913333294061,-0.008959678933024406,0.013856315053999424,-0.011811690405011177,0.0,0.0,-10.0,0.0,0.001194000244140625,0.001194000244140625,0.004896879196166992,0
1.1794416904449463,0.015430022962391376,-0.003910299390554428,-1.3950976133346558,0.008941543383163136,0.9750913333294061,-0.009557249024510384,0.013475663028657436,-0.011621261946856976,0.0,0.0,-10.0,0.0,0.000782012939453125,0.000782012939453125,0.0035331249237060547,0
1.1894209384918213,0.015469774603843689,-0.0034539466723799706,-1.4248440265655518,0.008827716328202775,0.9750913333294061,-0.010147800669074059,0.01318878773599863,-0.011445276439189911,0.0,0.0,-10.0,0.0,0.0009331703186035156,0.0009331703186035156,0.003803253173828125,0
1.1995246410369873,0.0155112249776721,-0.002999432384967804,-1.4549455642700195,0.008719378117630938,0.9750913333294061,-0.010710280388593674,0.012806124053895473,-0.011281460523605347,0.0,0.0,-10.0,0.0,0.0009682178497314453,0.0009682178497314453,0.004326343536376953,0
1.2093942165374756,0.015594063326716423,-0.002100803190842271,-1.516202449798584,0.008480738958079067,0.9750913333294061,-0.011215835809707642,0.012360947206616402,-0.01107729971408844,0.0,0.0,-10.0,0.0,0.0007851123809814453,0.0007851123809814453,0.003749370574951172,0
1.2194411754608154,0.015637682750821114,-0.0016569352010264993,-1.5473520755767822,0.008368547434550509,0.9750913333294061,-0.011517778970301151,0.012088511139154434,-0.010892314836382866,0.0,0.0,-10.0,0.0,0.0008955001831054688,0.0008955001831054688,0.003702878952026367,0
1.229494571685791,0.015681777149438858,-0.0012179097393527627,-1.5788445472717285,0.008265026291530902,0.9750913333294061,-0.011718973517417908,0.01178233977407217,-0.010724005289375782,0.0,0.0,-10.0,0.0,0.0007679462432861328,0.0007679462432861328,0.0036084651947021484,0
1.2394087314605713,0.01572580449283123,-0.0007824632339179516,-1.6106781959533691,0.008153125943357115,0.9750913333294061,-0.011890636757016182,0.011499092914164066,-0.010564225725829601,0.0,0.0,-10.0,0.0,0.0008878707885742188,0.0008878707885742188,0.003728151321411133,0
1.2494215965270996,0.015816178172826767,7.733621168881655e-05,-1.6753556728363037,0.007945850864696654,0.9750913333294061,-0.012214475311338902,0.011034952476620674,-0.010374652221798897,0.0,0.0,-10.0,0.0,0.0009407997131347656,0.0009407997131347656,0.003869295120239258,0
1.259484052658081,0.015861984342336655,0.0005039914976805449,-1.7082431316375732,0.007855799771774991,0.9750913333294061,-0.012587963603436947,0.010655244812369347,-0.010208181105554104,0.0,0.0,-10.0,0.0,0.0007922649383544922,0.0007922649383544922,0.003534078598022461,0
1.2693977355957031,0.01590919867157936,0.0009291711030527949,-1.7414605617523193,0.007751993165350673,0.9750913333294061,-0.012964049354195595,0.010327526368200779,-0.010052724741399288,0.0,0.0,-10.0,0.0,0.0008630752563476562,0.0008630752563476562,0.00382232666015625,0
1.2797086238861084,0.01595562882721424,0.0013523821253329515,-1.7750048637390137,0.007669592281122699,0.9750913333294061,-0.013277796097099781,0.009966458193957806,-0.00991300493478775,0.0,0.0,-10.0,0.0,0.0009393692016601562,0.0009393692016601562,0.003984928131103516,0
1.2893946170806885,0.016048802062869072,0.0021949675865471363,-1.8430651426315308,0.007495475261384768,0.9750913333294061,-0.01369795948266983,0.009592382237315178,-0.00974990613758564,0.0,0.0,-10.0,0.0,0.0009522438049316406,0.0009522438049316406,0.003947734832763672,0
1.2996385097503662,0.016096394509077072,0.002613103250041604,-1.877577304840088,0.00741760066240193,0.9750913333294061,-0.013952226378023624,0.00931419525295496,-0.009606534615159035,0.0,0.0,-10.0,0.0,0.0009186267852783203,0.0009186267852783203,0.0037751197814941406,0
1.3094072341918945,0.016144603490829468,0.003027179976925254,-1.91240656375885,0.0073003958015342785,0.9750913333294061,-0.014088527299463749,0.009051235392689705,-0.009462222456932068,0.0,0.0,-10.0,0.0,0.0007188320159912109,0.0007188320159912109,0.0035741329193115234,0
1.3195679187774658,0.01618802919983864,0.003437872976064682,-1.9475513696670532,0.007188600595777771,0.9750913333294061,-0.014080215245485306,0.008755546994507313,-0.00931928027421236,0.0,0.0,-10.0,0.0,0.0009300708770751953,0.0009300708770751953,0.003609895706176758,0
1.3293366432189941,0.016272297129034996,0.004247293807566166,-2.0188379287719727,0.007008348445629321,0.9750913333294061,-0.014049074612557888,0.008477812632918358,-0.00915162730962038,0.0,0.0,-10.0,0.0,0.0008597373962402344,0.0008597373962402344,0.0038144588470458984,0
1.3394150733947754,0.016313795000314713,0.004645618610084057,-2.0549726486206055,0.006908714748407896,0.9750913333294061,-0.014017440378665924,0.008193368092179298,-0.008996907621622086,0.0,0.0,-10.0,0.0,0.0008382797241210938,0.0008382797241210938,0.003597736358642578,0
1.3493733406066895,0.016354743391275406,0.005040619056671858,-2.0914125442504883,0.006833632247117557,0.9750913333294061,-0.014011183753609657,0.007981380447745323,-0.008860447444021702,0.0,0.0,-10.0,0.0,0.000858306884765625,0.000858306884765625,0.0036096572875976562,0
1.3596384525299072,0.016396304592490196,0.0054314457811415195,-2.128156900405884,0.006759671244875104,0.9750913333294061,-0.013999122194945812,0.007844552397727966,-0.008737189695239067,0.0,0.0,-10.0,0.0,0.0009236335754394531,0.0009236335754394531,0.0038461685180664062,0
1.369405746459961,0.016437849029898643,0.00581793999299407,-2.16520094871521,0.006678283929145623,0.9750913333294061,-0.013982909731566906,0.00770926009863615,-0.008620389737188816,0.0,0.0,-10.0,0.0,0.0007729530334472656,0.0007729530334472656,0.003537893295288086,0
1.3794941902160645,0.01648014225065708,0.006200403906404972,-2.202543258666992,0.00663209529997009,0.9750913333294061,-0.01397356390953064,0.007668853271752596,-0.008521308191120625,0.0,0.0,-10.0,0.0,0.0008590221405029297,0.0008590221405029297,0.0036821365356445312,0
1.3893611431121826,0.01656598038971424,0.006952853873372078,-2.278111219406128,0.013487212395630124,0.9750913333294061,-0.013832222670316696,0.007523150183260441,-0.011022618971765041,0.0,0.0,-10.0,0.0,0.000743865966796875,0.000743865966796875,0.0036993026733398438,0
1.3996429443359375,0.016607236117124557,0.007322271354496479,-2.3163344860076904,0.01341342763170971,0.9750913333294061,-0.01376478374004364,0.007426216267049313,-0.012745868414640427,0.0,0.0,-10.0,0.0,0.0011534690856933594,0.0011534690856933594,0.006668567657470703,0
1.4094839096069336,0.016687415540218353,0.008048792369663715,-2.3937628269195557,0.013265893189140503,0.9750913333294061,-0.013694999739527702,0.007285952102392912,-0.013896818272769451,0.0,0.0,-10.0,0.0,0.0012214183807373047,0.0012214183807373047,0.004806995391845703,0
1.4193928241729736,0.016726238653063774,0.00840617623180151,-2.4329044818878174,0.013219876617501757,0.9750913333294061,-0.013598833233118057,0.00715415645390749,-0.014685225673019886,0.0,0.0,-10.0,0.0,0.0008611679077148438,0.0008611679077148438,0.004431247711181641,0
1.4294509887695312,0.016764894127845764,0.00875898078083992,-2.4723315238952637,0.013169594128280684,0.9750913333294061,-0.013474913313984871,0.007029180880635977,-0.015218256041407585,0.0,0.0,-10.0,0.0,0.00096893310546875,0.00096893310546875,0.003966093063354492,0
1.4396872520446777,0.01680338941514492,0.009106329642236233,-2.512040615081787,0.0130756959759864,0.9750913333294061,-0.013314636424183846,0.0068994625471532345,-0.015556165017187595,0.0,0.0,-10.0,0.0,0.0009033679962158203,0.0009033679962158203,0.003819704055786133,0
1.4494757652282715,0.016877183690667152,0.00978546217083931,-2.5922954082489014,0.012942352020930987,0.9750913333294061,-0.01301440317183733,0.006791296415030956,-0.015742696821689606,0.0,0.0,-10.0,0.0,0.0006191730499267578,0.0006191730499267578,0.0032253265380859375,0
1.4596683979034424,0.016883332282304764,0.01011973898857832,-2.6328394412994385,0.012862405185214348,0.9750913333294061,-0.012733466923236847,0.0066309780813753605,-0.015843288972973824,0.0,0.0,-10.0,0.0,0.0008368492126464844,0.0008368492126464844,0.0036656856536865234,0
1.4695079326629639,0.016886381432414055,0.010448232293128967,-2.6736581325531006,0.012716288454822948,0.9750913333294061,-0.012463719584047794,0.006405522581189871,-0.015858910977840424,0.0,0.0,-10.0,0.0,0.0007174015045166016,0.0007174015045166016,0.003607511520385742,0
1.4794838428497314,0.016782278195023537,0.010650922544300556,-2.712059736251831,0.01255960135653047,0.9750913333294061,-0.012142700143158436,0.0061671617440879345,-0.01581108756363392,0.0,0.0,-10.0,0.0,0.0009889602661132812,0.0009889602661132812,0.003874540328979492,0
1.489443063735962,0.01657523214817047,0.011049335822463036,-2.789848566055298,0.012260453936835091,0.9750913333294061,-0.01166867557913065,0.005769442301243544,-0.015665430575609207,0.0,0.0,-10.0,0.0,0.0008966922760009766,0.0008966922760009766,0.003980875015258789,0
1.499476671218872,0.01647142507135868,0.011243488639593124,-2.8292276859283447,0.012136365655564627,0.9750913333294061,-0.01124548353254795,0.005369380582123995,-0.015516937710344791,0.0,0.0,-10.0,0.0,0.0007262229919433594,0.0007262229919433594,0.003844022750854492,0
1.5095441341400146,0.01636701263487339,0.011434519663453102,-2.8689260482788086,0.011981319956134875,0.9750913333294061,-0.010877721942961216,0.004952151328325272,-0.015354851260781288,0.0,0.0,-10.0,0.0,0.0008077621459960938,0.0008077621459960938,0.0037369728088378906,0
1.5197279453277588,0.016263071447610855,0.011622986756265163,-2.908940553665161,0.011819885419831533,0.9750913333294061,-0.010558638721704483,0.004624465014785528,-0.015180852264165878,0.0,0.0,-10.0,0.0,0.0008931159973144531,0.0008931159973144531,0.004173755645751953,0
1.5294229984283447,0.01605416089296341,0.011989780701696873,-2.9899094104766846,0.011444597527359846,0.9750913333294061,-0.01008007861673832,0.0041577634401619434,-0.014918320812284946,0.0,0.0,-10.0,0.0,0.0007145404815673828,0.0007145404815673828,0.003545045852661133,0
1.5396218299865723,0.015948686748743057,0.01216559112071991,-3.0308563709259033,0.011155964600724284,0.9750913333294061,-0.009561825543642044,0.003776481142267585,-0.014626311138272285,0.0,0.0,-10.0,0.0,0.0011196136474609375,0.0011196136474609375,0.004867076873779297,0
1.5495727062225342,0.01584448479115963,0.012335947714745998,-3.0721945762634277,0.010872664074995483,0.9750913333294061,-0.008994628675282001,0.0034645339474081993,-0.014315666630864143,0.0,0.0,-10.0,0.0,0.0009169578552246094,0.0009169578552246094,0.004066944122314453,0
1.5594093799591064,0.015740791335701942,0.012501860037446022,-3.1138293743133545,0.010574451459211938,0.9750913333294061,-0.008479200303554535,0.003231573849916458,-0.013986386358737946,0.0,0.0,-10.0,0.0,0.0007331371307373047,0.0007331371307373047,0.003367185592651367,0
1.569465160369873,0.015536106191575527,0.012822769582271576,-3.1979825496673584,0.010004540233012598,0.9750913333294061,-0.007845887914299965,0.003014359390363097,-0.013542172499001026,0.0,0.0,-10.0,0.0,0.0009055137634277344,0.0009055137634277344,0.0039365291595458984,0
1.5793769359588623,0.01543448306620121,0.012976113706827164,-3.2404937744140625,0.009714627454787262,0.9741233634922947,-0.0072687407955527306,0.0028525281231850386,-0.013122506439685822,0.0,0.0,-10.0,0.0,0.0006880760192871094,0.0006880760192871094,0.0033349990844726562,0
1.589583396911621,0.015333610586822033,0.013123956508934498,-3.283292055130005,0.009428874394325512,0.9719552812501088,-0.006734074559062719,0.002656706841662526,-0.012721582315862179,0.0,0.0,-10.0,0.0,0.0007812976837158203,0.0007812976837158203,0.0035283565521240234,0
1.5997121334075928,0.015232598409056664,0.013267433270812035,-3.326373815536499,0.00912811889271143,0.9688192082854798,-0.006273187231272459,0.002436766168102622,-0.012328151613473892,0.0,0.0,-10.0,0.0,0.0009105205535888672,0.0009105205535888672,0.003787994384765625,0
1.609471321105957,0.0150257907807827,0.013544653542339802,-3.413374900817871,0.00859711840996044,0.9634800186181215,-0.005727114621549845,0.0021453225053846836,-0.011853625997900963,0.0,0.0,-10.0,0.0,0.00069427490234375,0.00069427490234375,0.00335693359375,0
1.6196000576019287,0.014923355542123318,0.013676200062036514,-3.457376480102539,0.008364727377785108,0.9577610197960597,-0.005235009361058474,0.0019139002542942762,-0.011434311047196388,0.0,0.0,-10.0,0.0,0.0009083747863769531,0.0009083747863769531,0.003731966018676758,0
1.6294655799865723,0.014820520766079426,0.013803962618112564,-3.501648426055908,0.008125475552441707,0.9517256652758835,-0.004792367108166218,0.0016825493657961488,-0.011051070876419544,0.0,0.0,-10.0,0.0,0.0006253719329833984,0.0006253719329833984,0.0034813880920410156,0
1.639439344406128,0.014717227779328823,0.013927096500992775,-3.546186923980713,0.007874873466885642,0.9454280821749528,-0.0043730163015425205,0.0014732583658769727,-0.010688827373087406,0.0,0.0,-10.0,0.0,0.0008788108825683594,0.0008788108825683594,0.0036475658416748047,0
1.6494786739349365,0.014510941691696644,0.01416203286498785,-3.6360442638397217,0.007382464200814875,0.9374597582557119,-0.003940153401345015,0.0012181677157059312,-0.010250603780150414,0.0,0.0,-10.0,0.0,0.0009162425994873047,0.0009162425994873047,0.0038175582885742188,0
1.659393072128296,0.014406964182853699,0.014272435568273067,-3.681353807449341,0.007148139322865627,0.929582925266343,-0.003547467989847064,0.0009880897123366594,-0.009855975396931171,0.0,0.0,-10.0,0.0,0.000667572021484375,0.000667572021484375,0.003317594528198242,0
1.669374704360962,0.014301574788987637,0.014377379789948463,-3.7269084453582764,0.006901452110977689,0.9217803090684417,-0.003201061859726906,0.0007131820311769843,-0.009487227536737919,0.0,0.0,-10.0,0.0,0.0008130073547363281,0.0008130073547363281,0.0035948753356933594,0
1.6796677112579346,0.014194178394973278,0.014476927928626537,-3.772700309753418,0.006694669664533937,0.914034392907854,-0.0028817476704716682,0.0005235167918726802,-0.009151560254395008,0.0,0.0,-10.0,0.0,0.0009157657623291016,0.0009157657623291016,0.0038805007934570312,0
1.6894526481628418,0.013980802148580551,0.014662849716842175,-3.8650519847869873,0.00626403574231464,0.9048863430756734,-0.002632714342325926,0.0003665584372356534,-0.008755105547606945,0.0,0.0,-10.0,0.0,0.0009999275207519531,0.0009999275207519531,0.004185676574707031,0
1.6996221542358398,0.013874339871108532,0.014749947935342789,-3.9115915298461914,0.006078446104381079,0.896060866614084,-0.0024420113768428564,0.00024403668066952378,-0.008407991379499435,0.0,0.0,-10.0,0.0,0.0008997917175292969,0.0008997917175292969,0.003568410873413086,0
1.7095048427581787,0.013768321834504604,0.014832784421741962,-3.958329916000366,0.005863336496031702,0.8874987025307932,-0.002215614542365074,0.00014196707343216985,-0.008084345608949661,0.0,0.0,-10.0,0.0,0.0007772445678710938,0.0007772445678710938,0.0035161972045898438,0
1.7194139957427979,0.01366270612925291,0.014910460449755192,-4.0052571296691895,0.005663272132683033,0.8791586311727022,-0.0019203110132366419,7.208172610262409e-05,-0.007782768923789263,0.0,0.0,-10.0,0.0,0.0007915496826171875,0.0007915496826171875,0.0033240318298339844,0
1.7295541763305664,0.013453837484121323,0.01504934299737215,-4.099633693695068,0.005314022581433915,0.8695891526827226,-0.001524690305814147,-4.1758441511774436e-05,-0.007440696936100721,0.0,0.0,-10.0,0.0,0.0008931159973144531,0.0008931159973144531,0.0034945011138916016,0
1.7394757270812988,0.013348297215998173,0.015112115070223808,-4.147063732147217,0.005129558068136334,0.8604546449468605,-0.0012247335398569703,-0.0002200836461270228,-0.007132072001695633,0.0,0.0,-10.0,0.0,0.0007383823394775391,0.0007383823394775391,0.0033483505249023438,0
1.7495548725128174,0.013241731561720371,0.01517258770763874,-4.19464111328125,0.00495605586127526,0.8516817023038743,-0.0010102709056809545,-0.00036612970870919526,-0.00685097137466073,0.0,0.0,-10.0,0.0,0.0007679462432861328,0.0007679462432861328,0.0034880638122558594,0
1.7597079277038574,0.013136116787791252,0.015228484757244587,-4.242354393005371,0.004782828417393333,0.843212727861536,-0.0007637652452103794,-0.0004809801175724715,-0.0065892403945326805,0.0,0.0,-10.0,0.0,0.0008711814880371094,0.0008711814880371094,0.0035753250122070312,0
1.769395112991333,0.012928437441587448,0.015325556509196758,-4.338338375091553,0.004445772379551178,0.8336364054063016,-0.000494078267365694,-0.0005180314183235168,-0.006279632914811373,0.0,0.0,-10.0,0.0,0.0007593631744384766,0.0007593631744384766,0.003508329391479492,0
1.779444932937622,0.012826298363506794,0.01536770910024643,-4.386484622955322,0.004260626085236254,0.8245503974905858,-0.00026118598179891706,-0.0005620387964881957,-0.005993478000164032,0.0,0.0,-10.0,0.0,0.0008375644683837891,0.0008375644683837891,0.0035114288330078125,0
1.7893519401550293,0.012724779546260834,0.015404658392071724,-4.434719562530518,0.0041023881104942156,0.815877106930837,4.593346966430545e-05,-0.0006082792533561587,-0.005733830388635397,0.0,0.0,-10.0,0.0,0.0007011890411376953,0.0007011890411376953,0.0036313533782958984,0
1.7994892597198486,0.012623969465494156,0.015437079593539238,-4.483030796051025,0.003951849558726045,0.8075492755217207,0.0003027656930498779,-0.0006205258541740477,-0.005495625082403421,0.0,0.0,-10.0,0.0,0.0008025169372558594,0.0008025169372558594,0.004103422164916992,0
1.8093132972717285,0.012526309117674828,0.01546612847596407,-4.531409740447998,0.0037972369591200796,0.7995066703476967,0.0005402315291576087,-0.000493910105433315,-0.0052709016017615795,0.0,0.0,-10.0,0.0,0.0008344650268554688,0.0008344650268554688,0.00351715087890625,0
1.8194499015808105,0.012430614791810513,0.015491646714508533,-4.579847812652588,0.0036214131737624927,0.7917070356905345,0.000717347429599613,-0.0004163235716987401,-0.005047661252319813,0.0,0.0,-10.0,0.0,0.0008158683776855469,0.0008158683776855469,0.0035088062286376953,0
1.8293590545654297,0.012243302538990974,0.015532853081822395,-4.676852226257324,0.0033312940155864126,0.7828518420437259,0.0009014178649522364,-0.00029709574300795794,-0.004782598000019789,0.0,0.0,-10.0,0.0,0.0007598400115966797,0.0007598400115966797,0.0034093856811523438,0
1.8397068977355957,0.012150554917752743,0.015546819195151329,-4.725529670715332,0.0031703729956520294,0.7744372118682965,0.0011232667602598667,-0.00026240767328999937,-0.004536708351224661,0.0,0.0,-10.0,0.0,0.0009145736694335938,0.0009145736694335938,0.0036454200744628906,0
1.8493657112121582,0.011964678764343262,0.015559885650873184,-4.822913646697998,0.002904819363566421,0.7651618706924156,0.0014899924863129854,-0.00021594142890535295,-0.0042650033719837666,0.0,0.0,-10.0,0.0,0.0005598068237304688,0.0005598068237304688,0.003057241439819336,0
1.8595943450927734,0.011871970258653164,0.015558406710624695,-4.871601104736328,0.002758252238099854,0.7564516915740198,0.0018506846390664577,-0.00023073297052178532,-0.004019847139716148,0.0,0.0,-10.0,0.0,0.0010085105895996094,0.0010085105895996094,0.0046350955963134766,0
1.869399070739746,0.011779122985899448,0.015552961267530918,-4.9202728271484375,0.0026274756108858204,0.7482120902227225,0.002157864160835743,-0.00027348168077878654,-0.0037991963326931,0.0,0.0,-10.0,0.0,0.0008275508880615234,0.0008275508880615234,0.004549741744995117,0
1.879431962966919,0.011749853380024433,0.01570918969810009,-4.9669508934021,0.0025131200613428533,0.7404385759828019,0.0023728241212666035,-0.0002962997241411358,-0.0036018574610352516,0.0,0.0,-10.0,0.0,0.0008172988891601562,0.0008172988891601562,0.003360748291015625,0
1.8894174098968506,0.011718787252902985,0.01585700549185276,-5.013640403747559,0.002379206723087177,0.7330543199575884,0.002531810663640499,-0.0003181178180966526,-0.003413502825424075,0.0,0.0,-10.0,0.0,0.0008327960968017578,0.0008327960968017578,0.0035474300384521484,0
1.8994648456573486,0.011651444248855114,0.01612785831093788,-5.1070170402526855,0.00211287233185888,0.7249196930610882,0.002773888874799013,-0.0003970758116338402,-0.003181779058650136,0.0,0.0,-10.0,0.0,0.0007023811340332031,0.0007023811340332031,0.003330230712890625,0
1.9093873500823975,0.01161484606564045,0.016250714659690857,-5.153807640075684,0.002006564309875175,0.7172805515855617,0.0029850327409803867,-0.0004974511684849858,-0.002979706972837448,0.0,0.0,-10.0,0.0,0.0007736682891845703,0.0007736682891845703,0.0034432411193847656,0
1.919715166091919,0.011575513519346714,0.01636745035648346,-5.200568199157715,0.0018944616295558806,0.710060260104148,0.0030549715738743544,-0.0006981235346756876,-0.00279621803201735,0.0,0.0,-10.0,0.0,0.0010399818420410156,0.0010399818420410156,0.0038912296295166016,0
1.9294159412384033,0.011532241478562355,0.01647956669330597,-5.247288227081299,0.0017943541136947606,0.7032009788963158,0.002965284511446953,-0.0010027548996731639,-0.002630235394462943,0.0,0.0,-10.0,0.0,0.0007722377777099609,0.0007722377777099609,0.0035572052001953125,0
1.939514398574829,0.0114403385668993,0.016688663512468338,-5.3405656814575195,0.0015985550557791922,0.6956479670683511,0.002838792046532035,-0.0012719815131276846,-0.0024406230077147484,0.0,0.0,-10.0,0.0,0.0008761882781982422,0.0008761882781982422,0.0034668445587158203,0
1.9493498802185059,0.011392058804631233,0.016783375293016434,-5.387106418609619,0.001524954555651996,0.6885658659871096,0.002661720849573612,-0.0014885065611451864,-0.002280294196680188,0.0,0.0,-10.0,0.0,0.0006995201110839844,0.0006995201110839844,0.003708362579345703,0
1.959505558013916,0.011341576464474201,0.016873445361852646,-5.4335713386535645,0.001452400617860169,0.6818768285350322,0.0024747420102357864,-0.0017412954475730658,-0.0021408561151474714,0.0,0.0,-10.0,0.0,0.0007307529449462891,0.0007307529449462891,0.0032355785369873047,0
1.9695203304290771,0.011235116980969906,0.01703779399394989,-5.526244640350342,0.001313513898863826,0.6745725030621731,0.0021972786635160446,-0.0021253530867397785,-0.001991166966035962,0.0,0.0,-10.0,0.0,0.0008924007415771484,0.0008924007415771484,0.003742218017578125,0
1.9793651103973389,0.011180302128195763,0.0171138197183609,-5.57253885269165,0.0012123642798040736,0.6677480055330656,0.0019156784983351827,-0.0023856423795223236,-0.0018484535394236445,0.0,0.0,-10.0,0.0,0.0006601810455322266,0.0006601810455322266,0.003322124481201172,0
1.9893887042999268,0.011126594617962837,0.01718510314822197,-5.618723392486572,0.0011486215400624725,0.6613212610324237,0.0016705262241885066,-0.002489838982000947,-0.0017246506176888943,0.0,0.0,-10.0,0.0,0.0008034706115722656,0.0008034706115722656,0.0036957263946533203,0
1.9995744228363037,0.011074037291109562,0.01725163497030735,-5.664791584014893,0.001105059867684028,0.655237876433644,0.0014368802076205611,-0.0025474552530795336,-0.0016216528601944447,0.0,0.0,-10.0,0.0,0.0009453296661376953,0.0009453296661376953,0.0038886070251464844,0
2.009406805038452,0.011022183112800121,0.01731407456099987,-5.710734844207764,0.0010593681041179933,0.6494512158906676,0.0011522535933181643,-0.0025746773462742567,-0.0015324200503528118,0.0,0.0,-10.0,0.0,0.0008263587951660156,0.0008263587951660156,0.00377655029296875,0
2.0196480751037598,0.010921130888164043,0.017426451668143272,-5.80221700668335,0.0009690101351085587,0.6430722542256574,0.0008812407031655312,-0.0024094427935779095,-0.0014360728673636913,0.0,0.0,-10.0,0.0,0.0008828639984130859,0.0008828639984130859,0.0038115978240966797,0
2.029369354248047,0.01087251678109169,0.017476709559559822,-5.847742080688477,0.0009217994849264508,0.6371004002169581,0.0005121592548675835,-0.0022342526353895664,-0.0013509258860722184,0.0,0.0,-10.0,0.0,0.0006911754608154297,0.0006911754608154297,0.003760814666748047,0
2.039508581161499,0.010824036784470081,0.017523815855383873,-5.893215656280518,0.0008737436039769278,0.6314700096381259,0.00014503311831504107,-0.002149818232282996,-0.0012733020121231675,0.0,0.0,-10.0,0.0,0.0007898807525634766,0.0007898807525634766,0.003492116928100586,0
2.04939341545105,0.010774328373372555,0.017566625028848648,-5.9385271072387695,0.0008572847922675529,0.6261290777127714,-0.00018783309496939182,-0.0021313009783625603,-0.001212793285958469,0.0,0.0,-10.0,0.0,0.0008265972137451172,0.0008265972137451172,0.003859281539916992,0
2.0594482421875,0.010676052421331406,0.017640728503465652,-6.028645992279053,0.0007952693634643163,0.6202631029700189,-0.0005208219517953694,-0.002086340682581067,-0.0011471813777461648,0.0,0.0,-10.0,0.0,0.0006601810455322266,0.0006601810455322266,0.003291606903076172,0
2.069406509399414,0.010626164264976978,0.017671747133135796,-6.073440074920654,0.0007569965328554292,0.6147840364403783,-0.0007957310881465673,-0.0020414753817021847,-0.0010869005927816033,0.0,0.0,-10.0,0.0,0.0007805824279785156,0.0007805824279785156,0.0034863948822021484,0
2.0796682834625244,0.010577160865068436,0.01769995503127575,-6.118049144744873,0.0007446008501062563,0.6096355138379139,-0.0011514463694766164,-0.0019692133646458387,-0.0010400557657703757,0.0,0.0,-10.0,0.0,0.0009198188781738281,0.0009198188781738281,0.0038177967071533203,0
2.0894784927368164,0.010479832999408245,0.017745809629559517,-6.206690788269043,0.0006878488741249817,0.6040696654096099,-0.0012644364032894373,-0.0017993792425841093,-0.0009859823621809483,0.0,0.0,-10.0,0.0,0.0006334781646728516,0.0006334781646728516,0.0031702518463134766,0
2.099501371383667,0.010433806106448174,0.01776070147752762,-6.250800132751465,0.0006525162658210745,0.5988969210477323,-0.0012946508359164,-0.0015056539559736848,-0.0009348812163807452,0.0,0.0,-10.0,0.0,0.0007932186126708984,0.0007932186126708984,0.0035157203674316406,0
2.109544515609741,0.010389751754701138,0.017771661281585693,-6.294702529907227,0.0006034776960823631,0.5940561036400444,-0.0013503511436283588,-0.0012001299764961004,-0.0008807209669612348,0.0,0.0,-10.0,0.0,0.0008156299591064453,0.0008156299591064453,0.003749847412109375,0
2.119478940963745,0.010346788913011551,0.01777890883386135,-6.3383941650390625,0.0005822722291815535,0.5895004532268271,-0.0014038420049473643,-0.0008561659487895668,-0.0008348567644134164,0.0,0.0,-10.0,0.0,0.0007419586181640625,0.0007419586181640625,0.0034313201904296875,0
2.1293957233428955,0.010269716382026672,0.01778406649827957,-6.425123691558838,0.0005006672660754135,0.5845729508240886,-0.0014850517036393285,-2.157570270355791e-05,-0.0007721499423496425,0.0,0.0,-10.0,0.0,0.0008800029754638672,0.0008800029754638672,0.0037915706634521484,0
2.139409303665161,0.010236709378659725,0.017781998962163925,-6.46815299987793,0.0004742015990544671,0.5799966222342579,-0.0015456799883395433,0.0007282208534888923,-0.0007183305569924414,0.0,0.0,-10.0,0.0,0.0008482933044433594,0.0008482933044433594,0.003780364990234375,0
2.149420738220215,0.01020459271967411,0.01777655817568302,-6.510953426361084,0.0004430958912507567,0.5757281951716977,-0.0015226945979520679,0.0013328070053830743,-0.0006689923466183245,0.0,0.0,-10.0,0.0,0.0008139610290527344,0.0008139610290527344,0.003675222396850586,0
2.1597373485565186,0.010173944756388664,0.01776747778058052,-6.553519248962402,0.0004156973896381237,0.5717271581527726,-0.0014385230606421828,0.0019190805032849312,-0.0006241811788640916,0.0,0.0,-10.0,0.0,0.0008499622344970703,0.0008499622344970703,0.0036377906799316406,0
2.1693758964538574,0.010117802768945694,0.01773722656071186,-6.638049125671387,0.00040417353237280195,0.5674288819791964,-0.0010632877238094807,0.002556757302954793,-0.000588491908274591,0.0,0.0,-10.0,0.0,0.0006661415100097656,0.0006661415100097656,0.0032510757446289062,0
2.179523468017578,0.010091185569763184,0.017715075984597206,-6.680001735687256,0.00040297014579039863,0.563453394180782,-0.0006299089873209596,0.0030074503738433123,-0.0005630581290461123,0.0,0.0,-10.0,0.0,0.0008687973022460938,0.0008687973022460938,0.0035943984985351562,0
2.189399003982544,0.010064981877803802,0.01768888533115387,-6.721700191497803,0.0003753818350342738,0.5597537893032521,-0.0001616026129340753,0.00339585286565125,-0.0005349089042283595,0.0,0.0,-10.0,0.0,0.0007143020629882812,0.0007143020629882812,0.0037987232208251953,0
2.1994779109954834,0.010040974244475365,0.017659654840826988,-6.763142108917236,0.0003578914112198626,0.5562954508070279,0.00018691923469305038,0.0039034439250826836,-0.0005086454912088811,0.0,0.0,-10.0,0.0,0.0007915496826171875,0.0007915496826171875,0.003871440887451172,0
2.2095377445220947,0.009998495690524578,0.017594868317246437,-6.84523868560791,0.0003565747200668127,0.5526095932868287,0.0005663768970407546,0.004381499253213406,-0.0004897673497907817,0.0,0.0,-10.0,0.0,0.0008258819580078125,0.0008258819580078125,0.003719329833984375,0
2.2194652557373047,0.009978367947041988,0.017558665946125984,-6.885886192321777,0.0003642865649545611,0.5492183280684549,0.0009278477518819273,0.004827091004699469,-0.00047944459947757423,0.0,0.0,-10.0,0.0,0.0006530284881591797,0.0006530284881591797,0.0033092498779296875,0
2.2294352054595947,0.009960336610674858,0.01751897856593132,-6.926416873931885,0.0003529256784559178,0.5460725336601147,0.0014108825707808137,0.0053414772264659405,-0.0004679583653341979,0.0,0.0,-10.0,0.0,0.0008244514465332031,0.0008244514465332031,0.003717660903930664,0
2.2397725582122803,0.009944525547325611,0.0174759179353714,-6.966670513153076,0.00035936043153688633,0.5431418486617086,0.001827119616791606,0.005797392688691616,-0.0004623310233000666,0.0,0.0,-10.0,0.0,0.0009677410125732422,0.0009677410125732422,0.004106044769287109,0
2.2494895458221436,0.00991322472691536,0.017385482788085938,-7.046335697174072,0.0003709997268176943,0.5400390368954069,0.002113632159307599,0.006024585105478764,-0.0004627566086128354,0.0,0.0,-10.0,0.0,0.0005772113800048828,0.0005772113800048828,0.003167390823364258,0
2.259511709213257,0.009897788055241108,0.01733764261007309,-7.085740089416504,0.00038506245741841286,0.5372064275021086,0.002409971784800291,0.006210251245647669,-0.0004683280421886593,0.0,0.0,-10.0,0.0,0.0008382797241210938,0.0008382797241210938,0.003392457962036133,0
2.269598960876465,0.009883461520075798,0.017287496477365494,-7.124853610992432,0.00039818158437592005,0.5346064725481453,0.0026434611063450575,0.0063708568923175335,-0.0004771477251779288,0.0,0.0,-10.0,0.0,0.0007030963897705078,0.0007030963897705078,0.0034186840057373047,0
2.279440402984619,0.009938597679138184,0.017336823046207428,-7.165060043334961,0.00039329959611439624,0.5321369511427092,0.0026999139226973057,0.006456857547163963,-0.00048149077338166535,0.0,0.0,-10.0,0.0,0.0008440017700195312,0.0008440017700195312,0.0035572052001953125,0
2.289429187774658,0.010046438314020634,0.01742527075111866,-7.244602203369141,0.00037312415243419695,0.5294327307187005,0.0025420256424695253,0.006794017739593983,-0.0004769650986418128,0.0,0.0,-10.0,0.0,0.0008058547973632812,0.0008058547973632812,0.003569364547729492,0
2.2994771003723145,0.010099194943904877,0.017463073134422302,-7.283933162689209,0.00037271071836491665,0.5269295215572481,0.0025279687251895666,0.0070747509598731995,-0.00047364208148792386,0.0,0.0,-10.0,0.0,0.0006308555603027344,0.0006308555603027344,0.0033371448516845703,0
2.309556722640991,0.01015074085444212,0.01749543286859989,-7.32293701171875,0.0003677150051073921,0.5246069764259762,0.0025788438506424427,0.007309541571885347,-0.00046944257337599993,0.0,0.0,-10.0,0.0,0.0007750988006591797,0.0007750988006591797,0.003523111343383789,0
2.3197691440582275,0.010202652774751186,0.01752380095422268,-7.3616132736206055,0.0003456704487354137,0.5224379236116643,0.00251007080078125,0.007705841679126024,-0.000458236230770126,0.0,0.0,-10.0,0.0,0.0008718967437744141,0.0008718967437744141,0.003728151321411133,0
2.3294930458068848,0.01030972134321928,0.01757185161113739,-7.437983512878418,0.00030998591949338614,0.5201438845139086,0.0022793193347752094,0.008259152993559837,-0.0004370100796222687,0.0,0.0,-10.0,0.0,0.0006165504455566406,0.0006165504455566406,0.003218412399291992,0
2.339578866958618,0.010363333858549595,0.017591899260878563,-7.475674629211426,0.0003058066053728629,0.5180568339562309,0.0019898286554962397,0.008836841210722923,-0.0004205845471005887,0.0,0.0,-10.0,0.0,0.0008172988891601562,0.0008172988891601562,0.0035076141357421875,0
2.349461078643799,0.010417967103421688,0.017609015107154846,-7.513034343719482,0.0003184338492844509,0.5161484196198186,0.0017543515423312783,0.009396592155098915,-0.0004138218646403402,0.0,0.0,-10.0,0.0,0.0007071495056152344,0.0007071495056152344,0.0036666393280029297,0
2.3593673706054688,0.010471890680491924,0.017622290179133415,-7.550063133239746,0.0003340100924195368,0.5144038523235348,0.0015959489392116666,0.009738791733980179,-0.0004149290907662362,0.0,0.0,-10.0,0.0,0.0007762908935546875,0.0007762908935546875,0.0034105777740478516,0
2.3694939613342285,0.010525403544306755,0.017631903290748596,-7.586856365203857,0.00035374195261537355,0.5128061989732153,0.0014949868200346828,0.01011456549167633,-0.00042310357093811035,0.0,0.0,-10.0,0.0,0.0009162425994873047,0.0009162425994873047,0.003721952438354492,0
2.3794116973876953,0.010632390156388283,0.017639968544244766,-7.6594319343566895,0.0003797986883994085,0.5111795971725496,0.0013869062531739473,0.010518861934542656,-0.00043859699508175254,0.0,0.0,-10.0,0.0,0.0007178783416748047,0.0007178783416748047,0.003657817840576172,0
2.389451742172241,0.010687213391065598,0.017641039565205574,-7.69521427154541,0.0004042418809547016,0.5097263986822286,0.0011202114401385188,0.011038543656468391,-0.00045860858517698944,0.0,0.0,-10.0,0.0,0.0008814334869384766,0.0008814334869384766,0.0037462711334228516,0
2.3996505737304688,0.010743780061602592,0.01763973943889141,-7.730658531188965,0.000442212485493894,0.5084319754500087,0.0009107415098696947,0.011507282964885235,-0.00048685568617656827,0.0,0.0,-10.0,0.0,0.0009634494781494141,0.0009634494781494141,0.004178047180175781,0
2.4094064235687256,0.010859882459044456,0.017629608511924744,-7.800530433654785,0.00045572593648726917,0.5071759938436302,0.0007620597607456148,0.012165182270109653,-0.0005116962129250169,0.0,0.0,-10.0,0.0,0.0007300376892089844,0.0007300376892089844,0.003524303436279297,0
2.4194750785827637,0.010919785127043724,0.017619621008634567,-7.834959030151367,0.00047363712566216487,0.5060828377787974,0.0008098754333332181,0.012799623422324657,-0.0005358012858778238,0.0,0.0,-10.0,0.0,0.0008747577667236328,0.0008747577667236328,0.0036487579345703125,0
2.4294087886810303,0.01098046638071537,0.01760590635240078,-7.869049549102783,0.0005016797525219235,0.5051366839400832,0.0009241538355126977,0.013271806761622429,-0.000563190842512995,0.0,0.0,-10.0,0.0,0.0011708736419677734,0.0011708736419677734,0.004817962646484375,0
2.4394237995147705,0.011042430065572262,0.01758946292102337,-7.90291690826416,0.0005126076867227597,0.5043178230451258,0.0010294771054759622,0.013788360171020031,-0.0005864614504389465,0.0,0.0,-10.0,0.0,0.0009438991546630859,0.0009438991546630859,0.004724025726318359,0
2.4496474266052246,0.011165971867740154,0.017551101744174957,-7.9696245193481445,0.0005395696826520732,0.503593147326906,0.0008993856026791036,0.013959632255136967,-0.0006128616514615715,0.0,0.0,-10.0,0.0,0.0010251998901367188,0.0010251998901367188,0.0040776729583740234,0
2.4595015048980713,0.011225956492125988,0.01752861961722374,-8.002460479736328,0.0005459426958465908,0.5030162466716795,0.0008646986680105329,0.014017447829246521,-0.0006337316590361297,0.0,0.0,-10.0,0.0,0.0006814002990722656,0.0006814002990722656,0.003339529037475586,0
2.4693963527679443,0.011285506188869476,0.017503749579191208,-8.034950256347656,0.0005508561676805058,0.5025655825302338,0.0007753689424134791,0.01403076108545065,-0.0006501832394860685,0.0,0.0,-10.0,0.0,0.0009486675262451172,0.0009486675262451172,0.004281044006347656,0
2.4798080921173096,0.011345972307026386,0.01747642084956169,-8.067093849182129,0.0005682987541881805,0.5022300224997089,0.0007559032528661191,0.014139535836875439,-0.0006682403036393225,0.0,0.0,-10.0,0.0,0.001026153564453125,0.001026153564453125,0.00401616096496582,0
2.4893410205841064,0.011407289654016495,0.017446964979171753,-8.098892211914062,0.0005778902121850696,0.501987437576566,0.0006440274300985038,0.01426968164741993,-0.0006844770396128297,0.0,0.0,-10.0,0.0,0.0006933212280273438,0.0006933212280273438,0.00330352783203125,0
2.4994125366210938,0.011532716453075409,0.017383426427841187,-8.161460876464844,0.0006553372052900395,0.5018989481216926,0.0006980408797971904,0.014164695516228676,-0.0007248853798955679,0.0,0.0,-10.0,0.0,0.0008556842803955078,0.0008556842803955078,0.003610849380493164,0
2.509429693222046,0.011594033800065517,0.017347607761621475,-8.1923189163208,0.0006839262244596035,0.5019068397601076,0.0009127020603045821,0.013959268108010292,-0.0007638920797035098,0.0,0.0,-10.0,0.0,0.0008060932159423828,0.0008060932159423828,0.003773212432861328,0
2.5194270610809326,0.011656184680759907,0.017308199778199196,-8.222827911376953,0.000713336832598577,0.5019990396587025,0.0012700774241238832,0.013871939852833748,-0.0008022257243283093,0.0,0.0,-10.0,0.0,0.0007309913635253906,0.0007309913635253906,0.003496885299682617,0
2.5294244289398193,0.011781633831560612,0.017221659421920776,-8.282811164855957,0.0007351147086782926,0.5022859837734894,0.001706906477920711,0.01360336784273386,-0.0008372260490432382,0.0,0.0,-10.0,0.0,0.0009794235229492188,0.0009794235229492188,0.004395723342895508,0
2.539499521255493,0.011843313463032246,0.01717448979616165,-8.312283515930176,0.0007358867203161134,0.5026371472536356,0.002053223317489028,0.013194131664931774,-0.0008620157605037093,0.0,0.0,-10.0,0.0,0.0007784366607666016,0.0007784366607666016,0.0035429000854492188,0
2.5494446754455566,0.011904160492122173,0.0171259343624115,-8.341412544250488,0.0007431929544036941,0.5030522624532636,0.0023188218474388123,0.012728758156299591,-0.0008821083465591073,0.0,0.0,-10.0,0.0,0.0008797645568847656,0.0008797645568847656,0.0038559436798095703,0
2.5596721172332764,0.011965475045144558,0.017076341435313225,-8.370196342468262,0.000750795135490133,0.5035382133717797,0.0024937137495726347,0.01230588834732771,-0.0008990240166895092,0.0,0.0,-10.0,0.0,0.0009682178497314453,0.0009682178497314453,0.0037446022033691406,0
2.5693140029907227,0.01202659122645855,0.01702493242919445,-8.398636817932129,0.0007641583103991016,0.504084741571909,0.002707801992073655,0.011834799312055111,-0.0009158761240541935,0.0,0.0,-10.0,0.0,0.0006041526794433594,0.0006041526794433594,0.003205537796020508,0
2.579545021057129,0.012150204740464687,0.01691543683409691,-8.454606056213379,0.0007756970528952643,0.5048582220239715,0.0031371726654469967,0.011387726292014122,-0.0009319997043348849,0.0,0.0,-10.0,0.0,0.0009157657623291016,0.0009157657623291016,0.003885984420776367,0
2.5894362926483154,0.012212781235575676,0.01685602031648159,-8.482132911682129,0.0007930532676520441,0.5056654398263121,0.003680127440020442,0.011010309681296349,-0.0009497947758063674,0.0,0.0,-10.0,0.0,0.0010747909545898438,0.0010747909545898438,0.004703998565673828,0
2.599391460418701,0.012275908142328262,0.01679272949695587,-8.509316444396973,0.0008088534325935877,0.5065030657383357,0.004326807335019112,0.010651770979166031,-0.000968176347669214,0.0,0.0,-10.0,0.0,0.0007388591766357422,0.0007388591766357422,0.003442049026489258,0
