time,x,y,z,yaw,throttle,roll_rate,pitch_rate,yaw_rate,x_ref,y_ref,z_ref,yaw_ref,pred_time,nr_time,ctrl_callback_time,metadata
9.5367431640625e-07,-0.010730386711657047,-0.010947945527732372,0.759178876876831,-0.022912889979096095,0.6935150256235927,0.09429389134980862,-0.45203247705694555,-0.0015945998215231916,0.0,0.0,-0.6,0.0,0.002287626266479492,0.002287626266479492,0.003194093704223633,Sim
0.010270833969116211,-0.010715408250689507,-0.010935778729617596,0.7602967619895935,-0.02292179284382865,0.6958003069047155,0.06154522950652847,-0.3582614463801275,-0.0012343140851158983,0.0,0.0,-0.6,0.0,0.0021533966064453125,0.0021533966064453125,0.0030159950256347656,flat wardi normal
0.02023172378540039,-0.010703585110604763,-0.010920664295554161,0.7614601850509644,-0.022942033903959665,0.6996719760016039,0.039432883542862805,-0.2758181136809048,-0.0009298458692052126,0.0,0.0,-0.6,0.0,0.002108335494995117,0.002108335494995117,0.0030832290649414062,1x Speed
0.03012681007385254,-0.01068568229675293,-0.010886521078646183,0.7639219760894775,-0.022958103090145496,0.7046093189180069,0.0294682611899004,-0.2040506514102063,-0.0006855659019960372,0.0,0.0,-0.6,0.0,0.0022521018981933594,0.0022521018981933594,0.003042459487915039,hover
0.04022812843322754,-0.010681427083909512,-0.010869237594306469,0.7652179598808289,-0.02296461942098743,0.71023125428441,0.023739983101841326,-0.15236962421657607,-0.0005134570711792128,0.0,0.0,-0.6,0.0,0.0018508434295654297,0.0018508434295654297,0.002714395523071289,0
0.04998445510864258,-0.010680207051336765,-0.010851094499230385,0.7665566205978394,-0.022953734702446042,0.7162585572194862,0.011737068688295292,-0.11017744397491339,-0.00035447854969821834,0.0,0.0,-0.6,0.0,0.0026297569274902344,0.0026297569274902344,0.0036268234252929688,0
0.06017875671386719,-0.01068272814154625,-0.010830420069396496,0.7679367065429688,-0.02293833475320364,0.7224902617471773,0.0011529607880851449,-0.07931427171207843,-0.00023553396122471252,0.0,0.0,-0.6,0.0,0.0023009777069091797,0.0023009777069091797,0.0033278465270996094,0
0.07047390937805176,-0.01069815456867218,-0.010784541256725788,0.7706502079963684,-0.022947011783367246,0.728783559992047,0.0007787079805421137,-0.052404784689865196,-0.0001543838095596978,0.0,0.0,-0.6,0.0,0.001964569091796875,0.001964569091796875,0.002877473831176758,0
0.08019185066223145,-0.01070116925984621,-0.010759229771792889,0.7720688581466675,-0.022954197127666522,0.7350405807737871,-0.0015523678214229852,-0.030098121456420615,-8.370404502090176e-05,0.0,0.0,-0.6,0.0,0.0021209716796875,0.0021209716796875,0.0031211376190185547,0
0.09029746055603027,-0.010707140900194645,-0.010732591152191162,0.7735267877578735,-0.022946730293120665,0.7411915965715876,-0.003851882095307254,-0.015410035189058351,-3.566237683349172e-05,0.0,0.0,-0.6,0.0,0.0027403831481933594,0.0027403831481933594,0.0038597583770751953,0
0.10027742385864258,-0.010716328397393227,-0.010705310851335526,0.7750199437141418,-0.022939028337917187,0.7471896273573966,-0.003347793446927555,0.0009058204649773775,1.0110046607277584e-05,0.0,0.0,-0.6,0.0,0.003070354461669922,0.003070354461669922,0.004555940628051758,0
0.11023235321044922,-0.010725335218012333,-0.010677311569452286,0.7765407562255859,-0.02294078822480188,0.753003696981095,-0.00454466368659208,0.0191920863420788,6.447320521150251e-05,0.0,0.0,-0.6,0.0,0.0025250911712646484,0.0025250911712646484,0.0034170150756835938,0
0.12033796310424805,-0.01057337410748005,-0.010720733553171158,0.7751897573471069,-0.022949902898699654,0.7586139341207018,-0.007550076011846159,0.045269903246338734,0.00014366650882145982,0.0,0.0,-0.6,0.0,0.0025870800018310547,0.0025870800018310547,0.0038793087005615234,0
0.13009238243103027,-0.010270973667502403,-0.010795097798109055,0.7727411389350891,-0.023017223130369392,0.7640043881908936,-0.011113976911136938,0.0678157277160848,0.00020686190548358584,0.0,0.0,-0.6,0.0,0.0019526481628417969,0.0019526481628417969,0.0027670860290527344,0
0.1404585838317871,-0.01012455951422453,-0.010828092694282532,0.7715851664543152,-0.023024265110692943,0.7691605655636717,-0.0052709462073155175,0.07117982020537751,0.00020613333226096942,0.0,0.0,-0.6,0.0,0.0026922225952148438,0.0026922225952148438,0.004144191741943359,0
0.15011000633239746,-0.009981897659599781,-0.010858546011149883,0.7704868316650391,-0.02303334896036634,0.7740798420200711,-0.006052434216093311,0.07045103744536539,0.00020380865340882388,0.0,0.0,-0.6,0.0,0.0030176639556884766,0.0030176639556884766,0.0038843154907226562,0
0.1600353717803955,-0.0098467031493783,-0.01088680513203144,0.7694360017776489,-0.023046367406562962,0.7787628427936418,0.001299639924038007,0.06580543660818253,0.00018847512734841178,0.0,0.0,-0.6,0.0,0.0021200180053710938,0.0021200180053710938,0.002912759780883789,0
0.17029738426208496,-0.009594526141881943,-0.010938810184597969,0.7674382925033569,-0.02304191923873278,0.7832125614381171,-0.002685905342160371,0.06203374774756151,0.00017676869457484826,0.0,0.0,-0.6,0.0,0.002733945846557617,0.002733945846557617,0.003813028335571289,0
0.18080496788024902,-0.009477559477090836,-0.010958533734083176,0.7664705514907837,-0.023045006310108727,0.7874228581403526,-0.00820597651213796,0.05630667815818017,0.00015349941911498857,0.0,0.0,-0.6,0.0,0.0024781227111816406,0.0024781227111816406,0.0038955211639404297,0
0.19023752212524414,-0.009258364327251911,-0.010989070869982243,0.7645543217658997,-0.023059084673071575,0.7914017288945798,-0.005594140409448827,0.05860358933688601,0.00015958597996650737,0.0,0.0,-0.6,0.0,0.002604246139526367,0.002604246139526367,0.003574848175048828,0
0.2002255916595459,-0.009153964929282665,-0.01100140530616045,0.763583242893219,-0.023074495919414587,0.7951439381038945,-0.0028615204384773193,0.05570312289488923,0.00015389349448095827,0.0,0.0,-0.6,0.0,0.0019652843475341797,0.0019652843475341797,0.003017902374267578,0
0.21027421951293945,-0.00905359722673893,-0.011011157184839249,0.7625372409820557,-0.023072588112860545,0.7986596443561608,-0.008293838938507226,0.05215032042976566,0.00013396891984536073,0.0,0.0,-0.6,0.0,0.002793550491333008,0.002793550491333008,0.003883838653564453,0
0.22062897682189941,-0.00895700417459011,-0.01101747341454029,0.7614620923995972,-0.023077859394257254,0.8019580329541255,-0.006795531300607338,0.048768665282052835,0.00012588487088190036,0.0,0.0,-0.6,0.0,0.003009796142578125,0.003009796142578125,0.004378795623779297,0
0.23038363456726074,-0.008784380741417408,-0.011026766151189804,0.7591975331306458,-0.023082626819174334,0.805047733191545,0.00019042674138622647,0.04916968447312395,0.0001371501889706242,0.0,0.0,-0.6,0.0,0.0028367042541503906,0.0028367042541503906,0.00398707389831543,0
0.240309476852417,-0.008702276274561882,-0.01103114802390337,0.7579939961433411,-0.023083369802413854,0.8079204124369568,0.004219082853561865,0.04815256151189949,0.00013821742796084308,0.0,0.0,-0.6,0.0,0.0023047924041748047,0.0023047924041748047,0.003380298614501953,0
0.25029587745666504,-0.008621979504823685,-0.011034312658011913,0.7567325830459595,-0.023095814298272878,0.8105880437405838,0.0029679555216175807,0.046247267717926324,0.00012991126398705544,0.0,0.0,-0.6,0.0,0.0027320384979248047,0.0027320384979248047,0.0036859512329101562,0
0.26038479804992676,-0.0085444962605834,-0.011035474017262459,0.755405843257904,-0.02309753509626983,0.8130609466650188,-0.0021180980455889403,0.04131149450684984,0.00011173696477776285,0.0,0.0,-0.6,0.0,0.0026810169219970703,0.0026810169219970703,0.004217386245727539,0
0.27132201194763184,-0.00847075879573822,-0.011033708229660988,0.7540071606636047,-0.023100240067561475,0.8153481186935609,-0.003300546759130914,0.03625672576336352,9.66103771046044e-05,0.0,0.0,-0.6,0.0,0.007608890533447266,0.007608890533447266,0.010178565979003906,0
0.2825284004211426,-0.00847075879573822,-0.011033708229660988,0.7540071606636047,-0.023100240067561475,0.8174576697726007,-0.00338990317492493,0.03126297968970893,8.27141337736216e-05,0.0,0.0,-0.6,0.0,0.006407976150512695,0.006407976150512695,0.008215904235839844,0
0.2935028076171875,-0.008270240388810635,-0.011013110168278217,0.7491999268531799,-0.023109621053224682,0.8194167087330247,-0.012999959717186269,0.02592553955681428,6.630233610479528e-05,0.0,0.0,-0.6,0.0,0.0059778690338134766,0.0059778690338134766,0.008128166198730469,0
0.30313730239868164,-0.008270240388810635,-0.011013110168278217,0.7491999268531799,-0.023109621053224682,0.8211854718444672,-0.010054877296755173,0.0227141743548086,5.8026419918731246e-05,0.0,0.0,-0.6,0.0,0.0054743289947509766,0.0054743289947509766,0.007292032241821289,0
0.31322646141052246,-0.008109272457659245,-0.010968416929244995,0.743510365486145,-0.02310998261799855,0.8227988597312093,-0.011002199368849509,0.019360887072651975,5.5275814570042875e-05,0.0,0.0,-0.6,0.0,0.007073402404785156,0.007073402404785156,0.0097808837890625,0
0.3240845203399658,-0.008109272457659245,-0.010968416929244995,0.743510365486145,-0.02310998261799855,0.8242183654290257,-0.008397896603424134,0.017233055315059184,4.852796505298984e-05,0.0,0.0,-0.6,0.0,0.0051953792572021484,0.0051953792572021484,0.007046937942504883,0
0.3325154781341553,-0.008017287589609623,-0.010928472504019737,0.7392029762268066,-0.02312911710173178,0.8254840469586787,-0.011324247850327327,0.015813098527995215,4.940704135338429e-05,0.0,0.0,-0.6,0.0,0.0032198429107666016,0.0032198429107666016,0.004380464553833008,0
0.3401787281036377,-0.00797627680003643,-0.010905131697654724,0.7368825674057007,-0.02315024920962485,0.8265803350292634,-0.01171007751761617,0.013190575492238316,4.435048542618027e-05,0.0,0.0,-0.6,0.0,0.0028765201568603516,0.0028765201568603516,0.003902912139892578,0
0.3503439426422119,-0.00790327787399292,-0.010851480066776276,0.7318468689918518,-0.02314749448166346,0.8275205251744215,-0.010673825023143879,0.012838009508464783,4.493402637514608e-05,0.0,0.0,-0.6,0.0,0.0031938552856445312,0.0031938552856445312,0.004500389099121094,0
0.36058783531188965,-0.007869554683566093,-0.010822944343090057,0.7291257381439209,-0.02315342547347884,0.8282915835760589,-0.004982997162244618,0.013379387325847442,4.086195998295181e-05,0.0,0.0,-0.6,0.0,0.003245115280151367,0.003245115280151367,0.004697322845458984,0
0.3706216812133789,-0.007845786400139332,-0.010795027017593384,0.7262816429138184,-0.023163548284913713,0.8289093662858228,-0.0025818125015992185,0.010005441680355153,2.926335205601367e-05,0.0,0.0,-0.6,0.0,0.00585174560546875,0.00585174560546875,0.008269786834716797,0
0.38123559951782227,-0.007825504057109356,-0.010764781385660172,0.7233127355575562,-0.023159577963693848,0.8293865490226788,-0.005317914459456266,0.005890410569700893,2.2156965725104986e-05,0.0,0.0,-0.6,0.0,0.003368854522705078,0.003368854522705078,0.004643678665161133,0
0.39061856269836426,-0.007797447964549065,-0.010699758306145668,0.7169859409332275,-0.023162135806065638,0.8297335381102932,-0.006745333080422317,-0.0003750028210454864,8.09565493076665e-06,0.0,0.0,-0.6,0.0,0.00308990478515625,0.00308990478515625,0.0045130252838134766,0
0.400238037109375,-0.0077885729260742664,-0.010663872584700584,0.7136242389678955,-0.023175988535217875,0.8299329547848984,-0.00679423200991073,-0.0023385154145864487,3.4585959980558312e-06,0.0,0.0,-0.6,0.0,0.0032596588134765625,0.0032596588134765625,0.004489898681640625,0
0.4102942943572998,-0.007782326079905033,-0.01062631793320179,0.7101272940635681,-0.023201425958414512,0.8299993248801378,-0.0071939269214795,-0.001506359991772906,6.052803328582008e-06,0.0,0.0,-0.6,0.0,0.003184795379638672,0.003184795379638672,0.0049779415130615234,0
0.42023801803588867,-0.007778527215123177,-0.010586349293589592,0.7064927220344543,-0.02320225240867151,0.8299441155429919,-0.008386920330313985,-0.0029075815811499496,4.254639300265249e-06,0.0,0.0,-0.6,0.0,0.0034198760986328125,0.0034198760986328125,0.0047414302825927734,0
0.4305276870727539,-0.007780967280268669,-0.010500532574951649,0.6986855864524841,-0.023184343063183177,0.829776569459994,-0.011843106347211304,-0.007735563043989653,-3.010969087070596e-06,0.0,0.0,-0.6,0.0,0.0031244754791259766,0.0031244754791259766,0.004745960235595703,0
0.44103407859802246,-0.007789474446326494,-0.01045344676822424,0.694573700428009,-0.023192252163936392,0.8294773275829305,-0.013521023778955239,-0.006138440350801776,2.023252141653974e-06,0.0,0.0,-0.6,0.0,0.005934238433837891,0.005934238433837891,0.008173942565917969,0
0.45216870307922363,-0.0077992454171180725,-0.010403242893517017,0.6903230547904968,-0.023206730159923677,0.8290607128599127,-0.014097793777910577,-0.004357789209031411,5.42737945103257e-06,0.0,0.0,-0.6,0.0,0.006582498550415039,0.006582498550415039,0.00845193862915039,0
0.46144747734069824,-0.0077992454171180725,-0.010403242893517017,0.6903230547904968,-0.023206730159923677,0.8285381457594684,-0.009215120276273787,-0.002345311905794193,4.642696365314495e-06,0.0,0.0,-0.6,0.0,0.0035114288330078125,0.0035114288330078125,0.004746437072753906,0
0.4702720642089844,-0.007835498079657555,-0.01023933943361044,0.6767297387123108,-0.023177027730962297,0.8279458933033848,-0.01294435066524013,-0.0017781952778031435,5.228633069757333e-06,0.0,0.0,-0.6,0.0,0.0031058788299560547,0.0031058788299560547,0.004465818405151367,0
0.4806804656982422,-0.00785140786319971,-0.010182714089751244,0.6719157099723816,-0.023180327241113626,0.8272284232771576,-0.008793879211203478,-0.00493345088068294,-5.467286862103467e-06,0.0,0.0,-0.6,0.0,0.002747058868408203,0.002747058868408203,0.0038673877716064453,0
0.4901614189147949,-0.007870310917496681,-0.010125074535608292,0.6669590473175049,-0.023173964614062396,0.8264020353612469,-0.006151783860410187,-0.00557455958151305,-9.079624372494097e-06,0.0,0.0,-0.6,0.0,0.003024578094482422,0.003024578094482422,0.004197120666503906,0
0.5001213550567627,-0.00789085403084755,-0.010066899470984936,0.6617795825004578,-0.023174926600556853,0.8254791723763983,-0.0012197268965728652,-0.003379211076539357,-6.561995089972464e-06,0.0,0.0,-0.6,0.0,0.003165006637573242,0.003165006637573242,0.004403829574584961,0
0.5100493431091309,-0.007911933586001396,-0.010009455494582653,0.6564612984657288,-0.02316727039469271,0.8244698604475502,0.0033346845010798856,-0.0009032553907634273,-1.8940347071013458e-06,0.0,0.0,-0.6,0.0,0.0029714107513427734,0.0029714107513427734,0.004027128219604492,0
0.520411491394043,-0.007504466455429792,-0.010074419900774956,0.6411173939704895,-0.023198580161904517,0.8233820135799605,0.014538281091021042,0.009660790073424365,2.3660878486677822e-05,0.0,0.0,-0.6,0.0,0.0023641586303710938,0.0023641586303710938,0.003498077392578125,0
0.5298960208892822,-0.007310137618333101,-0.010104652494192123,0.6333215832710266,-0.023204540617696178,0.8221881258600141,0.015197780716724915,0.010798102169536684,2.843816248769236e-05,0.0,0.0,-0.6,0.0,0.0021543502807617188,0.0021543502807617188,0.002931833267211914,0
0.5404810905456543,-0.0071235280483961105,-0.010132020339369774,0.625442624092102,-0.023207139262982533,0.8209007598149833,0.010439384430152545,0.009770159167769504,2.5583463479633066e-05,0.0,0.0,-0.6,0.0,0.0030395984649658203,0.0030395984649658203,0.004288911819458008,0
0.5500369071960449,-0.006944327149540186,-0.010155714116990566,0.6174800395965576,-0.02320423537160874,0.8195299850002605,0.009655157666255153,0.011251731106975665,2.8969498872968295e-05,0.0,0.0,-0.6,0.0,0.0033059120178222656,0.0033059120178222656,0.004359006881713867,0
0.5602090358734131,-0.006603003479540348,-0.010196573100984097,0.6013025641441345,-0.02325007776313249,0.8180839214854919,0.012275192140367246,0.01942117353916472,4.901224833195899e-05,0.0,0.0,-0.6,0.0,0.0023925304412841797,0.0023925304412841797,0.003332853317260742,0
0.5702476501464844,-0.006437934003770351,-0.010213091969490051,0.5930371880531311,-0.02324766117518493,0.8165388535647274,0.0074563571741789085,0.022889057336736768,4.83093539638568e-05,0.0,0.0,-0.6,0.0,0.003292560577392578,0.003292560577392578,0.0045354366302490234,0
0.5800487995147705,-0.006276188418269157,-0.010227042250335217,0.5846878290176392,-0.023277000086821823,0.814909334863473,0.008921546528030119,0.02557279463463224,5.50358494333164e-05,0.0,0.0,-0.6,0.0,0.0027341842651367188,0.0027341842651367188,0.003895282745361328,0
0.5900521278381348,-0.005962503142654896,-0.010252611711621284,0.5677332282066345,-0.023314236603102174,0.8132066314850552,0.017629917820998393,0.03513102459667095,9.160984265760772e-05,0.0,0.0,-0.6,0.0,0.0015518665313720703,0.0015518665313720703,0.0021944046020507812,0
0.6002774238586426,-0.0058101168833673,-0.010263755917549133,0.5591275691986084,-0.023334931809251846,0.811409354189252,0.013395043117041932,0.033106864292706616,8.340307389783585e-05,0.0,0.0,-0.6,0.0,0.0028095245361328125,0.0028095245361328125,0.0037839412689208984,0
0.6099765300750732,-0.00566142238676548,-0.010272295214235783,0.5504373908042908,-0.023354384569987237,0.8095335067848487,0.008511386567219618,0.030630218521410107,7.19665940178591e-05,0.0,0.0,-0.6,0.0,0.0025153160095214844,0.0025153160095214844,0.003401517868041992,0
0.6201033592224121,-0.005516848061233759,-0.010277722962200642,0.5416656732559204,-0.023351333831569666,0.8075918257582636,0.003792100771418488,0.028057562438750787,5.9079562529957506e-05,0.0,0.0,-0.6,0.0,0.0021505355834960938,0.0021505355834960938,0.0032939910888671875,0
0.6305878162384033,-0.005238597746938467,-0.010283350944519043,0.5238776803016663,-0.023351080596972877,0.8055942824814536,0.0070324612456160425,0.02981975642995836,7.579813675137354e-05,0.0,0.0,-0.6,0.0,0.0027146339416503906,0.0027146339416503906,0.003787994384765625,0
0.6401886940002441,-0.0051041231490671635,-0.01028389297425747,0.5147786140441895,-0.02334651158439354,0.803519509529659,0.007866469420349765,0.028744663127296684,7.888462741508762e-05,0.0,0.0,-0.6,0.0,0.0021686553955078125,0.0021686553955078125,0.0032367706298828125,0
0.6498897075653076,-0.0049722823314368725,-0.010283310897648335,0.5056025385856628,-0.023333307570130715,0.8013823706718626,0.008028746649093248,0.026013221561406747,7.671238124354935e-05,0.0,0.0,-0.6,0.0,0.0027599334716796875,0.0027599334716796875,0.003568410873413086,0
0.6604278087615967,-0.004850226920098066,-0.010282804258167744,0.4963510036468506,-0.023324156763647047,0.799194358677868,0.006413231161748243,0.023297567783875563,6.84404279237185e-05,0.0,0.0,-0.6,0.0,0.0027151107788085938,0.0027151107788085938,0.0040972232818603516,0
0.6698648929595947,-0.004730323329567909,-0.010279481299221516,0.4870237708091736,-0.02331502570593047,0.7969642493860495,-9.910275963606208e-05,0.02368649370516597,5.3459972393294585e-05,0.0,0.0,-0.6,0.0,0.002608060836791992,0.002608060836791992,0.003426074981689453,0
0.680086612701416,-0.004610947333276272,-0.01027290802448988,0.4776240587234497,-0.02331644759215655,0.7946989792669756,-0.006177793119609277,0.02584254128181047,4.507608314238249e-05,0.0,0.0,-0.6,0.0,0.0016574859619140625,0.0016574859619140625,0.002424478530883789,0
0.6901764869689941,-0.004373953677713871,-0.010250864550471306,0.45862069725990295,-0.023333575778575824,0.7924043693701799,-0.007516913628147713,0.03152897986997439,6.283085141514106e-05,0.0,0.0,-0.6,0.0,0.0035567283630371094,0.0035567283630371094,0.0045354366302490234,0
0.6999552249908447,-0.004258038010448217,-0.010235956870019436,0.44901809096336365,-0.023342809879734392,0.7900578328077729,-0.009920533705191175,0.027482755693792972,4.920975767314255e-05,0.0,0.0,-0.6,0.0,0.001683950424194336,0.001683950424194336,0.0024957656860351562,0
0.7101397514343262,-0.0040310947224497795,-0.010200669057667255,0.42955052852630615,-0.023322318337932097,0.7876713302520602,-0.007673204710342583,0.032009744418604415,7.360087510162525e-05,0.0,0.0,-0.6,0.0,0.002550840377807617,0.002550840377807617,0.003448009490966797,0
0.7202165126800537,-0.0039186323992908,-0.010179037228226662,0.41969284415245056,-0.02334161223385471,0.7852271100610452,-0.01191959897339184,0.02932819628486936,5.893210820509029e-05,0.0,0.0,-0.6,0.0,0.0026373863220214844,0.0026373863220214844,0.003790616989135742,0
0.7298367023468018,-0.0038082748651504517,-0.010154422372579575,0.40977850556373596,-0.023342668503817,0.7827407071872542,-0.010989705961190754,0.02555591175436624,5.3087645439072836e-05,0.0,0.0,-0.6,0.0,0.0030570030212402344,0.0030570030212402344,0.003957509994506836,0
0.7402589321136475,-0.003699440974742174,-0.010126805864274502,0.39980947971343994,-0.023350730389942734,0.7802239311709684,-0.013982927928741786,0.021775177435106863,3.82960771109727e-05,0.0,0.0,-0.6,0.0,0.0022461414337158203,0.0022461414337158203,0.003400087356567383,0
0.7501471042633057,-0.0034867930226027966,-0.01006346195936203,0.37971335649490356,-0.023369672987369246,0.7776858462636496,-0.016526350150831648,0.02164171963329418,3.7105999071551927e-05,0.0,0.0,-0.6,0.0,0.002888202667236328,0.002888202667236328,0.0037996768951416016,0
0.7601163387298584,-0.003383418545126915,-0.010028532706201077,0.3695879578590393,-0.023372020222000797,0.7751077887366291,-0.012348855865624805,0.017927383772950597,3.474119593170781e-05,0.0,0.0,-0.6,0.0,0.0024805068969726562,0.0024805068969726562,0.0036547183990478516,0
0.7700412273406982,-0.003281429409980774,-0.00999251939356327,0.3594139516353607,-0.02336991797043968,0.7725025685507683,-0.00651331437012026,0.015202761330118343,3.715928222929017e-05,0.0,0.0,-0.6,0.0,0.002418994903564453,0.002418994903564453,0.0032148361206054688,0
0.7805571556091309,-0.0031809103675186634,-0.009955085813999176,0.34919530153274536,-0.02336343026592961,0.7698802794056202,-0.00784523067043482,0.012097815392249174,2.6116243585257574e-05,0.0,0.0,-0.6,0.0,0.0027341842651367188,0.0027341842651367188,0.0037603378295898438,0
0.7899749279022217,-0.003081683302298188,-0.009915130212903023,0.33885592222213745,-0.02336962944460879,0.7672486708418083,-0.008377308953135697,0.010784236865297944,2.199531763804356e-05,0.0,0.0,-0.6,0.0,0.0027310848236083984,0.0027310848236083984,0.0035660266876220703,0
0.8000788688659668,-0.002982549602165818,-0.009873739443719387,0.3284774124622345,-0.023387389307495204,0.7646135437268895,-0.005138725994501151,0.011774110897930429,2.9586838330088394e-05,0.0,0.0,-0.6,0.0,0.0028722286224365234,0.0028722286224365234,0.004069328308105469,0
0.810546875,-0.0027857874520123005,-0.009794430807232857,0.3076137602329254,-0.02340876302126035,0.7619792770561504,0.005155443956571251,0.017779599550598237,5.750725496984434e-05,0.0,0.0,-0.6,0.0,0.0030984878540039062,0.0030984878540039062,0.004120826721191406,0
0.8201930522918701,-0.002686298917979002,-0.009755238890647888,0.29713505506515503,-0.023418951262658208,0.7593262706823021,0.008650275695659878,0.01815136749930427,6.023460423300314e-05,0.0,0.0,-0.6,0.0,0.0021905899047851562,0.0021905899047851562,0.003332853317260742,0
0.8299763202667236,-0.0024894308298826218,-0.009677089750766754,0.27609696984291077,-0.023434376650046464,0.7566648193654611,0.011947234353776495,0.015554567343502489,5.143454878763544e-05,0.0,0.0,-0.6,0.0,0.002321958541870117,0.002321958541870117,0.0031430721282958984,0
0.8404476642608643,-0.0023944717831909657,-0.009638052433729172,0.26554232835769653,-0.023448209006169243,0.7539806346880431,0.012383479135976469,0.008754255526565249,3.155738761232157e-05,0.0,0.0,-0.6,0.0,0.0021772384643554688,0.0021772384643554688,0.003442525863647461,0
0.850679874420166,-0.002302084118127823,-0.009598738513886929,0.25496846437454224,-0.023439577850968528,0.7512865341419553,0.010470859971588455,0.003035255799344418,1.4191683703631803e-05,0.0,0.0,-0.6,0.0,0.0031082630157470703,0.0031082630157470703,0.0050966739654541016,0
0.8604283332824707,-0.002211548388004303,-0.0095586646348238,0.24430294334888458,-0.02342124181028633,0.7485922095598946,0.0074851296211284465,0.00030211961579817504,4.858725704768654e-06,0.0,0.0,-0.6,0.0,0.0025610923767089844,0.0025610923767089844,0.0038003921508789062,0
0.869938850402832,-0.0020357894245535135,-0.00947390217334032,0.2229367345571518,-0.023419308518743475,0.7459049136348802,-0.0009950287872473697,0.0002788068990163757,2.416397397455924e-07,0.0,0.0,-0.6,0.0,0.002652406692504883,0.002652406692504883,0.003648042678833008,0
0.8803420066833496,-0.0019499888876453042,-0.009427744895219803,0.2122412770986557,-0.023429093391718607,0.7432099716885598,-0.007229256808510617,-0.002402002003059239,-8.733120689094677e-06,0.0,0.0,-0.6,0.0,0.0019655227661132812,0.0019655227661132812,0.0033910274505615234,0
0.8899452686309814,-0.001865468337200582,-0.009379925206303596,0.20154230296611786,-0.02342809816735542,0.7405180802829516,-0.004305108540817146,-0.00392101988730035,-1.1099018694730747e-05,0.0,0.0,-0.6,0.0,0.0028176307678222656,0.0028176307678222656,0.0037810802459716797,0
0.9001216888427734,-0.0017816999461501837,-0.009331879206001759,0.19084088504314423,-0.0234248075038809,0.7378371941631162,-0.0015774259801064287,-0.004863971994578753,-1.2490577717042064e-05,0.0,0.0,-0.6,0.0,0.0028502941131591797,0.0028502941131591797,0.004057168960571289,0
0.9100747108459473,-0.0014729738468304276,-0.009299036115407944,0.16723276674747467,-0.02345955338031138,0.7351731401156149,-0.004329727755979478,0.004556224599588648,1.0294205649844555e-05,0.0,0.0,-0.6,0.0,0.0024542808532714844,0.0024542808532714844,0.0033533573150634766,0
0.9204416275024414,-0.0012506478233262897,-0.009311983361840248,0.15438567101955414,-0.02346955303107155,0.7325091768316109,-0.0013474900626428393,0.005125690585218771,1.303616836492504e-05,0.0,0.0,-0.6,0.0,0.002866506576538086,0.002866506576538086,0.004307985305786133,0
0.9299650192260742,-0.0010326855117455125,-0.009323588572442532,0.1415240615606308,-0.023469937165107865,0.7298518545657248,0.003800358706873672,0.004702860463004131,1.394527528494891e-05,0.0,0.0,-0.6,0.0,0.0024764537811279297,0.0024764537811279297,0.003512859344482422,0
0.9402916431427002,-0.0008181023877114058,-0.009332787245512009,0.12872853875160217,-0.02348942625061177,0.7272063979453742,0.0005381256714204837,0.007382696387553988,2.0123508237760142e-05,0.0,0.0,-0.6,0.0,0.0022363662719726562,0.0022363662719726562,0.003354787826538086,0
0.9499752521514893,-0.00039250904228538275,-0.009342815726995468,0.1033390611410141,-0.023539911476623605,0.7245766833124745,-0.00030093650230265874,0.01742126436230399,4.746045259365895e-05,0.0,0.0,-0.6,0.0,0.0029010772705078125,0.0029010772705078125,0.003882884979248047,0
0.9600343704223633,-0.0001846307422965765,-0.00934458989650011,0.09075061231851578,-0.023542187149946714,0.7219472704340071,0.0027935340798988604,0.014915483915595216,4.265601327183707e-05,0.0,0.0,-0.6,0.0,0.002369403839111328,0.002369403839111328,0.0034799575805664062,0
0.969881534576416,1.9977189367637038e-05,-0.009345806203782558,0.07823257148265839,-0.02356347660299484,0.7193270707525388,0.007625009130748072,0.014178913538419196,4.432172303485994e-05,0.0,0.0,-0.6,0.0,0.0026040077209472656,0.0026040077209472656,0.003320455551147461,0
0.9807827472686768,0.0002227954100817442,-0.009346012026071548,0.06578483432531357,-0.023581367679126632,0.7167225400618152,0.00904287705280414,0.015849996525963465,5.0678544595107236e-05,0.0,0.0,-0.6,0.0,0.0024881362915039062,0.0024881362915039062,0.003812074661254883,0
0.9898440837860107,0.000619958620518446,-0.009340670891106129,0.04111139103770256,-0.023614574007828695,0.71413861349734,0.003086346095157505,0.02069072461832717,6.13343459511789e-05,0.0,0.0,-0.6,0.0,0.0025873184204101562,0.0025873184204101562,0.0033583641052246094,0
1.0002262592315674,0.0008156163967214525,-0.00933439563959837,0.02881546877324581,-0.023628786054865993,0.7115631772873964,0.0036709514230388028,0.021200719061997574,6.395636392175193e-05,0.0,0.0,-0.6,0.0,0.0029532909393310547,0.0029532909393310547,0.004125356674194336,0
1.0103132724761963,0.0008156163967214525,-0.00933439563959837,0.02881546877324581,-0.023628786054865993,0.7090047069075419,0.0029382310089466892,0.009299476506853309,2.9329238067589463e-05,0.0,0.0,-0.6,0.0,0.0036199092864990234,0.0036199092864990234,0.004758119583129883,0
1.0200979709625244,0.001203835941851139,-0.00931994803249836,0.004463449120521545,-0.023679903598390145,0.7064849950021963,0.009852019741067145,0.014759733257641872,5.233154546196969e-05,0.0,0.0,-0.6,0.0,0.0028426647186279297,0.0028426647186279297,0.003999233245849609,0
1.030008316040039,0.001582955359481275,-0.00930049829185009,-0.019560083746910095,-0.02369392115752402,0.7039888502352198,0.006518258715510609,0.01654119071701415,5.4441398941420707e-05,0.0,0.0,-0.6,0.0,0.002640247344970703,0.002640247344970703,0.0035445690155029297,0
1.0399415493011475,0.001767822657711804,-0.009288622066378593,-0.03144482150673866,-0.023712914538756406,0.7015076294831407,0.00868009288945415,0.012176516928313287,4.4360006730231175e-05,0.0,0.0,-0.6,0.0,0.0024499893188476562,0.0024499893188476562,0.0033578872680664062,0
1.05006742477417,0.0019503878429532051,-0.009276175871491432,-0.043243639171123505,-0.02370505901505104,0.6990496400222594,0.0049800003521708125,0.008323034771974443,2.9331914603636496e-05,0.0,0.0,-0.6,0.0,0.0029420852661132812,0.0029420852661132812,0.003973960876464844,0
1.0602402687072754,0.0021303531248122454,-0.00926162488758564,-0.054955948144197464,-0.023710875103036277,0.6966211349001281,0.00414899764543425,0.003415489410321578,1.419716210466791e-05,0.0,0.0,-0.6,0.0,0.0019860267639160156,0.0019860267639160156,0.0030612945556640625,0
1.0699865818023682,0.002307381946593523,-0.009246245957911015,-0.06658158451318741,-0.023721885855249623,0.694226540443433,0.0045110681194364755,-0.0006170341180168468,2.568640839813811e-06,0.0,0.0,-0.6,0.0,0.002379894256591797,0.002379894256591797,0.003194093704223633,0
1.0805418491363525,0.002654656069353223,-0.00921043660491705,-0.08971161395311356,-0.023734756548441007,0.691869279703561,-0.005809250399402987,0.0032112396546802105,4.561679806736885e-06,0.0,0.0,-0.6,0.0,0.0020253658294677734,0.0020253658294677734,0.0030939579010009766,0
1.0899055004119873,0.002827456220984459,-0.009188830852508545,-0.1011352688074112,-0.02373650109073815,0.689541019350625,-0.011221432760399707,0.0022751770955042124,-2.2938910371059644e-06,0.0,0.0,-0.6,0.0,0.002118349075317383,0.002118349075317383,0.0028362274169921875,0
1.100074052810669,0.0029990174807608128,-0.00916450098156929,-0.11246219277381897,-0.023755295715081445,0.6872475869982801,-0.013822865090779884,-0.00017413783053886976,-1.1230709542595076e-05,0.0,0.0,-0.6,0.0,0.002805471420288086,0.002805471420288086,0.0038843154907226562,0
1.1101641654968262,0.003336710389703512,-0.009109372273087502,-0.13482271134853363,-0.02377834535525056,0.68499341538264,-0.014459372608236258,0.005756333197354156,8.873150251646805e-06,0.0,0.0,-0.6,0.0,0.0025305747985839844,0.0025305747985839844,0.0034401416778564453,0
1.1206300258636475,0.0035032087471336126,-0.009080221876502037,-0.14585450291633606,-0.023778397251699338,0.682772599062972,-0.0034731892766302324,0.0016462778599490033,3.132897473349178e-06,0.0,0.0,-0.6,0.0,0.004797697067260742,0.004797697067260742,0.007203817367553711,0
1.1298820972442627,0.0036675322335213423,-0.00905126053839922,-0.15678441524505615,-0.023781387345621414,0.680590693324799,-0.001053289350831582,-0.00375670391393813,-1.3405786694882717e-05,0.0,0.0,-0.6,0.0,0.0027265548706054688,0.0027265548706054688,0.0036988258361816406,0
1.1407005786895752,0.0038287334609776735,-0.00902110431343317,-0.1676109880208969,-0.023778862665191892,0.6784518444812365,-0.0013472348006095668,-0.009949042398231783,-3.521561694546767e-05,0.0,0.0,-0.6,0.0,0.005971431732177734,0.005971431732177734,0.007884502410888672,0
1.1501967906951904,0.004141847603023052,-0.00895601511001587,-0.18912388384342194,-0.023808375552417983,0.6763590281102371,-0.0010489323564792311,-0.013514426047554163,-4.833061115915359e-05,0.0,0.0,-0.6,0.0,0.003688812255859375,0.003688812255859375,0.00487971305847168,0
1.1602489948272705,0.004294787533581257,-0.008923711255192757,-0.19971704483032227,-0.023811632545467407,0.6743078402415247,0.0010855504012744132,-0.0189682512439789,-6.640773090378546e-05,0.0,0.0,-0.6,0.0,0.003198385238647461,0.003198385238647461,0.004567146301269531,0
1.1715636253356934,0.004444994498044252,-0.008890598081052303,-0.2102002501487732,-0.023817168391270876,0.6723022271224801,0.0014882472204606739,-0.01993668380198942,-6.926296785516182e-05,0.0,0.0,-0.6,0.0,0.0062410831451416016,0.0062410831451416016,0.008307456970214844,0
1.181485652923584,0.004444994498044252,-0.008890598081052303,-0.2102002501487732,-0.023817168391270876,0.6703448586815078,0.0016133622633494487,-0.02621608169168626,-9.145790265632717e-05,0.0,0.0,-0.6,0.0,0.004492998123168945,0.004492998123168945,0.006390094757080078,0
1.1903936862945557,0.004886964336037636,-0.008785777725279331,-0.24097572267055511,-0.023833563871704988,0.6684427322409158,-0.005209912516601716,-0.010275723789924562,-3.9939067925572656e-05,0.0,0.0,-0.6,0.0,0.002969026565551758,0.002969026565551758,0.004220247268676758,0
1.2001924514770508,0.005031658336520195,-0.008747011423110962,-0.25100502371788025,-0.023842545149836865,0.6665871501420984,-0.006582116170596254,-0.01340923285682469,-5.210150566276399e-05,0.0,0.0,-0.6,0.0,0.002949953079223633,0.002949953079223633,0.004059791564941406,0
1.2103853225708008,0.005175108555704355,-0.008706940338015556,-0.26091888546943665,-0.02385562201180542,0.6647811415913695,-0.005397480175904725,-0.012512878729284,-4.808685697010095e-05,0.0,0.0,-0.6,0.0,0.0035314559936523438,0.0035314559936523438,0.0047681331634521484,0
1.2206206321716309,0.005319134332239628,-0.008666355162858963,-0.2708008885383606,-0.023863172813662854,0.6630265691947532,0.0005306628173114337,-0.006702848100643741,-2.261679924505147e-05,0.0,0.0,-0.6,0.0,0.00583648681640625,0.00583648681640625,0.007473945617675781,0
1.2305238246917725,0.0054640998132526875,-0.00862673670053482,-0.28056102991104126,-0.0238653793654212,0.6613248432746692,0.00845552715454277,-0.004547533650294031,-6.898463547995258e-06,0.0,0.0,-0.6,0.0,0.002290487289428711,0.002290487289428711,0.003203868865966797,0
1.2413010597229004,0.005746802315115929,-0.008550575003027916,-0.29970991611480713,-0.023876455725884482,0.6596772334333403,0.014352380625680202,-0.001319139457338168,1.3989029632524322e-05,0.0,0.0,-0.6,0.0,0.004742145538330078,0.004742145538330078,0.006674766540527344,0
1.2502694129943848,0.005885134916752577,-0.00851230975240469,-0.30909910798072815,-0.023892778521735457,0.6580833971584862,0.010047274640501503,-0.007720746959811697,-1.1785080716245194e-05,0.0,0.0,-0.6,0.0,0.007186174392700195,0.007186174392700195,0.008882284164428711,0
1.260641098022461,0.005885134916752577,-0.00851230975240469,-0.30909910798072815,-0.023892778521735457,0.6565443491529503,0.0075422544951027,-0.0163222329797899,-4.477050039485442e-05,0.0,0.0,-0.6,0.0,0.0037262439727783203,0.0037262439727783203,0.005042314529418945,0
1.2703297138214111,0.006158451549708843,-0.008430911228060722,-0.32750174403190613,-0.023914075691303126,0.6550609705390502,-0.003541937674795966,-0.008935537868836437,-3.614450764302387e-05,0.0,0.0,-0.6,0.0,0.0035521984100341797,0.0035521984100341797,0.00482177734375,0
1.280951976776123,0.006294227205216885,-0.008388248272240162,-0.3365114629268646,-0.023911567236491186,0.6536335457398228,-0.0010862484559323834,-0.013441079661643865,-4.642677196583984e-05,0.0,0.0,-0.6,0.0,0.00357818603515625,0.00357818603515625,0.0048940181732177734,0
1.290212869644165,0.006561405025422573,-0.008303697220981121,-0.3543364405632019,-0.023917670853580954,0.6522624412457169,0.002357462456245067,-0.009632506070729314,-2.6124425505893533e-05,0.0,0.0,-0.6,0.0,0.0026803016662597656,0.0026803016662597656,0.0036745071411132812,0
1.3002803325653076,0.0066938502714037895,-0.008260468021035194,-0.3630526065826416,-0.023921991026048254,0.6509488527438121,0.0009027996546643703,-0.012649765197364016,-3.927485099181432e-05,0.0,0.0,-0.6,0.0,0.003948211669921875,0.003948211669921875,0.005303621292114258,0
1.3100314140319824,0.006903627421706915,-0.008226720616221428,-0.3829165995121002,-0.02395406540774152,0.6496923594540863,-0.007041049210993076,-0.0076587702171626625,-4.488407135907725e-05,0.0,0.0,-0.6,0.0,0.003056049346923828,0.003056049346923828,0.0041697025299072266,0
1.3205385208129883,0.0069830939173698425,-0.008237075060606003,-0.393992155790329,-0.023967611461086325,0.6484905858267812,0.003468697728275302,-0.015214196285590526,-4.280223802522298e-05,0.0,0.0,-0.6,0.0,0.0035734176635742188,0.0035734176635742188,0.0049457550048828125,0
1.330104112625122,0.007061957381665707,-0.008247422985732555,-0.40486350655555725,-0.02396499905036165,0.6473391581705653,0.011425923006687934,-0.019107944092748307,-3.32747195527518e-05,0.0,0.0,-0.6,0.0,0.0022618770599365234,0.0022618770599365234,0.003385782241821289,0
1.3402431011199951,0.007140738889575005,-0.008257700130343437,-0.4155983328819275,-0.02395262875588139,0.6462352598490296,0.016478177790459247,-0.021549431119594592,-2.5644652196482845e-05,0.0,0.0,-0.6,0.0,0.0024836063385009766,0.0024836063385009766,0.003644704818725586,0
1.3504068851470947,0.00730202067643404,-0.008272534236311913,-0.4364579916000366,-0.023956010798828472,0.6451768157566358,0.009613603115211934,-0.009384522111763207,-1.9321915891420163e-06,0.0,0.0,-0.6,0.0,0.003545999526977539,0.003545999526977539,0.004934787750244141,0
1.360300064086914,0.007385957054793835,-0.008277765475213528,-0.446585088968277,-0.023971828290556833,0.6441627174061957,0.013607400920312412,-0.01127781046829678,5.931860809303203e-06,0.0,0.0,-0.6,0.0,0.0050852298736572266,0.0050852298736572266,0.0066721439361572266,0
1.3726744651794434,0.0074702478013932705,-0.008282627910375595,-0.4565127193927765,-0.023957567542841864,0.6431923106544253,0.013850403723307564,-0.01453503867104887,-3.5986805835447484e-06,0.0,0.0,-0.6,0.0,0.004091739654541016,0.004091739654541016,0.006153583526611328,0
1.3813672065734863,0.007560012862086296,-0.008289646357297897,-0.46624240279197693,-0.023950605769834207,0.6422651093720766,0.00822375856366803,-0.017352579176717984,-3.2518887637525205e-05,0.0,0.0,-0.6,0.0,0.006929159164428711,0.006929159164428711,0.009221076965332031,0
1.3923351764678955,0.007560012862086296,-0.008289646357297897,-0.46624240279197693,-0.023950605769834207,0.6413806570053001,0.005416492003801681,-0.02339241619295669,-6.416622595505638e-05,0.0,0.0,-0.6,0.0,0.005999565124511719,0.005999565124511719,0.009113073348999023,0
1.4045050144195557,0.007560012862086296,-0.008289646357297897,-0.46624240279197693,-0.023950605769834207,0.6405363833724201,0.003367090409115377,-0.028140839074241385,-8.841618829428643e-05,0.0,0.0,-0.6,0.0,0.004827022552490234,0.004827022552490234,0.007979631423950195,0
1.4129571914672852,0.0079306960105896,-0.008303405717015266,-0.5032901763916016,-0.02401254827189667,0.6397300223521604,0.0025597051304316358,0.0013555483310268674,1.576571777233503e-05,0.0,0.0,-0.6,0.0,0.007140398025512695,0.007140398025512695,0.008812427520751953,0
1.4232680797576904,0.0079306960105896,-0.008303405717015266,-0.5032901763916016,-0.02401254827189667,0.6389714119149931,0.0011995692314857222,-0.007857512452993137,-2.4250278413494834e-05,0.0,0.0,-0.6,0.0,0.004530429840087891,0.004530429840087891,0.0069501399993896484,0
1.4340529441833496,0.008029592223465443,-0.008301844820380211,-0.5121254324913025,-0.02399677420425498,0.6382551935008424,0.0044060573035539854,-0.003563302120951944,5.582590468450267e-06,0.0,0.0,-0.6,0.0,0.005820751190185547,0.005820751190185547,0.008745431900024414,0
1.4441497325897217,0.008236797526478767,-0.008295919746160507,-0.5292235612869263,-0.02399570165081044,0.6375810253915172,-0.0006970442157394907,0.015079150855973427,5.639674858586797e-05,0.0,0.0,-0.6,0.0,0.005433320999145508,0.005433320999145508,0.006766080856323242,0
1.4533135890960693,0.008236797526478767,-0.008295919746160507,-0.5292235612869263,-0.02399570165081044,0.6369534396500969,-0.0012182399651124282,0.003193495796724722,6.990364628025944e-06,0.0,0.0,-0.6,0.0,0.004333019256591797,0.004333019256591797,0.006895542144775391,0
1.460277795791626,0.008236797526478767,-0.008295919746160507,-0.5292235612869263,-0.02399570165081044,0.6363659881354452,-0.0015485523551484214,-0.006518062841336306,-3.284431632538629e-05,0.0,0.0,-0.6,0.0,0.0068171024322509766,0.0068171024322509766,0.008466482162475586,0
1.4711856842041016,0.008564271032810211,-0.008275693282485008,-0.55345219373703,-0.024029287989903045,0.6358136343398388,0.00289953693387454,0.009373985937812232,5.4032073892643944e-05,0.0,0.0,-0.6,0.0,0.004461765289306641,0.004461765289306641,0.006432771682739258,0
1.480557918548584,0.008677816949784756,-0.00826724711805582,-0.561156153678894,-0.024047177731716034,0.6353095091660118,0.005321080980460014,0.009323970770328384,6.772239804137998e-05,0.0,0.0,-0.6,0.0,0.005010843276977539,0.005010843276977539,0.006837368011474609,0
1.4913601875305176,0.008793291635811329,-0.008258120156824589,-0.5686741471290588,-0.024076793792848074,0.6348519169990824,0.003756181180160804,0.005630846735779361,4.467785443915486e-05,0.0,0.0,-0.6,0.0,0.004838466644287109,0.004838466644287109,0.006615161895751953,0
1.5013823509216309,0.009026565589010715,-0.008235471323132515,-0.5833266377449036,-0.024104475857293167,0.6344396960487683,1.8820125022766624e-05,-0.00021288285936540022,-8.294542089872063e-07,0.0,0.0,-0.6,0.0,0.0041046142578125,0.0041046142578125,0.005505561828613281,0
1.5116562843322754,0.009142898954451084,-0.008222385309636593,-0.5903738737106323,-0.024110097672820505,0.634079493364832,0.0009443478273063417,-0.0028931504947320528,-7.2810857700466075e-06,0.0,0.0,-0.6,0.0,0.004457950592041016,0.004457950592041016,0.007067680358886719,0
1.520404577255249,0.009261587634682655,-0.008208503015339375,-0.5972373485565186,-0.0241367164929048,0.6337684543725247,0.00020516917497384019,0.0005544041751557055,3.7281776074455337e-06,0.0,0.0,-0.6,0.0,0.004645824432373047,0.004645824432373047,0.006332874298095703,0
1.5309431552886963,0.00938374176621437,-0.00819376390427351,-0.6039177775382996,-0.024135500502674302,0.6335043215951489,0.00031756583381834636,0.0025127753396466915,1.3318537954108877e-05,0.0,0.0,-0.6,0.0,0.0036313533782958984,0.0036313533782958984,0.005340099334716797,0
1.5402774810791016,0.009641931392252445,-0.008165499195456505,-0.6167311072349548,-0.02414361255487164,0.6332853932686696,0.0023356168536786785,0.010167019081021517,6.13617172100651e-05,0.0,0.0,-0.6,0.0,0.002773761749267578,0.002773761749267578,0.004041433334350586,0
1.5503671169281006,0.009774421341717243,-0.008150393143296242,-0.6228675842285156,-0.024141264524067355,0.6331199484543715,0.0011414234497553462,0.006806010823736399,3.865916081733804e-05,0.0,0.0,-0.6,0.0,0.002966165542602539,0.002966165542602539,0.004035234451293945,0
1.560516595840454,0.010046031326055527,-0.008116406388580799,-0.6346879005432129,-0.024184681877609467,0.6330042445303667,-0.002681114405373097,0.02071459457842466,7.917297098103118e-05,0.0,0.0,-0.6,0.0,0.0026934146881103516,0.0026934146881103516,0.004018306732177734,0
1.570213794708252,0.010188721120357513,-0.00809833500534296,-0.6403696537017822,-0.024202719818572808,0.6329458250622844,0.002487582713962168,0.02502001946353912,0.00013299495201254735,0.0,0.0,-0.6,0.0,0.0017576217651367188,0.0017576217651367188,0.0025038719177246094,0
1.5812270641326904,0.010336044244468212,-0.008081266656517982,-0.6458738446235657,-0.02423647056814485,0.6329396894135234,0.009679271291390401,0.026197367520283364,0.00018624092248907317,0.0,0.0,-0.6,0.0,0.002797842025756836,0.002797842025756836,0.0038840770721435547,0
1.5903186798095703,0.010487702675163746,-0.008064208552241325,-0.6512006521224976,-0.024237948872199527,0.6329816988804251,0.004316334006395776,0.025670119850589673,0.0001497634116258849,0.0,0.0,-0.6,0.0,0.002635955810546875,0.002635955810546875,0.0038352012634277344,0
1.6004459857940674,0.010799432173371315,-0.008025329560041428,-0.6613243222236633,-0.02425947817678728,0.6330691133855899,-0.002938428133470142,0.03700725001865915,0.00015825690535389945,0.0,0.0,-0.6,0.0,0.002068042755126953,0.002068042755126953,0.0031058788299560547,0
1.610459804534912,0.01096048578619957,-0.00800415314733982,-0.6661260724067688,-0.02427212828611613,0.633211444238973,-0.000661862971000614,0.03670457364638598,0.00017192739366004846,0.0,0.0,-0.6,0.0,0.0030972957611083984,0.0030972957611083984,0.004422664642333984,0
1.6206333637237549,0.011125616729259491,-0.00798294972628355,-0.6707563996315002,-0.024280367962867793,0.6334033508081581,0.0003005414121022346,0.029380445069881026,0.0001433420284482132,0.0,0.0,-0.6,0.0,0.002947568893432617,0.002947568893432617,0.004416704177856445,0
1.630068302154541,0.011292274110019207,-0.007962066680192947,-0.6752177476882935,-0.024301039639871378,0.6336405037090916,0.007977739681703826,0.019718389893907062,0.00014721932398130587,0.0,0.0,-0.6,0.0,0.0025873184204101562,0.0025873184204101562,0.0034589767456054688,0
1.6406762599945068,0.011460764333605766,-0.007941768504679203,-0.6795997023582458,-0.024307406271243677,0.6339194965419565,0.0033784494471128072,0.01367874798607019,8.796910518663109e-05,0.0,0.0,-0.6,0.0,0.003002166748046875,0.003002166748046875,0.0041351318359375,0
1.6502220630645752,0.011805510148406029,-0.00789634883403778,-0.6878570914268494,-0.024297044274893546,0.6342374246264284,-0.007052072638596497,0.0226130285336275,6.547964527301285e-05,0.0,0.0,-0.6,0.0,0.0031337738037109375,0.0031337738037109375,0.004343271255493164,0
1.6601204872131348,0.011983047239482403,-0.007870208472013474,-0.6917337775230408,-0.024308951942141912,0.6346053512935451,-0.01673544581914672,0.01863644391271058,-1.4267867504239648e-05,0.0,0.0,-0.6,0.0,0.001272439956665039,0.001272439956665039,0.001850128173828125,0
1.6704914569854736,0.012163340114057064,-0.007842299528419971,-0.6954441666603088,-0.02431290562375544,0.6350179870502816,-0.01255895682837038,0.013719883707229456,-1.0166586170832375e-05,0.0,0.0,-0.6,0.0,0.0027735233306884766,0.0027735233306884766,0.0038733482360839844,0
1.680246353149414,0.012531786225736141,-0.007784070912748575,-0.7023767232894897,-0.02430599448596337,0.6354712494132849,-0.0059987629922678256,0.018761941176407955,5.762569905034917e-05,0.0,0.0,-0.6,0.0,0.002063274383544922,0.002063274383544922,0.0027875900268554688,0
1.6902179718017578,0.012720956467092037,-0.007753286976367235,-0.7056015729904175,-0.024302663128957395,0.6359751591117581,-0.013834041517781209,0.016592024846805376,2.8641844435226613e-06,0.0,0.0,-0.6,0.0,0.0024695396423339844,0.0024695396423339844,0.0033223628997802734,0
1.6999304294586182,0.012912971898913383,-0.00772099057212472,-0.7086660861968994,-0.024302129199454427,0.6365233529617278,-0.008405418022991768,0.011590399097563157,1.084966882883026e-05,0.0,0.0,-0.6,0.0,0.002231121063232422,0.002231121063232422,0.0032417774200439453,0
1.7105154991149902,0.013107710517942905,-0.007689733989536762,-0.7116547226905823,-0.024305462193398512,0.6371108923294948,0.002833769286608063,0.008909354928681374,6.006125777324734e-05,0.0,0.0,-0.6,0.0,0.002327442169189453,0.002327442169189453,0.0036263465881347656,0
1.7210631370544434,0.01338806189596653,-0.007706633303314447,-0.7206099033355713,-0.024310311806747035,0.6377336808005404,0.0031300431669784635,0.015245521109767837,9.272583269668228e-05,0.0,0.0,-0.6,0.0,0.0027909278869628906,0.0027909278869628906,0.0041501522064208984,0
1.7299270629882812,0.013476748019456863,-0.007751272991299629,-0.7264937162399292,-0.02435410147894985,0.6383966704546761,0.0076665772012318315,0.007023225680268246,7.28439545119889e-05,0.0,0.0,-0.6,0.0,0.002183198928833008,0.002183198928833008,0.0028810501098632812,0
1.7406260967254639,0.013569020666182041,-0.007794778794050217,-0.7321399450302124,-0.024381567036352473,0.6390889914688925,0.014678032989896532,-0.0031050657929051024,5.393229825397992e-05,0.0,0.0,-0.6,0.0,0.00201416015625,0.00201416015625,0.003304004669189453,0
1.7502684593200684,0.013663212768733501,-0.007837032899260521,-0.7375524044036865,-0.02439715383216092,0.639802776834315,0.01675320174121577,-0.012273157484138118,1.601806900782412e-05,0.0,0.0,-0.6,0.0,0.002347230911254883,0.002347230911254883,0.0031800270080566406,0
1.7604825496673584,0.013864738866686821,-0.007916859351098537,-0.7476927042007446,-0.024386982747894238,0.6405325537776093,0.0243455575624796,-0.0050795050531846735,7.926327018316165e-05,0.0,0.0,-0.6,0.0,0.00445556640625,0.00445556640625,0.00590825080871582,0
1.7704477310180664,0.013972103595733643,-0.007955874316394329,-0.7524293065071106,-0.024382660496723593,0.6412837357221033,0.024051930011435133,-0.011798101082432129,4.2841310647612064e-05,0.0,0.0,-0.6,0.0,0.0031342506408691406,0.0031342506408691406,0.0050275325775146484,0
1.780853509902954,0.014083441346883774,-0.007993023842573166,-0.7570140957832336,-0.024384561460215535,0.6420509504088067,0.015296383367381277,-0.013546231812890086,-2.7453076346228404e-06,0.0,0.0,-0.6,0.0,0.003037691116333008,0.003037691116333008,0.004548072814941406,0
1.7901675701141357,0.01419909205287695,-0.008027770556509495,-0.7613832354545593,-0.024379954264079934,0.6428305747101035,0.01097509410663461,-0.013973987103987246,-2.2802194519796737e-05,0.0,0.0,-0.6,0.0,0.0024433135986328125,0.0024433135986328125,0.0032265186309814453,0
1.800647497177124,0.01444497611373663,-0.008092362433671951,-0.7694905996322632,-0.02438092146625237,0.6436197647592442,0.008004227225006228,-0.010047273730476175,-1.728729474423129e-05,0.0,0.0,-0.6,0.0,0.005117893218994141,0.005117893218994141,0.0070343017578125,0
1.8100907802581787,0.0145719638094306,-0.008120122365653515,-0.7732366323471069,-0.02437801667491288,0.6444268072549888,0.00014662520185205666,-0.017995576840166193,-8.389892111368647e-05,0.0,0.0,-0.6,0.0,0.003345489501953125,0.003345489501953125,0.004331350326538086,0
1.8205091953277588,0.014699232764542103,-0.008146373555064201,-0.7767825722694397,-0.024362193789011943,0.6452475994345022,-0.0002458849243734037,-0.018919498675451153,-9.041373841615236e-05,0.0,0.0,-0.6,0.0,0.002839326858520508,0.002839326858520508,0.0041811466217041016,0
1.830414056777954,0.014829965308308601,-0.00817109178751707,-0.7801323533058167,-0.024359546641471573,0.6460790315948077,0.000115655159791942,-0.022154637564172137,-0.00010610510933748885,0.0,0.0,-0.6,0.0,0.002573728561401367,0.002573728561401367,0.003694295883178711,0
1.8406684398651123,0.0151012372225523,-0.008216396905481815,-0.7862548232078552,-0.02436584651080386,0.6469190257171209,0.0038466586899152974,-0.017750072786646847,-7.483740227089997e-05,0.0,0.0,-0.6,0.0,0.0024068355560302734,0.0024068355560302734,0.0036754608154296875,0
1.8502378463745117,0.015241497196257114,-0.008236047811806202,-0.7890816926956177,-0.02435569368559956,0.6477772846978638,-0.003575697336407899,-0.020981999039531612,-0.00011879365429328595,0.0,0.0,-0.6,0.0,0.002857208251953125,0.002857208251953125,0.0038869380950927734,0
1.8610353469848633,0.015529287047684193,-0.008268591947853565,-0.7941904067993164,-0.024362939960765252,0.6486494524467992,-0.0008817086266528295,-0.02257522646648258,-0.00012057203165806248,0.0,0.0,-0.6,0.0,0.0024344921112060547,0.0024344921112060547,0.0033745765686035156,0
1.8704824447631836,0.015529287047684193,-0.008268591947853565,-0.7941904067993164,-0.024362939960765252,0.6495432778283776,-0.002326521167991029,-0.026587734838436582,-0.00014640318328710885,0.0,0.0,-0.6,0.0,0.0027158260345458984,0.0027158260345458984,0.004004240036010742,0
1.8803064823150635,0.015824565663933754,-0.0083006015047431,-0.7985901832580566,-0.024347814202127158,0.6504421108495497,0.013827296677155569,-0.02666945486833678,-8.800174539343667e-05,0.0,0.0,-0.6,0.0,0.0023849010467529297,0.0023849010467529297,0.0033111572265625,0
1.890282154083252,0.015975141897797585,-0.008315061219036579,-0.8005303144454956,-0.024354526286731366,0.6513569113473757,0.0008925366769245707,-0.025687080981493263,-0.00013382388264977796,0.0,0.0,-0.6,0.0,0.002277851104736328,0.002277851104736328,0.003471851348876953,0
1.9006190299987793,0.01628744974732399,-0.008335349150002003,-0.803907036781311,-0.024377636609213327,0.6522839784001434,-0.011287984611955779,-0.01626809654439935,-0.00013540012027604207,0.0,0.0,-0.6,0.0,0.002908945083618164,0.002908945083618164,0.0038003921508789062,0
1.9106957912445068,0.01628744974732399,-0.008335349150002003,-0.803907036781311,-0.024377636609213327,0.6532325036492882,-0.00969690344528173,-0.020448177869503203,-0.00015084968833736765,0.0,0.0,-0.6,0.0,0.002260923385620117,0.002260923385620117,0.004015207290649414,0
1.9202938079833984,0.0166171845048666,-0.008345045149326324,-0.8067384958267212,-0.024433742833542226,0.6541852418805237,-0.010165995533125896,-0.007280976619886162,-8.576477672750538e-05,0.0,0.0,-0.6,0.0,0.002322673797607422,0.002322673797607422,0.003203868865966797,0
1.9303302764892578,0.0166171845048666,-0.008345045149326324,-0.8067384958267212,-0.024433742833542226,0.6551539695537932,-0.008675078811685392,-0.013006744298508954,-0.0001097646556486304,0.0,0.0,-0.6,0.0,0.002150297164916992,0.002150297164916992,0.003263711929321289,0
1.9407925605773926,0.017139414325356483,-0.008347020484507084,-0.8097977042198181,-0.024452218277264796,0.6561227942942442,-0.021509184750911015,0.0005141160425600611,-0.00010556233860912062,0.0,0.0,-0.6,0.0,0.002913236618041992,0.002913236618041992,0.003939390182495117,0
1.9507155418395996,0.017139414325356483,-0.008347020484507084,-0.8097977042198181,-0.024452218277264796,0.6571157335697008,-0.01639485886317115,-0.006223740913625552,-0.00011642313737463366,0.0,0.0,-0.6,0.0,0.002763986587524414,0.002763986587524414,0.004312992095947266,0
1.9603281021118164,0.017505617812275887,-0.008337948471307755,-0.8110795021057129,-0.02447997330974328,0.6581142373299461,-0.011917459829916535,-0.005599050142402111,-9.467351926975992e-05,0.0,0.0,-0.6,0.0,0.0028657913208007812,0.0028657913208007812,0.0036263465881347656,0
1.9704878330230713,0.017505617812275887,-0.008337948471307755,-0.8110795021057129,-0.02447997330974328,0.6591293963496903,-0.00924039677388703,-0.01114305343754315,-0.00011029883468465412,0.0,0.0,-0.6,0.0,0.0015368461608886719,0.0015368461608886719,0.0023500919342041016,0
1.9800605773925781,0.018079524859786034,-0.008320512250065804,-0.8121291995048523,-0.024535254768589136,0.6601445688161721,0.0002536628069834506,0.008350188567273766,4.671136465881916e-05,0.0,0.0,-0.6,0.0,0.002254009246826172,0.002254009246826172,0.0030188560485839844,0
1.9902265071868896,0.018079524859786034,-0.008320512250065804,-0.8121291995048523,-0.024535254768589136,0.6611836580012397,-0.0005377036708458632,0.00044780781734738925,-7.699445319490678e-07,0.0,0.0,-0.6,0.0,0.0020186901092529297,0.0020186901092529297,0.0028541088104248047,0
1.9999489784240723,0.018689794465899467,-0.008295626379549503,-0.8119307160377502,-0.024549423063698568,0.6622276185203329,-0.007466902122742894,0.014567667159516903,2.952270085025843e-05,0.0,0.0,-0.6,0.0,0.0028259754180908203,0.0028259754180908203,0.003625631332397461,0
2.0102124214172363,0.018689794465899467,-0.008295626379549503,-0.8119307160377502,-0.024549423063698568,0.6632990933027939,-0.005937885847764799,0.005635012791927333,-7.917935913553785e-06,0.0,0.0,-0.6,0.0,0.0020020008087158203,0.0020020008087158203,0.0029604434967041016,0
2.020094156265259,0.019117997959256172,-0.008275425992906094,-0.811134397983551,-0.024550855676503218,0.664377598483178,0.009991887381215632,0.023206152427467108,0.00018350293523043456,0.0,0.0,-0.6,0.0,0.0019314289093017578,0.0019314289093017578,0.0026290416717529297,0
2.030672311782837,0.019117997959256172,-0.008275425992906094,-0.811134397983551,-0.024550855676503218,0.6654725565389377,0.006390956974983763,0.012153715513298777,0.0001036040349659432,0.0,0.0,-0.6,0.0,0.0017113685607910156,0.0017113685607910156,0.0032100677490234375,0
2.040144681930542,0.01979697309434414,-0.008244656026363373,-0.8092019557952881,-0.030708222793170037,0.6665664289615599,-0.0022258560558803164,0.02963946138237931,0.00013242757072906528,0.0,0.0,-0.6,0.0,0.0026357173919677734,0.0026357173919677734,0.003470182418823242,0
2.0500855445861816,0.01979697309434414,-0.008244656026363373,-0.8092019557952881,-0.030708222793170037,0.6676825506695332,-0.0023195075709500864,0.017379501685793407,7.074230372874343e-05,0.0,0.0,-0.6,0.0,0.0018634796142578125,0.0018634796142578125,0.0025801658630371094,0
2.060011148452759,0.02026900090277195,-0.008214928209781647,-0.8073715567588806,-0.030711595728606805,0.6688014380970269,-0.00892664614985046,0.02495219348749916,6.0513839495682756e-05,0.0,0.0,-0.6,0.0,0.0026531219482421875,0.0026531219482421875,0.0036988258361816406,0
2.070443630218506,0.02026900090277195,-0.008214928209781647,-0.8073715567588806,-0.030711595728606805,0.669932655146273,-0.006921035114486066,0.013153643619379509,1.6690965520134914e-05,0.0,0.0,-0.6,0.0,0.0021326541900634766,0.0021326541900634766,0.0030264854431152344,0
2.0797548294067383,0.020758744329214096,-0.008180001750588417,-0.805077075958252,-0.030765363917926225,0.6710594320386085,-0.010656756078485171,0.024206046612715398,4.340488541456168e-05,0.0,0.0,-0.6,0.0,0.0024187564849853516,0.0024187564849853516,0.00299072265625,0
2.0902411937713623,0.020758744329214096,-0.008180001750588417,-0.805077075958252,-0.030765363917926225,0.6721934428074593,-0.00794367346593617,0.012255477230030027,4.460606927329565e-06,0.0,0.0,-0.6,0.0,0.0022110939025878906,0.0022110939025878906,0.0031270980834960938,0
2.0999834537506104,0.02151327393949032,-0.008114377968013287,-0.8008093237876892,-0.030773003514262764,0.6733193727161744,-0.011258598037130429,0.03274470514990057,7.886978734843259e-05,0.0,0.0,-0.6,0.0,0.0032372474670410156,0.0032372474670410156,0.0041964054107666016,0
2.1105523109436035,0.02151327393949032,-0.008114377968013287,-0.8008093237876892,-0.030773003514262764,0.6744611049071121,-0.008193427811205576,0.019218093559848607,3.5563270185624096e-05,0.0,0.0,-0.6,0.0,0.0059566497802734375,0.0059566497802734375,0.007717132568359375,0
2.1201391220092773,0.02215883694589138,-0.008131314069032669,-0.8010507822036743,-0.030405341824708852,0.6756007329199103,0.005183625613863579,0.031908653671111176,0.00018442258922901725,0.0,0.0,-0.6,0.0,0.003950834274291992,0.003950834274291992,0.005233287811279297,0
2.1300768852233887,0.02215883694589138,-0.008131314069032669,-0.8010507822036743,-0.030405341824708852,0.6767419834392545,0.0035109435722373516,0.017790998610534414,0.00010692079715933263,0.0,0.0,-0.6,0.0,0.0023453235626220703,0.0023453235626220703,0.0032727718353271484,0
2.139911651611328,0.023354461416602135,-0.008244897238910198,-0.8052942752838135,-0.0297971976659846,0.6778710958657692,0.0029038020357379053,0.05029720455725951,0.00024966886964077474,0.0,0.0,-0.6,0.0,0.0022284984588623047,0.0022284984588623047,0.0030851364135742188,0
2.1502532958984375,0.023354461416602135,-0.008244897238910198,-0.8052942752838135,-0.0297971976659846,0.6789944497495406,0.001767522642211481,0.03195894592705388,0.00015817050088124185,0.0,0.0,-0.6,0.0,0.0024328231811523438,0.0024328231811523438,0.0034923553466796875,0
2.159843921661377,0.02455686405301094,-0.008346468210220337,-0.8079813122749329,-0.029244904876720195,0.6801006566845875,0.020077579089210543,0.059908190836214514,0.00038311949814462095,0.0,0.0,-0.6,0.0,0.0020020008087158203,0.0020020008087158203,0.002765655517578125,0
2.1704204082489014,0.02455686405301094,-0.008346468210220337,-0.8079813122749329,-0.029244904876720195,0.6811995440155935,0.013669731496788622,0.03901108532160103,0.0002528203872062471,0.0,0.0,-0.6,0.0,0.0021898746490478516,0.0021898746490478516,0.0032317638397216797,0
2.180260181427002,0.025360407307744026,-0.008410122245550156,-0.8090316653251648,-0.028877416884242706,0.682280474850705,0.018222475956906223,0.05566438373850831,0.00034201153279543405,0.0,0.0,-0.6,0.0,0.0021016597747802734,0.0021016597747802734,0.0032701492309570312,0
