time,x,y,z,yaw,throttle,roll_rate,pitch_rate,yaw_rate,x_ref,y_ref,z_ref,yaw_ref,pred_time,nr_time,ctrl_callback_time,metadata
9.5367431640625e-07,0.007676194421947002,-0.00850701704621315,0.0028574054595083,-0.0207094807125037,0.7111986116235653,0.00996994785964489,-0.0007336059934459627,0.007765012793242931,0.0,0.0,-0.6,0.0,0.4743947982788086,0.4743947982788086,0.5405607223510742,Sim
0.540910005569458,0.007676194421947002,-0.00850701704621315,0.0028574054595083,-0.0207094807125037,0.7250741254578281,0.016000915318727493,-0.0012064198963344097,0.013204654678702354,0.0,0.0,-0.6,0.0,0.00020551681518554688,0.00020551681518554688,0.0029332637786865234,jax_reg_wardi
0.5497450828552246,0.005946711637079716,-0.013011552393436432,0.005291462875902653,-0.020453062393219538,0.7361457334101513,0.024740150198340416,-0.001669467194005847,0.01692070998251438,0.0,0.0,-0.6,0.0,0.00019812583923339844,0.00019812583923339844,0.0030641555786132812,2x Speed
0.5598211288452148,0.0059420885518193245,-0.013135085813701153,0.005325255449861288,-0.02047187161490028,0.7449025461554724,0.030457383021712303,-0.002043902175500989,0.019531870260834694,0.0,0.0,-0.6,0.0,0.0002608299255371094,0.0002608299255371094,0.0031206607818603516,helix
0.5699927806854248,0.0059420885518193245,-0.013135085813701153,0.005325255449861288,-0.02047187161490028,0.7518437723550018,0.03419972211122513,-0.002295337151736021,0.0213608480989933,0.0,0.0,-0.6,0.0,0.00023436546325683594,0.00023436546325683594,0.0034465789794921875,0
0.5797243118286133,0.005937108304351568,-0.013386919163167477,0.0054655433632433414,-0.020480586560505453,0.7573490756395554,0.03694924712181091,-0.0023856237530708313,0.0226442813873291,0.0,0.0,-0.6,0.0,0.0002391338348388672,0.0002391338348388672,0.0031614303588867188,0
0.5897078514099121,0.00594174163416028,-0.013641449622809887,0.005614226218312979,-0.02049455420925591,0.7617298373040126,0.038910120725631714,-0.0023737947922199965,0.02354731410741806,0.0,0.0,-0.6,0.0,0.00024366378784179688,0.00024366378784179688,0.0033652782440185547,0
0.5998432636260986,0.005947870668023825,-0.013769138604402542,0.005691878031939268,-0.020518515606023836,0.7652203476571734,0.04027555510401726,-0.002293066820129752,0.024187546223402023,0.0,0.0,-0.6,0.0,0.00024127960205078125,0.00024127960205078125,0.0030231475830078125,0
0.6099491119384766,0.005947870668023825,-0.013769138604402542,0.005691878031939268,-0.020518515606023836,0.7680027001686113,0.04120719060301781,-0.0022384184412658215,0.024635659530758858,0.0,0.0,-0.6,0.0,0.00021314620971679688,0.00021314620971679688,0.0033092498779296875,0
0.6199710369110107,0.0059670270420610905,-0.014022823423147202,0.0058308253064751625,-0.020529909205369897,0.7701232312149814,0.04179319739341736,-0.0021074111573398113,0.024952342733740807,0.0,0.0,-0.6,0.0,0.00027632713317871094,0.00027632713317871094,0.003122091293334961,0
0.6297664642333984,0.005992563907057047,-0.014274738729000092,0.00581312645226717,-0.020496196562180494,0.7714926491370998,0.04205579310655594,-0.0018356807995587587,0.02515888400375843,0.0,0.0,-0.6,0.0,0.00020837783813476562,0.00020837783813476562,0.0032320022583007812,0
0.6398928165435791,0.0060065691359341145,-0.014399842359125614,0.005694074090570211,-0.020453631806444057,0.7723786448555466,0.04198358952999115,-0.0014983939472585917,0.02528529241681099,0.0,0.0,-0.6,0.0,0.0003178119659423828,0.0003178119659423828,0.0034401416778564453,0
0.6500363349914551,0.0060065691359341145,-0.014399842359125614,0.005694074090570211,-0.020453631806444057,0.7730868370328349,0.04193338379263878,-0.0012638021726161242,0.02537381276488304,0.0,0.0,-0.6,0.0,0.0002472400665283203,0.0002472400665283203,0.003400087356567383,0
0.6599099636077881,0.006020349450409412,-0.014523611404001713,0.005496031139045954,-0.020392910168649747,0.7734243312960775,0.04155825078487396,-0.0009934132685884833,0.02541138045489788,0.0,0.0,-0.6,0.0,0.0002224445343017578,0.0002224445343017578,0.002905130386352539,0
0.6696906089782715,0.005994946230202913,-0.014484452083706856,0.0040483237244188786,-0.02019002029163128,0.7729122951362295,0.03976485878229141,-0.0002997997507918626,0.025353526696562767,0.0,0.0,-0.6,0.0,0.00020623207092285156,0.00020623207092285156,0.003038167953491211,0
0.6797702312469482,0.005989798344671726,-0.014475823380053043,0.0033805877901613712,-0.02012099421838471,0.7722139215811681,0.03797822818160057,0.00028489623218774796,0.025286192074418068,0.0,0.0,-0.6,0.0,0.00022792816162109375,0.00022792816162109375,0.002897977828979492,0
0.6900181770324707,0.005989798344671726,-0.014475823380053043,0.0033805877901613712,-0.02012099421838471,0.7716548557198543,0.03672128543257713,0.0006961854523979127,0.02523966133594513,0.0,0.0,-0.6,0.0,0.0002391338348388672,0.0002391338348388672,0.003264904022216797,0
0.7000269889831543,0.0059790946543216705,-0.01446397602558136,0.001752978889271617,-0.019927106938689588,0.770625242282809,0.0348803773522377,0.0012541587930172682,0.02513069473206997,0.0,0.0,-0.6,0.0,0.0002529621124267578,0.0002529621124267578,0.003300189971923828,0
0.7096588611602783,0.005974275525659323,-0.014455521479249,-0.00026384173543192446,-0.0197531774514196,0.7692027237647153,0.03255537152290344,0.002092877635732293,0.02498331293463707,0.0,0.0,-0.6,0.0,0.00019025802612304688,0.00019025802612304688,0.002904176712036133,0
0.7197773456573486,0.005973645951598883,-0.01445268839597702,-0.0014168937923386693,-0.019639963523409604,0.7677646570355352,0.0303511805832386,0.0027838926762342453,0.024837391451001167,0.0,0.0,-0.6,0.0,0.00023055076599121094,0.00023055076599121094,0.003084897994995117,0
0.7299790382385254,0.005973645951598883,-0.01445268839597702,-0.0014168937923386693,-0.019639963523409604,0.7666125864537164,0.028792133554816246,0.0032725033815950155,0.02473611943423748,0.0,0.0,-0.6,0.0,0.0002484321594238281,0.0002484321594238281,0.003892660140991211,0
0.7396974563598633,0.0059739877469837666,-0.014450013637542725,-0.002667259192094207,-0.019501083908744814,0.7653849576922399,0.02713109366595745,0.003775874152779579,0.024611717090010643,0.0,0.0,-0.6,0.0,0.00021839141845703125,0.00021839141845703125,0.00290679931640625,0
0.7496201992034912,0.0059811826795339584,-0.0144412312656641,-0.007000546436756849,-0.019061790136193715,0.7634894686676845,0.024165770038962364,0.004656988196074963,0.024354105815291405,0.0,0.0,-0.6,0.0,0.0002269744873046875,0.0002269744873046875,0.0032372474670410156,0
0.7597577571868896,0.005985517520457506,-0.014435550197958946,-0.00863491091877222,-0.01889006162402394,0.7616685122481847,0.021423516795039177,0.005498858168721199,0.02410854585468769,0.0,0.0,-0.6,0.0,0.0002205371856689453,0.0002205371856689453,0.003050565719604492,0
0.7699911594390869,0.005985517520457506,-0.014435550197958946,-0.00863491091877222,-0.01889006162402394,0.7602090588920812,0.01947834901511669,0.006095719523727894,0.02393801510334015,0.0,0.0,-0.6,0.0,0.00023293495178222656,0.00023293495178222656,0.0032837390899658203,0
0.7800250053405762,0.005999192129820585,-0.014419819228351116,-0.012177514843642712,-0.018560210707762443,0.7584454700212472,0.01694449968636036,0.006885819137096405,0.023692280054092407,0.0,0.0,-0.6,0.0,0.00025081634521484375,0.00025081634521484375,0.0035657882690429688,0
0.7897815704345703,0.006020129658281803,-0.014398612082004547,-0.016080360859632492,-0.018225505747519577,0.7564412560123431,0.013915136456489563,0.007953747175633907,0.023391596972942352,0.0,0.0,-0.6,0.0,0.00020503997802734375,0.00020503997802734375,0.003201007843017578,0
0.7998509407043457,0.006035058759152889,-0.014384382404386997,-0.018160196021199226,-0.01806922383843726,0.7545452738152614,0.01121692918241024,0.00893986877053976,0.02312261052429676,0.0,0.0,-0.6,0.0,0.00025844573974609375,0.00025844573974609375,0.0032415390014648438,0
0.8098776340484619,0.006035058759152889,-0.014384382404386997,-0.018160196021199226,-0.01806922383843726,0.7530255711290254,0.009301724843680859,0.009639497846364975,0.02293591946363449,0.0,0.0,-0.6,0.0,0.00025343894958496094,0.00025343894958496094,0.003543853759765625,0
0.8198788166046143,0.006070910021662712,-0.014350416138768196,-0.022563006728887558,-0.01771129877093818,0.751244897194691,0.006744240410625935,0.010431122034788132,0.022671161219477654,0.0,0.0,-0.6,0.0,0.00025081634521484375,0.00025081634521484375,0.003124713897705078,0
0.8297009468078613,0.006120366044342518,-0.014305290766060352,-0.02727223001420498,-0.017362212607507917,0.7492722619984712,0.003940252121537924,0.011350663378834724,0.02235477603971958,0.0,0.0,-0.6,0.0,0.00022721290588378906,0.00022721290588378906,0.0033240318298339844,0
0.8397982120513916,0.006148376502096653,-0.014281045645475388,-0.029736844822764397,-0.017194267132338903,0.7474215671671331,0.0016016826266422868,0.012193912640213966,0.02207089774310589,0.0,0.0,-0.6,0.0,0.0002560615539550781,0.0002560615539550781,0.003574848175048828,0
0.8499374389648438,0.006148376502096653,-0.014281045645475388,-0.029736844822764397,-0.017194267132338903,0.7459381626336526,-5.789338320028037e-05,0.012792041525244713,0.021873412653803825,0.0,0.0,-0.6,0.0,0.00023221969604492188,0.00023221969604492188,0.003113985061645508,0
0.8600289821624756,0.0062163514085114,-0.014230185188353062,-0.03484635800123215,-0.016859743379942862,0.74422908620824,-0.0021201714407652617,0.013738276436924934,0.021608995273709297,0.0,0.0,-0.6,0.0,0.00025963783264160156,0.00025963783264160156,0.0033063888549804688,0
0.8696365356445312,0.006297414191067219,-0.014167149551212788,-0.04019276797771454,-0.016491207104219942,0.7423580370008943,-0.004402872174978256,0.014814076013863087,0.02128664031624794,0.0,0.0,-0.6,0.0,0.00019598007202148438,0.00019598007202148438,0.002850055694580078,0
0.8797330856323242,0.006340613588690758,-0.01413064543157816,-0.04295826330780983,-0.016320753616758103,0.7406140612671192,-0.006571535486727953,0.015656938776373863,0.021000195294618607,0.0,0.0,-0.6,0.0,0.0003027915954589844,0.0003027915954589844,0.003490924835205078,0
0.8900032043457031,0.006340613588690758,-0.01413064543157816,-0.04295826330780983,-0.016320753616758103,0.7392163755551961,-0.00810949970036745,0.01625441201031208,0.02080085501074791,0.0,0.0,-0.6,0.0,0.0002474784851074219,0.0002474784851074219,0.003413677215576172,0
0.8998115062713623,0.006386426743119955,-0.014089180156588554,-0.04578293487429619,-0.016150039854819973,0.7378525377415767,-0.00963139720261097,0.01689339429140091,0.02059854380786419,0.0,0.0,-0.6,0.0,0.0002224445343017578,0.0002224445343017578,0.003040790557861328,0
0.9096634387969971,0.006487664300948381,-0.013999227434396744,-0.0516025684773922,-0.015786449286323227,0.7362897972592993,-0.011333657428622246,0.017592359334230423,0.02032294310629368,0.0,0.0,-0.6,0.0,0.0002434253692626953,0.0002434253692626953,0.003190279006958008,0
0.9197940826416016,0.006599406711757183,-0.013894888572394848,-0.0576322041451931,-0.015443698627759368,0.7345845148934887,-0.013195491395890713,0.018326325342059135,0.020004767924547195,0.0,0.0,-0.6,0.0,0.00021910667419433594,0.00021910667419433594,0.0033354759216308594,0
0.9298851490020752,0.006599406711757183,-0.013894888572394848,-0.0576322041451931,-0.015443698627759368,0.7332178211608295,-0.014515610411763191,0.01884649321436882,0.019782954826951027,0.0,0.0,-0.6,0.0,0.00020933151245117188,0.00020933151245117188,0.0031099319458007812,0
0.9399735927581787,0.006718775723129511,-0.013776005245745182,-0.06383565813302994,-0.015064910816949299,0.7316964214784142,-0.016010897234082222,0.019421542063355446,0.019489016383886337,0.0,0.0,-0.6,0.0,0.0002562999725341797,0.0002562999725341797,0.003316164016723633,0
0.9495968818664551,0.0068503315560519695,-0.013640844263136387,-0.07020706683397293,-0.0146838910444466,0.7300749589645504,-0.017643677070736885,0.02022051066160202,0.019144004210829735,0.0,0.0,-0.6,0.0,0.00020170211791992188,0.00020170211791992188,0.003193378448486328,0
0.9597887992858887,0.006921820342540741,-0.013567989692091942,-0.0734502449631691,-0.014496631899041193,0.7285789039071656,-0.019001590088009834,0.02083907648921013,0.018834691494703293,0.0,0.0,-0.6,0.0,0.000209808349609375,0.000209808349609375,0.0030066967010498047,0
0.9699780941009521,0.006921820342540741,-0.013567989692091942,-0.0734502449631691,-0.014496631899041193,0.7273801650390225,-0.019962990656495094,0.021276844665408134,0.01861875131726265,0.0,0.0,-0.6,0.0,0.000202178955078125,0.000202178955078125,0.0034546852111816406,0
0.9797680377960205,0.006994285620748997,-0.013490911573171616,-0.07672983407974243,-0.014338212935573672,0.7262270798636414,-0.020904667675495148,0.02157539874315262,0.018410759046673775,0.0,0.0,-0.6,0.0,0.0002079010009765625,0.0002079010009765625,0.002988100051879883,0
0.9900436401367188,0.007221654523164034,-0.013242059387266636,-0.08676239848136902,-0.013829451187989037,0.724759510402881,-0.021929293870925903,0.02186068333685398,0.018078522756695747,0.0,0.0,-0.6,0.0,0.00021076202392578125,0.00021076202392578125,0.0031020641326904297,0
0.9997074604034424,0.00730075454339385,-0.013154223561286926,-0.09018189460039139,-0.013655078131106554,0.7234125636641695,-0.022698674350976944,0.022080939263105392,0.017781751230359077,0.0,0.0,-0.6,0.0,0.00022840499877929688,0.00022840499877929688,0.003217935562133789,0
1.00996732711792,0.00730075454339385,-0.013154223561286926,-0.09018189460039139,-0.013655078131106554,0.7223334177813765,-0.023242797702550888,0.02223663032054901,0.017574157565832138,0.0,0.0,-0.6,0.0,0.00021648406982421875,0.00021648406982421875,0.0031545162200927734,0
1.0199577808380127,0.0074613350443542,-0.012972625903785229,-0.09709455072879791,-0.013364243611549614,0.7211343525879306,-0.023714667186141014,0.022223731502890587,0.01732204109430313,0.0,0.0,-0.6,0.0,0.0002503395080566406,0.0002503395080566406,0.003201723098754883,0
1.0296528339385986,0.007627403829246759,-0.012777511030435562,-0.104095958173275,-0.01303642147756894,0.719854064757869,-0.024265168234705925,0.022224873304367065,0.01702602580189705,0.0,0.0,-0.6,0.0,0.0001919269561767578,0.0001919269561767578,0.002915620803833008,0
1.0397672653198242,0.007714408449828625,-0.01267479732632637,-0.10762642323970795,-0.01289406002273681,0.7186703396361688,-0.02471044659614563,0.022286782041192055,0.01676705665886402,0.0,0.0,-0.6,0.0,0.00021576881408691406,0.00021576881408691406,0.003149271011352539,0
1.0499804019927979,0.007714408449828625,-0.01267479732632637,-0.10762642323970795,-0.01289406002273681,0.7177221410723816,-0.02502497471868992,0.022330477833747864,0.01658581756055355,0.0,0.0,-0.6,0.0,0.00021600723266601562,0.00021600723266601562,0.0033075809478759766,0
1.0598220825195312,0.007804036606103182,-0.012568696402013302,-0.11117548495531082,-0.01274391094354341,0.7168098768991472,-0.025274043902754784,0.022361790761351585,0.016403865069150925,0.0,0.0,-0.6,0.0,0.0002338886260986328,0.0002338886260986328,0.003010988235473633,0
1.069730520248413,0.007742798887193203,-0.01219850592315197,-0.12076584994792938,-0.01225301871055543,0.7157015768649709,-0.025326015427708626,0.022083496674895287,0.016094541177153587,0.0,0.0,-0.6,0.0,0.00020837783813476562,0.00020837783813476562,0.002992391586303711,0
1.079786777496338,0.007731560617685318,-0.01207023486495018,-0.1240125223994255,-0.012097460794960374,0.714696377492867,-0.025358129292726517,0.02181677706539631,0.015820687636733055,0.0,0.0,-0.6,0.0,0.0002048015594482422,0.0002048015594482422,0.0032656192779541016,0
1.0900797843933105,0.007731560617685318,-0.01207023486495018,-0.1240125223994255,-0.012097460794960374,0.7138913471711074,-0.025380747392773628,0.02162863127887249,0.015628980472683907,0.0,0.0,-0.6,0.0,0.0003216266632080078,0.0003216266632080078,0.0049800872802734375,0
1.1000454425811768,0.007724875584244728,-0.011940110474824905,-0.1272752732038498,-0.011943999391304338,0.713132061844815,-0.025255214422941208,0.021446939557790756,0.015437380410730839,0.0,0.0,-0.6,0.0,0.00032210350036621094,0.00032210350036621094,0.0037000179290771484,0
1.1096391677856445,0.007712587248533964,-0.011544520035386086,-0.13714349269866943,-0.011565565133704686,0.7122031380756909,-0.024736052379012108,0.020709039643406868,0.015159830451011658,0.0,0.0,-0.6,0.0,0.00019931793212890625,0.00019931793212890625,0.002843141555786133,0
1.1197917461395264,0.0077130296267569065,-0.011411753483116627,-0.14045511186122894,-0.011438287080431424,0.7113541920764321,-0.024165205657482147,0.01997620053589344,0.014916970394551754,0.0,0.0,-0.6,0.0,0.00022459030151367188,0.00022459030151367188,0.003088235855102539,0
1.1299586296081543,0.0077130296267569065,-0.011411753483116627,-0.14045511186122894,-0.011438287080431424,0.7106743720508254,-0.023762909695506096,0.01945989951491356,0.01474718376994133,0.0,0.0,-0.6,0.0,0.0002276897430419922,0.0002276897430419922,0.0034165382385253906,0
1.1398303508758545,0.0077175358310341835,-0.011144831776618958,-0.14710359275341034,-0.011177033917883713,0.7099379220039027,-0.023205429315567017,0.018573621287941933,0.014529002830386162,0.0,0.0,-0.6,0.0,0.00021600723266601562,0.00021600723266601562,0.0029044151306152344,0
1.1497979164123535,0.007726158481091261,-0.010871876031160355,-0.15385280549526215,-0.010898764978672613,0.7091612555603488,-0.0225676242262125,0.017469970509409904,0.014270877465605736,0.0,0.0,-0.6,0.0,0.0002219676971435547,0.0002219676971435547,0.003084897994995117,0
1.15977144241333,0.0077319093979895115,-0.010733859613537788,-0.1572311967611313,-0.010752423320777336,0.7084542349446875,-0.021941009908914566,0.016388477757573128,0.014034375548362732,0.0,0.0,-0.6,0.0,0.0001976490020751953,0.0001976490020751953,0.0030972957611083984,0
1.169938564300537,0.0077319093979895115,-0.010733859613537788,-0.1572311967611313,-0.010752423320777336,0.7078881806908677,-0.021499866619706154,0.015627333894371986,0.013869191519916058,0.0,0.0,-0.6,0.0,0.00022077560424804688,0.00022077560424804688,0.0031311511993408203,0
1.1799309253692627,0.007747583091259003,-0.010457334108650684,-0.1639881134033203,-0.010488955053584067,0.7072736137766426,-0.020755138248205185,0.01443577092140913,0.013651919551193714,0.0,0.0,-0.6,0.0,0.0002703666687011719,0.0002703666687011719,0.003208160400390625,0
1.189603328704834,0.007761252112686634,-0.010179337114095688,-0.170739084482193,-0.010250559381366441,0.7066227820363121,-0.019731780514121056,0.012991610914468765,0.01340754795819521,0.0,0.0,-0.6,0.0,0.0002002716064453125,0.0002002716064453125,0.002889871597290039,0
1.1996643543243408,0.007768603973090649,-0.010042116977274418,-0.17411066591739655,-0.010142814379101044,0.7060304352194152,-0.01867622323334217,0.011710969731211662,0.013194939121603966,0.0,0.0,-0.6,0.0,0.0002238750457763672,0.0002238750457763672,0.003237009048461914,0
1.2099206447601318,0.007768603973090649,-0.010042116977274418,-0.17411066591739655,-0.010142814379101044,0.7055563295015439,-0.017933811992406845,0.01081047486513853,0.01304688211530447,0.0,0.0,-0.6,0.0,0.0002372264862060547,0.0002372264862060547,0.003515958786010742,0
1.2199435234069824,0.00778238708153367,-0.009768796153366566,-0.18085713684558868,-0.009948044364278073,0.7050344713116328,-0.017080051824450493,0.009550675749778748,0.012867932207882404,0.0,0.0,-0.6,0.0,0.0002474784851074219,0.0002474784851074219,0.003561258316040039,0
1.2298617362976074,0.007797729689627886,-0.009493139572441578,-0.18759360909461975,-0.009696211293902164,0.7044869871539252,-0.016145288944244385,0.008284717798233032,0.012646983377635479,0.0,0.0,-0.6,0.0,0.0002830028533935547,0.0002830028533935547,0.003335237503051758,0
1.2397799491882324,0.007807247806340456,-0.009355547837913036,-0.19095008075237274,-0.009584433905277382,0.7039876398303645,-0.015344242565333843,0.007163188420236111,0.01245009247213602,0.0,0.0,-0.6,0.0,0.00020503997802734375,0.00020503997802734375,0.0029332637786865234,0
1.2499468326568604,0.007807247806340456,-0.009355547837913036,-0.19095008075237274,-0.009584433905277382,0.7035879696710249,-0.014781234785914421,0.006375120021402836,0.012312782928347588,0.0,0.0,-0.6,0.0,0.00023245811462402344,0.00023245811462402344,0.0033981800079345703,0
1.2600557804107666,0.00781700573861599,-0.009216965176165104,-0.1942978799343109,-0.0094773009347168,0.7032040914362924,-0.014234524220228195,0.005592911038547754,0.012175841256976128,0.0,0.0,-0.6,0.0,0.000308990478515625,0.000308990478515625,0.003990650177001953,0
1.2696285247802734,0.007843272760510445,-0.008800908923149109,-0.20428605377674103,-0.009118892417612108,0.7027243845181235,-0.01327773742377758,0.0043713790364563465,0.011942632496356964,0.0,0.0,-0.6,0.0,0.00022530555725097656,0.00022530555725097656,0.003009319305419922,0
1.2797632217407227,0.007850749418139458,-0.008663403801620007,-0.20759499073028564,-0.009003765391837656,0.7022814733620615,-0.01243580412119627,0.003307620994746685,0.011735910549759865,0.0,0.0,-0.6,0.0,0.0002472400665283203,0.0002472400665283203,0.003324747085571289,0
1.2900445461273193,0.007850749418139458,-0.008663403801620007,-0.20759499073028564,-0.009003765391837656,0.7019270150705735,-0.01184432115405798,0.00256047653965652,0.011591723188757896,0.0,0.0,-0.6,0.0,0.0003123283386230469,0.0003123283386230469,0.0037910938262939453,0
1.2998056411743164,0.00785897858440876,-0.008526505902409554,-0.2108975350856781,-0.008886382051302598,0.7015921266454656,-0.011244140565395355,0.0019951811991631985,0.011446759104728699,0.0,0.0,-0.6,0.0,0.00022029876708984375,0.00022029876708984375,0.003061056137084961,0
1.3096661567687988,0.007889986969530582,-0.008125481195747852,-0.22072172164916992,-0.008510029294380732,0.701190130368566,-0.010120396502315998,0.0012603835202753544,0.011202657595276833,0.0,0.0,-0.6,0.0,0.0002543926239013672,0.0002543926239013672,0.003294706344604492,0
1.319800853729248,0.007901114411652088,-0.007993971928954124,-0.22396676242351532,-0.00841715436844073,0.7008278919343407,-0.009167594835162163,0.0006045498885214329,0.010996845550835133,0.0,0.0,-0.6,0.0,0.00021982192993164062,0.00021982192993164062,0.0032262802124023438,0
1.3298914432525635,0.007901114411652088,-0.007993971928954124,-0.22396676242351532,-0.00841715436844073,0.7005380222075651,-0.00849868543446064,0.00014423727407120168,0.010853144340217113,0.0,0.0,-0.6,0.0,0.00022077560424804688,0.00022077560424804688,0.003204345703125,0
1.3399755954742432,0.007927659898996353,-0.007733761332929134,-0.2304081916809082,-0.008232121293546005,0.7002283658431511,-0.007665978744626045,-0.0002415292547084391,0.010683026164770126,0.0,0.0,-0.6,0.0,0.00026869773864746094,0.00026869773864746094,0.0033762454986572266,0
1.3496425151824951,0.007959160022437572,-0.007479686755686998,-0.23678797483444214,-0.008012441538378615,0.6998940554848498,-0.006633382756263018,-0.0005658201407641172,0.010481517761945724,0.0,0.0,-0.6,0.0,0.00020813941955566406,0.00020813941955566406,0.0030298233032226562,0
1.3597936630249023,0.007974314503371716,-0.007354469038546085,-0.2399507313966751,-0.007908283801469105,0.699584735972367,-0.00587078183889389,-0.0009355329093523324,0.010301127098500729,0.0,0.0,-0.6,0.0,0.0002269744873046875,0.0002269744873046875,0.003169536590576172,0
1.3699419498443604,0.007974314503371716,-0.007354469038546085,-0.2399507313966751,-0.007908283801469105,0.6993371863613003,-0.005335637833923101,-0.0011949079344049096,0.01017502136528492,0.0,0.0,-0.6,0.0,0.00023674964904785156,0.00023674964904785156,0.0034427642822265625,0
1.379852294921875,0.008004727773368359,-0.007101564202457666,-0.24622784554958344,-0.0077155973147339536,0.6990757551696835,-0.004806062206625938,-0.001398417865857482,0.01001445110887289,0.0,0.0,-0.6,0.0,0.0002231597900390625,0.0002231597900390625,0.0029897689819335938,0
1.3896903991699219,0.00805109553039074,-0.006853414233773947,-0.2524286210536957,-0.007506453914340405,0.6988128300797377,-0.004145446233451366,-0.0015733629697933793,0.009823624044656754,0.0,0.0,-0.6,0.0,0.00022339820861816406,0.00022339820861816406,0.0031495094299316406,0
1.399655818939209,0.00807554367929697,-0.006732820067554712,-0.2554999887943268,-0.007389990336325291,0.6985741590484881,-0.0034526281524449587,-0.0017068873858079314,0.009646478109061718,0.0,0.0,-0.6,0.0,0.0002124309539794922,0.0002124309539794922,0.003398895263671875,0
1.409985065460205,0.00807554367929697,-0.006732820067554712,-0.2554999887943268,-0.007389990336325291,0.6983831708521917,-0.0029667357448488474,-0.0018004828598350286,0.009522532112896442,0.0,0.0,-0.6,0.0,0.00023603439331054688,0.00023603439331054688,0.0034143924713134766,0
1.4198777675628662,0.008123517036437988,-0.006498806178569794,-0.2615838050842285,-0.00718617309400795,0.6981859119277913,-0.0022338624112308025,-0.0019032545387744904,0.009359369985759258,0.0,0.0,-0.6,0.0,0.0002834796905517578,0.0002834796905517578,0.003208160400390625,0
1.429795265197754,0.008172692731022835,-0.006272417493164539,-0.267588347196579,-0.007042245786888612,0.6979819076896419,-0.0013213068014010787,-0.001896045752801001,0.009191567078232765,0.0,0.0,-0.6,0.0,0.0002002716064453125,0.0002002716064453125,0.0032982826232910156,0
1.439814567565918,0.008197372779250145,-0.006163548678159714,-0.270561546087265,-0.006975819276963455,0.6977977892298274,-0.00046307744923979044,-0.0019470204133540392,0.009049160405993462,0.0,0.0,-0.6,0.0,0.00025272369384765625,0.00025272369384765625,0.0030503273010253906,0
1.449918508529663,0.008197372779250145,-0.006163548678159714,-0.270561546087265,-0.006975819276963455,0.6976504560269492,0.0001385576615575701,-0.0019827065989375114,0.008949504233896732,0.0,0.0,-0.6,0.0,0.00023102760314941406,0.00023102760314941406,0.0037353038787841797,0
1.4597370624542236,0.008377667516469955,-0.005732509307563305,-0.2765510678291321,-0.006842377422616428,0.6974903996287353,0.0006997571908868849,-0.0017528252210468054,0.008830214850604534,0.0,0.0,-0.6,0.0,0.00022459030151367188,0.00022459030151367188,0.003130674362182617,0
1.4697480201721191,0.008680797182023525,-0.005100868176668882,-0.2825535833835602,-0.006679324894802612,0.6973247456337975,0.0009135929867625237,-0.0014051798498257995,0.008685681037604809,0.0,0.0,-0.6,0.0,0.0002543926239013672,0.0002543926239013672,0.003278017044067383,0
1.4797158241271973,0.008828423917293549,-0.004793149419128895,-0.2855180501937866,-0.006609170444749337,0.6971745809419666,0.0009290287271142006,-0.0009642810910008848,0.008558429777622223,0.0,0.0,-0.6,0.0,0.00019788742065429688,0.00019788742065429688,0.0029282569885253906,0
1.4900190830230713,0.008828423917293549,-0.004793149419128895,-0.2855180501937866,-0.006609170444749337,0.6970544601844971,0.0009398249094374478,-0.0006552862469106913,0.008469350636005402,0.0,0.0,-0.6,0.0,0.00026869773864746094,0.00026869773864746094,0.0033330917358398438,0
1.5000078678131104,0.009115077555179596,-0.0041939071379601955,-0.2913762032985687,-0.006428876697155918,0.6969226750444487,0.0007053472218103707,-0.00023107750166673213,0.008339702151715755,0.0,0.0,-0.6,0.0,0.0003571510314941406,0.0003571510314941406,0.0034818649291992188,0
1.5096330642700195,0.009391620755195618,-0.0036181043833494186,-0.2971806824207306,-0.006275509890023606,0.696790475909445,0.00046234819456003606,0.00036257089232094586,0.00819206703454256,0.0,0.0,-0.6,0.0,0.00018930435180664062,0.00018930435180664062,0.002863168716430664,0
1.519805908203125,0.009529225528240204,-0.003340763272717595,-0.3000449538230896,-0.006205550051978382,0.6966722585229136,0.00012392099597491324,0.0008133428636938334,0.008062654174864292,0.0,0.0,-0.6,0.0,0.00024175643920898438,0.00024175643920898438,0.0030541419982910156,0
1.5299413204193115,0.009529225528240204,-0.003340763272717595,-0.3000449538230896,-0.006205550051978382,0.6965776798278999,-0.0001132214383687824,0.0011291609844192863,0.007972156628966331,0.0,0.0,-0.6,0.0,0.00022745132446289062,0.00022745132446289062,0.0035393238067626953,0
1.5398049354553223,0.009663249365985394,-0.0030686738900840282,-0.3028835952281952,-0.006142366591754426,0.6964916038477744,-0.00035701782326214015,0.0014181035803630948,0.00788534339517355,0.0,0.0,-0.6,0.0,0.0002231597900390625,0.0002231597900390625,0.0030019283294677734,0
1.5497186183929443,0.010055129416286945,-0.002285340568050742,-0.311244934797287,-0.005980497486353547,0.6963940215119648,-0.0007647239835932851,0.0020803678780794144,0.007765078917145729,0.0,0.0,-0.6,0.0,0.00022101402282714844,0.00022101402282714844,0.0030965805053710938,0
1.5597641468048096,0.010182755999267101,-0.0020353025756776333,-0.3139820992946625,-0.005918791354969482,0.6963016074327617,-0.001080674002878368,0.0027522272430360317,0.007658455520868301,0.0,0.0,-0.6,0.0,0.0002181529998779297,0.0002181529998779297,0.0030274391174316406,0
1.5699965953826904,0.010182755999267101,-0.0020353025756776333,-0.3139820992946625,-0.005918791354969482,0.6962276684466573,-0.0013020278420299292,0.003222860163077712,0.007583946455270052,0.0,0.0,-0.6,0.0,0.00024008750915527344,0.00024008750915527344,0.0032644271850585938,0
1.5800065994262695,0.010439242236316204,-0.001549898530356586,-0.31938380002975464,-0.005754509425613199,0.696149797462764,-0.0015763845294713974,0.00409677205607295,0.0074718487448990345,0.0,0.0,-0.6,0.0,0.00025200843811035156,0.00025200843811035156,0.003317594528198242,0
1.589777946472168,0.01069844514131546,-0.001086372067220509,-0.3246847093105316,-0.005630345892178863,0.6960793380687631,-0.0016858757007867098,0.0051194531843066216,0.007347973994910717,0.0,0.0,-0.6,0.0,0.00019788742065429688,0.00019788742065429688,0.0030951499938964844,0
1.5999364852905273,0.010828723199665546,-0.0008641440072096884,-0.3272968828678131,-0.005575895453555678,0.6960159389107733,-0.0017978831892833114,0.006010345183312893,0.007241442333906889,0.0,0.0,-0.6,0.0,0.00028204917907714844,0.00028204917907714844,0.0039217472076416016,0
1.6100165843963623,0.010828723199665546,-0.0008641440072096884,-0.3272968828678131,-0.005575895453555678,0.695965255209045,-0.0018763638800010085,0.006634277291595936,0.007166930008679628,0.0,0.0,-0.6,0.0,0.0003066062927246094,0.0003066062927246094,0.003807544708251953,0
1.619844675064087,0.01108776405453682,-0.00043443223694339395,-0.3324459195137024,-0.005458119363232424,0.6959190835128908,-0.0019927690736949444,0.007436385843902826,0.007071708794683218,0.0,0.0,-0.6,0.0,0.0002608299255371094,0.0002608299255371094,0.0029840469360351562,0
1.6296346187591553,0.011344918981194496,-2.781907096505165e-05,-0.33749136328697205,-0.005323897152335678,0.6958835891636415,-0.0021379031240940094,0.008285188116133213,0.006955699995160103,0.0,0.0,-0.6,0.0,0.0002193450927734375,0.0002193450927734375,0.003126859664916992,0
1.6397759914398193,0.011472421698272228,0.00016868175589479506,-0.3399747610092163,-0.005239008999029901,0.6958571244262376,-0.002275773324072361,0.00910752359777689,0.006843445356935263,0.0,0.0,-0.6,0.0,0.00022459030151367188,0.00022459030151367188,0.0030641555786132812,0
1.649916410446167,0.011472421698272228,0.00016868175589479506,-0.3399747610092163,-0.005239008999029901,0.6958359598560497,-0.0023723377380520105,0.009683272801339626,0.0067649343982338905,0.0,0.0,-0.6,0.0,0.0002453327178955078,0.0002453327178955078,0.003226757049560547,0
1.6600565910339355,0.011727177537977695,0.0005457348306663334,-0.3448781967163086,-0.005083867783272431,0.6958137344881652,-0.002332511590793729,0.010363697074353695,0.0066522895358502865,0.0,0.0,-0.6,0.0,0.0002465248107910156,0.0002465248107910156,0.0032460689544677734,0
1.6697843074798584,0.0119794812053442,0.0008957535610534251,-0.34968215227127075,-0.004993787752772181,0.695801954006146,-0.002220709342509508,0.01102848444133997,0.0065398081205785275,0.0,0.0,-0.6,0.0,0.00020503997802734375,0.00020503997802734375,0.0031104087829589844,0
1.6798560619354248,0.01210612989962101,0.0010626297444105148,-0.35204488039016724,-0.004916319086650285,0.695796574194687,-0.002054590964689851,0.01168068591505289,0.006432223599404097,0.0,0.0,-0.6,0.0,0.0002410411834716797,0.0002410411834716797,0.0031440258026123047,0
1.6899018287658691,0.01210612989962101,0.0010626297444105148,-0.35204488039016724,-0.004916319086650285,0.6957922546117171,-0.0019383302424103022,0.012137253768742085,0.006356850266456604,0.0,0.0,-0.6,0.0,0.00025582313537597656,0.00025582313537597656,0.003498077392578125,0
1.699796199798584,0.012356484308838844,0.0013793580001220107,-0.35669466853141785,-0.004764152877787742,0.6957951997844671,-0.0017348056426271796,0.012462407350540161,0.006246618926525116,0.0,0.0,-0.6,0.0,0.0003082752227783203,0.0003082752227783203,0.003203868865966797,0
1.7098004817962646,0.012599960900843143,0.0016820464516058564,-0.3612487316131592,-0.004605086494109077,0.6957966920011669,-0.0017610054928809404,0.012731998227536678,0.006110604852437973,0.0,0.0,-0.6,0.0,0.0002276897430419922,0.0002276897430419922,0.0032384395599365234,0
1.7198047637939453,0.012719845399260521,0.0018287672428414226,-0.36348259449005127,-0.0045238221883077915,0.6958072159763318,-0.0017530998447909951,0.012956258840858936,0.005984945688396692,0.0,0.0,-0.6,0.0,0.00024819374084472656,0.00024819374084472656,0.003376483917236328,0
1.7299184799194336,0.012719845399260521,0.0018287672428414226,-0.36348259449005127,-0.0045238221883077915,0.6958156193491053,-0.0017475771019235253,0.013113227672874928,0.005896983202546835,0.0,0.0,-0.6,0.0,0.00022459030151367188,0.00022459030151367188,0.0032341480255126953,0
1.740004539489746,0.01296018436551094,0.0021101911552250385,-0.36787664890289307,-0.004396158807667959,0.6958306588087695,-0.0017379202181473374,0.01323987077921629,0.005787717644125223,0.0,0.0,-0.6,0.0,0.0002598762512207031,0.0002598762512207031,0.003336191177368164,0
1.749791145324707,0.013200932182371616,0.002380731515586376,-0.37217453122138977,-0.004275533335253306,0.6958550433338976,-0.0018677269108593464,0.013335228897631168,0.005666773766279221,0.0,0.0,-0.6,0.0,0.00019669532775878906,0.00019669532775878906,0.0030128955841064453,0
1.7597672939300537,0.013320684432983398,0.0025127222761511803,-0.37428635358810425,-0.0042225362560197694,0.6958866517915726,-0.0020123079884797335,0.01336938701570034,0.005562411621212959,0.0,0.0,-0.6,0.0,0.0002846717834472656,0.0002846717834472656,0.0033147335052490234,0
1.7698628902435303,0.013320684432983398,0.0025127222761511803,-0.37428635358810425,-0.0042225362560197694,0.695911937653909,-0.002113490831106901,0.013393284752964973,0.005489361006766558,0.0,0.0,-0.6,0.0,0.0003559589385986328,0.0003559589385986328,0.004849433898925781,0
1.7798798084259033,0.013555253855884075,0.0027659202460199594,-0.37843501567840576,-0.004082156601468112,0.6959516316962985,-0.00205762661062181,0.013268877752125263,0.005384656134992838,0.0,0.0,-0.6,0.0,0.00031828880310058594,0.00031828880310058594,0.00446772575378418,0
1.789781093597412,0.013784097507596016,0.00300028407946229,-0.38249871134757996,-0.004011775040726979,0.6960009814692442,-0.0019160066731274128,0.013042835518717766,0.005284090992063284,0.0,0.0,-0.6,0.0,0.000301361083984375,0.000301361083984375,0.0036661624908447266,0
1.7997725009918213,0.013895274139940739,0.0031122055370360613,-0.3845016062259674,-0.0039626617017217945,0.6960522517397962,-0.0017606723122298717,0.012816031463444233,0.005194868426769972,0.0,0.0,-0.6,0.0,0.00026488304138183594,0.00026488304138183594,0.0034742355346679688,0
1.8100965023040771,0.013895274139940739,0.0031122055370360613,-0.3845016062259674,-0.0039626617017217945,0.6960932341754954,-0.0016519742785021663,0.012657337822020054,0.005132433492690325,0.0,0.0,-0.6,0.0,0.00034332275390625,0.00034332275390625,0.004363059997558594,0
1.8200185298919678,0.014006520621478558,0.003220868296921253,-0.3864792585372925,-0.003915600933942465,0.6961394350237903,-0.0015020041028037667,0.012535314075648785,0.005070842802524567,0.0,0.0,-0.6,0.0,0.0002868175506591797,0.0002868175506591797,0.003394603729248047,0
1.8296594619750977,0.014338447712361813,0.0035193765070289373,-0.39226579666137695,-0.0037339378582776513,0.6962114590358518,-0.0009830727940425277,0.012213058769702911,0.004957377444952726,0.0,0.0,-0.6,0.0,0.000186920166015625,0.000186920166015625,0.0027768611907958984,0
1.8398511409759521,0.014445716515183449,0.0036098286509513855,-0.3941459357738495,-0.0036867660851291396,0.696286184421154,-0.0004986475687474012,0.011859726160764694,0.004859576001763344,0.0,0.0,-0.6,0.0,0.00022077560424804688,0.00022077560424804688,0.0030586719512939453,0
1.8498728275299072,0.014445716515183449,0.0036098286509513855,-0.3941459357738495,-0.0036867660851291396,0.6963459518324935,-0.00015973679546732455,0.011612556874752045,0.004791217390447855,0.0,0.0,-0.6,0.0,0.00021791458129882812,0.00021791458129882812,0.0031592845916748047,0
1.859839677810669,0.01474945992231369,0.0040670521557331085,-0.39813312888145447,-0.0036017915170109193,0.6964103056841995,8.381481165997684e-06,0.011544948443770409,0.004712225403636694,0.0,0.0,-0.6,0.0,0.00022864341735839844,0.00022864341735839844,0.0030493736267089844,0
1.8697354793548584,0.015138597227633,0.004784127697348595,-0.402361661195755,-0.00350897851899383,0.6964616673136252,-0.00025558588095009327,0.011544198729097843,0.004623837303370237,0.0,0.0,-0.6,0.0,0.00022149085998535156,0.00022149085998535156,0.0030753612518310547,0
1.87978196144104,0.01532970741391182,0.005129384808242321,-0.4044303596019745,-0.003478995675073455,0.6965076898561621,-0.0006606151582673192,0.011478864587843418,0.004551381338387728,0.0,0.0,-0.6,0.0,0.0002079010009765625,0.0002079010009765625,0.0032134056091308594,0
1.8899579048156738,0.01532970741391182,0.005129384808242321,-0.4044303596019745,-0.003478995675073455,0.6965445295148288,-0.0009440315770916641,0.011433136649429798,0.004500646144151688,0.0,0.0,-0.6,0.0,0.00021409988403320312,0.00021409988403320312,0.0030775070190429688,0
1.8999755382537842,0.015517824329435825,0.005466184578835964,-0.40646982192993164,-0.0034195676401265673,0.6965715991045626,-0.0012762885307893157,0.011391929350793362,0.004443385172635317,0.0,0.0,-0.6,0.0,0.0002658367156982422,0.0002658367156982422,0.0032265186309814453,0
1.9095971584320068,0.01605992391705513,0.006426509469747543,-0.4124103784561157,-0.003229285306925212,0.6966185960043865,-0.0019333570962771773,0.011112136766314507,0.004333012737333775,0.0,0.0,-0.6,0.0,0.00019097328186035156,0.00019097328186035156,0.0026934146881103516,0
1.9197721481323242,0.01623346656560898,0.006731782108545303,-0.4143288731575012,-0.003154732596273638,0.696667276847744,-0.0025230245664715767,0.010783492587506771,0.004227832891047001,0.0,0.0,-0.6,0.0,0.00021982192993164062,0.00021982192993164062,0.00301361083984375,0
1.929978609085083,0.01623346656560898,0.006731782108545303,-0.4143288731575012,-0.003154732596273638,0.6967062272255691,-0.0029356200248003006,0.010553508996963501,0.004154090769588947,0.0,0.0,-0.6,0.0,0.00023794174194335938,0.00023794174194335938,0.003432035446166992,0
1.9398882389068604,0.01656736247241497,0.007318955380469561,-0.41808953881263733,-0.0030693889147739334,0.6967510589889416,-0.0033970647491514683,0.01009351760149002,0.004070091061294079,0.0,0.0,-0.6,0.0,0.000217437744140625,0.000217437744140625,0.0028781890869140625,0
1.9500665664672852,0.01689121127128601,0.007875950075685978,-0.4217470586299896,-0.0029880844321992068,0.69680871292927,-0.003960743546485901,0.00960556697100401,0.003980875480920076,0.0,0.0,-0.6,0.0,0.000247955322265625,0.000247955322265625,0.003339529037475586,0
1.9597597122192383,0.017049303278326988,0.00814388133585453,-0.42353183031082153,-0.002947258552726563,0.6968669901558227,-0.0045088608749210835,0.00916602648794651,0.003903122153133154,0.0,0.0,-0.6,0.0,0.00019073486328125,0.00019073486328125,0.0032825469970703125,0
1.9699294567108154,0.017049303278326988,0.00814388133585453,-0.42353183031082153,-0.002947258552726563,0.6969135774975854,-0.004892354365438223,0.008858473040163517,0.003848550608381629,0.0,0.0,-0.6,0.0,0.0002276897430419922,0.0002276897430419922,0.003171205520629883,0
1.9799444675445557,0.01735839992761612,0.008660977706313133,-0.42701956629753113,-0.0028953521828365266,0.6969658085514082,-0.005307529121637344,0.008620856329798698,0.0037911967374384403,0.0,0.0,-0.6,0.0,0.0002532005310058594,0.0002532005310058594,0.0033452510833740234,0
1.989621877670288,0.017657695338129997,0.009150614030659199,-0.43039998412132263,-0.0028147102131871942,0.6970328569136908,-0.005756552331149578,0.008299743756651878,0.003720629960298538,0.0,0.0,-0.6,0.0,0.0002167224884033203,0.0002167224884033203,0.002921581268310547,0
1.9998154640197754,0.017803914844989777,0.009385736659169197,-0.4320504665374756,-0.002761094838210686,0.6970958223450929,-0.006100623868405819,0.008085669949650764,0.003651187289506197,0.0,0.0,-0.6,0.0,0.00023865699768066406,0.00023865699768066406,0.0031583309173583984,0
2.0099339485168457,0.017803914844989777,0.009385736659169197,-0.4320504665374756,-0.002761094838210686,0.6971461989497284,-0.006341347936540842,0.007935883477330208,0.003602533135563135,0.0,0.0,-0.6,0.0,0.00023889541625976562,0.00023889541625976562,0.0033245086669921875,0
2.0198142528533936,0.017949141561985016,0.009613932110369205,-0.4337095618247986,-0.00272449227786508,0.6971956315735807,-0.006506976671516895,0.007851655595004559,0.003554870141670108,0.0,0.0,-0.6,0.0,0.00021648406982421875,0.00021648406982421875,0.0029687881469726562,0
2.0302255153656006,0.018365835770964622,0.010257977992296219,-0.43852698802948,-0.002585352788453196,0.6972723421140358,-0.006554209627211094,0.0073946621268987656,0.0034674585331231356,0.0,0.0,-0.6,0.0,0.00035500526428222656,0.00035500526428222656,0.004048824310302734,0
2.0397863388061523,0.018498530611395836,0.01046030130237341,-0.4400789439678192,-0.002532120986969562,0.6973524941956349,-0.006639149039983749,0.006936356425285339,0.003385740565136075,0.0,0.0,-0.6,0.0,0.00023055076599121094,0.00023055076599121094,0.0031363964080810547,0
2.049931764602661,0.018498530611395836,0.01046030130237341,-0.4400789439678192,-0.002532120986969562,0.6974166100602621,-0.006698554381728172,0.006615742109715939,0.0033285149838775396,0.0,0.0,-0.6,0.0,0.0002422332763671875,0.0002422332763671875,0.0032830238342285156,0
2.0600035190582275,0.01862753927707672,0.01065625250339508,-0.44160446524620056,-0.00249590919316511,0.6974781736825153,-0.0067029958590865135,0.0062423343770205975,0.0032740633469074965,0.0,0.0,-0.6,0.0,0.0002617835998535156,0.0002617835998535156,0.0031948089599609375,0
2.0696535110473633,0.01900247298181057,0.011211419478058815,-0.4460345506668091,-0.002352989199724616,0.6975640256430828,-0.00669248029589653,0.005902470555156469,0.003182104090228677,0.0,0.0,-0.6,0.0,0.000217437744140625,0.000217437744140625,0.002928495407104492,0
2.079737663269043,0.019123220816254616,0.011384041979908943,-0.44747886061668396,-0.002315625354553976,0.6976464599056402,-0.0065211523324251175,0.005635889247059822,0.0031033142004162073,0.0,0.0,-0.6,0.0,0.00026917457580566406,0.00026917457580566406,0.0032014846801757812,0
2.0898325443267822,0.019123220816254616,0.011384041979908943,-0.44747886061668396,-0.002315625354553976,0.6977124325218957,-0.006401293911039829,0.005449410993605852,0.0030481889843940735,0.0,0.0,-0.6,0.0,0.00023484230041503906,0.00023484230041503906,0.0032672882080078125,0
2.099898338317871,0.01924268528819084,0.01154932752251625,-0.44889938831329346,-0.002276138944637219,0.6977745608879742,-0.00617645587772131,0.005351636558771133,0.0029948041774332523,0.0,0.0,-0.6,0.0,0.00024580955505371094,0.00024580955505371094,0.003070354461669922,0
2.109689474105835,0.0195865947753191,0.012013296596705914,-0.45302093029022217,-0.002179510262398925,0.6978633576622002,-0.005806520115584135,0.005020321812480688,0.002919696969911456,0.0,0.0,-0.6,0.0,0.00021648406982421875,0.00021648406982421875,0.0030121803283691406,0
2.1197850704193115,0.01969616860151291,0.012157798744738102,-0.45434796810150146,-0.0021306926406668585,0.697945486859848,-0.0055009108036756516,0.004757053218781948,0.002848704345524311,0.0,0.0,-0.6,0.0,0.0002117156982421875,0.0002117156982421875,0.003001689910888672,0
2.1299619674682617,0.01969616860151291,0.012157798744738102,-0.45434796810150146,-0.0021306926406668585,0.6980111997960932,-0.00528711499646306,0.004572891164571047,0.00279905810020864,0.0,0.0,-0.6,0.0,0.00022172927856445312,0.00022172927856445312,0.0031719207763671875,0
2.140094757080078,0.01990584470331669,0.012430320493876934,-0.4569324254989624,-0.0020695262883288754,0.6980991479759893,-0.0050428383983671665,0.004198119509965181,0.002740040887147188,0.0,0.0,-0.6,0.0,0.0002460479736328125,0.0002460479736328125,0.0032432079315185547,0
2.1496009826660156,0.020099489018321037,0.012680001556873322,-0.45941248536109924,-0.0019509724499428248,0.6981943685594381,-0.004649328999221325,0.0036594283301383257,0.0026526807341724634,0.0,0.0,-0.6,0.0,0.00020575523376464844,0.00020575523376464844,0.0028471946716308594,0
2.159855842590332,0.020190898329019547,0.012796657159924507,-0.4606139361858368,-0.0019035579394067203,0.6982882468131419,-0.004276126157492399,0.003179417224600911,0.002573275938630104,0.0,0.0,-0.6,0.0,0.0002837181091308594,0.0002837181091308594,0.003317117691040039,0
2.16994309425354,0.020190898329019547,0.012796657159924507,-0.4606139361858368,-0.0019035579394067203,0.6983633258109994,-0.004015063401311636,0.0028436691500246525,0.002517800312489271,0.0,0.0,-0.6,0.0,0.00025177001953125,0.00025177001953125,0.0033409595489501953,0
2.17978572845459,0.020363647490739822,0.013015825301408768,-0.46294966340065,-0.0018663689767925585,0.6984611371256587,-0.0035810566041618586,0.0023779072798788548,0.0024637889582663774,0.0,0.0,-0.6,0.0,0.00022482872009277344,0.00022482872009277344,0.0030689239501953125,0
2.1896936893463135,0.020523691549897194,0.013213947415351868,-0.465200275182724,-0.0018060550151724412,0.6985685631177827,-0.002921002684161067,0.0017990090418606997,0.0024020113050937653,0.0,0.0,-0.6,0.0,0.00021719932556152344,0.00021719932556152344,0.0030181407928466797,0
2.199769973754883,0.020598959177732468,0.013304823078215122,-0.4662948548793793,-0.0017855889749277206,0.6986734313848183,-0.002342447405681014,0.001196772907860577,0.0023503319825977087,0.0,0.0,-0.6,0.0,0.00023031234741210938,0.00023031234741210938,0.0030121803283691406,0
2.209974765777588,0.020598959177732468,0.013304823078215122,-0.4662948548793793,-0.0017855889749277206,0.6987573160854302,-0.0019377809949219227,0.0007755690021440387,0.0023143652360886335,0.0,0.0,-0.6,0.0,0.00024056434631347656,0.00024056434631347656,0.0032808780670166016,0
2.219980001449585,0.020670287311077118,0.01339022722095251,-0.46736809611320496,-0.0017417337823416755,0.6988444388615345,-0.0015071826055645943,0.00036478665424510837,0.0022722978610545397,0.0,0.0,-0.6,0.0,0.00022482872009277344,0.00022482872009277344,0.00315093994140625,0
2.229637861251831,0.020876439288258553,0.013614265248179436,-0.4705287218093872,-0.0016123045170074561,0.6989505225606902,-0.0007473592413589358,7.95426603872329e-05,0.0021943540778011084,0.0,0.0,-0.6,0.0,0.00020742416381835938,0.00020742416381835938,0.0028645992279052734,0
2.2398719787597656,0.020941048860549927,0.013676660135388374,-0.47155633568763733,-0.0015920232355345497,0.6990481837786755,3.49139045283664e-05,-0.00014583485608454794,0.002132194582372904,0.0,0.0,-0.6,0.0,0.00022459030151367188,0.00022459030151367188,0.0031163692474365234,0
2.24999737739563,0.020941048860549927,0.013676660135388374,-0.47155633568763733,-0.0015920232355345497,0.6991263198018196,0.0005820902297273278,-0.00030345917912200093,0.002088788663968444,0.0,0.0,-0.6,0.0,0.00026154518127441406,0.00026154518127441406,0.0035047531127929688,0
2.2598214149475098,0.02124549075961113,0.014086103066802025,-0.47445183992385864,-0.0015315260691125948,0.6991907625842531,0.001010867883451283,-0.0002982193254865706,0.002036184538155794,0.0,0.0,-0.6,0.0,0.0002238750457763672,0.0002238750457763672,0.0032405853271484375,0
2.2698819637298584,0.02153773605823517,0.014463542029261589,-0.47722765803337097,-0.0014814988649352512,0.6992453862863395,0.0014488062588497996,-0.00010813007975229993,0.0019812851678580046,0.0,0.0,-0.6,0.0,0.00021886825561523438,0.00021886825561523438,0.003015756607055664,0
2.279831886291504,0.0216793455183506,0.014639354310929775,-0.47857293486595154,-0.001460359546713782,0.6992890981991435,0.001811455236747861,2.6764959329739213e-05,0.0019348894711583853,0.0,0.0,-0.6,0.0,0.00022339820861816406,0.00022339820861816406,0.0031702518463134766,0
2.2899560928344727,0.0216793455183506,0.014639354310929775,-0.47857293486595154,-0.001460359546713782,0.6993240894655933,0.002065220382064581,0.00012116709694964811,0.0019023834029212594,0.0,0.0,-0.6,0.0,0.00022172927856445312,0.00022172927856445312,0.0032279491424560547,0
2.300025224685669,0.021816451102495193,0.014807036146521568,-0.479889839887619,-0.0014211014134796259,0.6993583755112597,0.0022744820453226566,0.00020354635489638895,0.0018649469129741192,0.0,0.0,-0.6,0.0,0.00028395652770996094,0.00028395652770996094,0.0033655166625976562,0
2.3096041679382324,0.02220982499420643,0.015269000083208084,-0.4836893081665039,-0.0013381939536734242,0.6994096650028695,0.0024033128283917904,0.00020439265063032508,0.001807462889701128,0.0,0.0,-0.6,0.0,0.000202178955078125,0.000202178955078125,0.0029518604278564453,0
2.319852590560913,0.022333459928631783,0.015408344566822052,-0.4848999083042145,-0.001309887353666463,0.6994570813996208,0.002565577859058976,0.00024807811132632196,0.0017567413160577416,0.0,0.0,-0.6,0.0,0.00023436546325683594,0.00023436546325683594,0.0030651092529296875,0
2.329929828643799,0.022333459928631783,0.015408344566822052,-0.4848999083042145,-0.001309887353666463,0.6994949968573912,0.002679119585081935,0.0002786506956908852,0.0017212320817634463,0.0,0.0,-0.6,0.0,0.0002512931823730469,0.0002512931823730469,0.003408193588256836,0
2.339916706085205,0.022567331790924072,0.015662003308534622,-0.48724237084388733,-0.0012835056276397706,0.6995394768240026,0.0028726656455546618,0.00020470406161621213,0.0016861738404259086,0.0,0.0,-0.6,0.0,0.00026226043701171875,0.00026226043701171875,0.003755807876586914,0
2.349672317504883,0.022784486413002014,0.0158853679895401,-0.48948150873184204,-0.0012158900778652404,0.6995832117422176,0.003053909633308649,0.0001051454819389619,0.0016361422603949904,0.0,0.0,-0.6,0.0,0.00026917457580566406,0.00026917457580566406,0.0033092498779296875,0
2.359769105911255,0.02288719266653061,0.015988096594810486,-0.49056506156921387,-0.0011975802720993408,0.6996239741278397,0.0031282943673431873,-8.766860446485225e-06,0.0015941421734169126,0.0,0.0,-0.6,0.0,0.00020623207092285156,0.00020623207092285156,0.002960681915283203,0
2.3699941635131836,0.02288719266653061,0.015988096594810486,-0.49056506156921387,-0.0011975802720993408,0.6996566059878453,0.0031803487800061703,-8.848190918797627e-05,0.0015647470718249679,0.0,0.0,-0.6,0.0,0.0002560615539550781,0.0002560615539550781,0.0032875537872314453,0
2.380039691925049,0.023083478212356567,0.016179170459508896,-0.49266090989112854,-0.0011654509872811103,0.6996988495677607,0.0032136922236531973,2.429418236715719e-05,0.001532592112198472,0.0,0.0,-0.6,0.0,0.00025010108947753906,0.00025010108947753906,0.0030922889709472656,0
2.3895957469940186,0.023271732032299042,0.016343193128705025,-0.4946644604206085,-0.0011294898465552072,0.6997495701780652,0.0034493030980229378,0.00013397226575762033,0.0014966781018301845,0.0,0.0,-0.6,0.0,0.00019216537475585938,0.00019216537475585938,0.0028219223022460938,0
2.399862289428711,0.023359013721346855,0.01641531102359295,-0.49563127756118774,-0.0010934511027032314,0.6998029444807013,0.003623983357101679,0.00014483007544185966,0.0014578335685655475,0.0,0.0,-0.6,0.0,0.00024819374084472656,0.00024819374084472656,0.003201007843017578,0
2.409986734390259,0.023359013721346855,0.01641531102359295,-0.49563127756118774,-0.0010934511027032314,0.6998456491723888,0.0037462085019797087,0.0001524320978205651,0.001430641277693212,0.0,0.0,-0.6,0.0,0.0002636909484863281,0.0002636909484863281,0.0033881664276123047,0
2.41986346244812,0.02352093905210495,0.01654408872127533,-0.4974939525127411,-0.0010282551160042412,0.6998974543652455,0.0038935341872274876,7.780166924931109e-05,0.0013869532849639654,0.0,0.0,-0.6,0.0,0.00022101402282714844,0.00022101402282714844,0.002955913543701172,0
2.4297661781311035,0.023669233545660973,0.016650903970003128,-0.4992694854736328,-0.0009911938101664858,0.6999587098719534,0.004040317609906197,6.377058889484033e-05,0.0013425730867311358,0.0,0.0,-0.6,0.0,0.00021529197692871094,0.00021529197692871094,0.0029594898223876953,0
2.439777135848999,0.023740721866488457,0.01669737696647644,-0.5001260638237,-0.0009675646789431934,0.7000184372875414,0.004188585095107555,0.00010644750000210479,0.001302770571783185,0.0,0.0,-0.6,0.0,0.00022149085998535156,0.00022149085998535156,0.003027200698852539,0
2.4499459266662598,0.023740721866488457,0.01669737696647644,-0.5001260638237,-0.0009675646789431934,0.7000662472570631,0.004292324185371399,0.000136309172376059,0.0012749050511047244,0.0,0.0,-0.6,0.0,0.000225067138671875,0.000225067138671875,0.003231048583984375,0
2.4599649906158447,0.023877594619989395,0.016773514449596405,-0.501777708530426,-0.0009470306696312318,0.7001294817090544,0.004420621786266565,0.00023609737399965525,0.0012478659627959132,0.0,0.0,-0.6,0.0,0.00026607513427734375,0.00026607513427734375,0.0033898353576660156,0
2.469646692276001,0.02400268241763115,0.016831891611218452,-0.5033438205718994,-0.000886308747583102,0.7002143853368297,0.004465756472200155,0.0002749514824245125,0.001206092187203467,0.0,0.0,-0.6,0.0,0.00021147727966308594,0.00021147727966308594,0.002819538116455078,0
2.479763984680176,0.024057794362306595,0.01685461588203907,-0.5040954947471619,-0.0008747460962110623,0.7002971713682361,0.004569635260850191,0.000162564218044281,0.0011722128838300705,0.0,0.0,-0.6,0.0,0.00022125244140625,0.00022125244140625,0.002979278564453125,0
2.4899845123291016,0.024057794362306595,0.01685461588203907,-0.5040954947471619,-0.0008747460962110623,0.7003633940279878,0.004642304964363575,8.394617179874331e-05,0.001148504437878728,0.0,0.0,-0.6,0.0,0.00022649765014648438,0.00022649765014648438,0.00333404541015625,0
2.49993634223938,0.024158237501978874,0.016885921359062195,-0.5055591464042664,-0.0008437302788388617,0.700439332491851,0.00476478599011898,0.0001310079824179411,0.0011204839684069157,0.0,0.0,-0.6,0.0,0.00025153160095214844,0.00025153160095214844,0.0031342506408691406,0
2.5096700191497803,0.024254221469163895,0.01689714752137661,-0.5069451332092285,-0.0008175590498331979,0.7005305662496591,0.00483480840921402,5.162166780792177e-05,0.0010908382246270776,0.0,0.0,-0.6,0.0,0.0002205371856689453,0.0002205371856689453,0.002985715866088867,0
2.5198025703430176,0.024300236254930496,0.016893932595849037,-0.5076109766960144,-0.0007874910596096171,0.700612695065473,0.0048965709283947945,-2.8975753593840636e-05,0.0010587726719677448,0.0,0.0,-0.6,0.0,0.0003266334533691406,0.0003266334533691406,0.0037856101989746094,0
2.529982566833496,0.024300236254930496,0.016893932595849037,-0.5076109766960144,-0.0007874910596096171,0.7006783842467585,0.004939778242260218,-8.53551464388147e-05,0.0010363297769799829,0.0,0.0,-0.6,0.0,0.0002741813659667969,0.0002741813659667969,0.0034580230712890625,0
2.5400266647338867,0.024384988471865654,0.016872934997081757,-0.508891224861145,-0.0007362202025512376,0.7007591710370853,0.005066488869488239,-0.00011050072498619556,0.001001427648589015,0.0,0.0,-0.6,0.0,0.0002872943878173828,0.0002872943878173828,0.0031991004943847656,0
2.5497758388519287,0.024452710524201393,0.016828740015625954,-0.5100979208946228,-0.0006952719000957233,0.7008578213390939,0.005446817725896835,-0.000505188712850213,0.0009611049317754805,0.0,0.0,-0.6,0.0,0.00019979476928710938,0.00019979476928710938,0.0029120445251464844,0
2.5598888397216797,0.0244798231869936,0.016798950731754303,-0.5106605887413025,-0.0006649581639339373,0.7009560303162715,0.005686767399311066,-0.0008143180748447776,0.0009215727914124727,0.0,0.0,-0.6,0.0,0.0003192424774169922,0.0003192424774169922,0.0041255950927734375,0
2.5699660778045654,0.0244798231869936,0.016798950731754303,-0.5106605887413025,-0.0006649581639339373,0.7010346044335413,0.005854605697095394,-0.0010305384639650583,0.0008939444669522345,0.0,0.0,-0.6,0.0,0.00031280517578125,0.00031280517578125,0.003809213638305664,0
2.5797486305236816,0.024523349478840828,0.016728106886148453,-0.5117330551147461,-0.0006156075629020154,0.7011386038008655,0.0060786777175962925,-0.0013972001615911722,0.0008559557609260082,0.0,0.0,-0.6,0.0,0.0002455711364746094,0.0002455711364746094,0.003099203109741211,0
2.5896401405334473,0.024553004652261734,0.01664213463664055,-0.5127335786819458,-0.0005972529354551657,0.7012629874142446,0.0063793351873755455,-0.0016668034950271249,0.0008226352510973811,0.0,0.0,-0.6,0.0,0.00022459030151367188,0.00022459030151367188,0.003139019012451172,0
2.5997941493988037,0.02456478960812092,0.016593582928180695,-0.5132089853286743,-0.0005897703095195224,0.7013767840410652,0.006620493251830339,-0.0018921535229310393,0.0007965602562762797,0.0,0.0,-0.6,0.0,0.0002682209014892578,0.0002682209014892578,0.0029878616333007812,0
2.609971284866333,0.02456478960812092,0.016593582928180695,-0.5132089853286743,-0.0005897703095195224,0.7014678331037373,0.006789155304431915,-0.0020497546065598726,0.0007783400360494852,0.0,0.0,-0.6,0.0,0.0002372264862060547,0.0002372264862060547,0.0032885074615478516,0
2.6199724674224854,0.02458396926522255,0.016484947875142097,-0.5141134262084961,-0.000565954711967035,0.7015771562987557,0.007138966117054224,-0.002223883057013154,0.0007568360888399184,0.0,0.0,-0.6,0.0,0.0002675056457519531,0.0002675056457519531,0.0031583309173583984,0
2.62968373298645,0.024592941626906395,0.016357647255063057,-0.5149435997009277,-0.0005152982138284457,0.70170864408462,0.007556804921478033,-0.0024269334971904755,0.0007229807670228183,0.0,0.0,-0.6,0.0,0.00020003318786621094,0.00020003318786621094,0.0028696060180664062,0
2.639794111251831,0.024593336507678032,0.016288749873638153,-0.5153301358222961,-0.0005100218953884907,0.7018369535011467,0.00786558073014021,-0.0026044861879199743,0.0006974114803597331,0.0,0.0,-0.6,0.0,0.00022983551025390625,0.00022983551025390625,0.003013134002685547,0
2.6499528884887695,0.024593336507678032,0.016288749873638153,-0.5153301358222961,-0.0005100218953884907,0.7019396018404378,0.008081507869064808,-0.002728645224124193,0.0006795453373342752,0.0,0.0,-0.6,0.0,0.00024127960205078125,0.00024127960205078125,0.00335693359375,0
2.6598827838897705,0.024123242124915123,0.016447139903903008,-0.5164457559585571,-0.0004816982211202845,0.7020368601255181,0.007919495925307274,-0.003421853994950652,0.0006563299684785306,0.0,0.0,-0.6,0.0,0.00022339820861816406,0.00022339820861816406,0.0030128955841064453,0
2.669647455215454,0.023206761106848717,0.016884442418813705,-0.5178686380386353,-0.00047255028754684606,0.7021154062851555,0.007188378367573023,-0.004617373924702406,0.0006362881977111101,0.0,0.0,-0.6,0.0,0.00022602081298828125,0.00022602081298828125,0.003072500228881836,0
2.679786205291748,0.022760501131415367,0.017090067267417908,-0.518549919128418,-0.00046568088715078594,0.7021779338151853,0.006454893387854099,-0.005778392311185598,0.000619042431935668,0.0,0.0,-0.6,0.0,0.00024509429931640625,0.00024509429931640625,0.0033185482025146484,0
2.6899573802948,0.022760501131415367,0.017090067267417908,-0.518549919128418,-0.00046568088715078594,0.7022279523302588,0.0059417132288217545,-0.006590710952877998,0.0006064639892429113,0.0,0.0,-0.6,0.0,0.00023055076599121094,0.00023055076599121094,0.0032584667205810547,0
2.6999857425689697,0.022320980206131935,0.0172862708568573,-0.519210934638977,-0.0004472523209966495,0.7022712290740581,0.005390514153987169,-0.007494720630347729,0.0005901057738810778,0.0,0.0,-0.6,0.0,0.0002491474151611328,0.0002491474151611328,0.003338336944580078,0
