time,x,y,z,yaw,throttle,roll_rate,pitch_rate,yaw_rate,x_ref,y_ref,z_ref,yaw_ref,pred_time,nr_time,ctrl_callback_time,metadata
7.152557373046875e-07,-0.020292412489652634,0.014579599723219872,0.2759202718734741,-0.001792710160003642,0.738745417275111,0.800000011920929,-0.2913497984409332,-2.868442636194679e-11,0.0,0.8,-0.8,-0.001792710160003642,0.18999123573303223,0.18999123573303223,0.25952720642089844,Sim
0.2598402500152588,-0.020292412489652634,0.014579599723219872,0.2759202718734741,-0.001792710160003642,0.7698875286495376,0.800000011920929,-0.2038651406764984,-2.868442636194679e-11,0.0,0.8,-0.8,-0.001792710160003642,0.0007216930389404297,0.0007216930389404297,0.0038118362426757812,flat wardi with jax
0.27019739151000977,-0.02235623635351658,0.01216020155698061,0.2863762378692627,-0.0017181894587704066,0.7918434559943802,0.800000011920929,-0.15881024301052094,1.6197869434630974e-11,0.0,0.8,-0.8,-0.0017181894587704066,0.0003056526184082031,0.0003056526184082031,0.004452705383300781,1x Speed
0.2798142433166504,-0.022550180554389954,0.012152699753642082,0.2870442271232605,-0.001697356554958552,0.8070615676457691,0.800000011920929,-0.12322281301021576,1.2472661792273243e-11,0.0,0.8,-0.8,-0.001697356554958552,0.00021195411682128906,0.00021195411682128906,0.003690481185913086,QuatYawError
0.28974223136901855,-0.022751260548830032,0.012148525565862656,0.28773263096809387,-0.0016849552754878362,0.8176546531784166,0.800000011920929,-0.09847447276115417,1.0255143956250379e-11,0.0,0.8,-0.8,-0.0016849552754878362,0.0002033710479736328,0.0002033710479736328,0.0032317638397216797,0
0.30019307136535645,-0.022960180416703224,0.012148465029895306,0.2884419858455658,-0.001668484491765772,0.8250546605471484,0.6788110136985779,-0.08049861341714859,7.30993737763086e-12,0.0,0.8,-0.8,-0.001668484491765772,0.00033783912658691406,0.00033783912658691406,0.0038378238677978516,0
0.3105034828186035,-0.023395780473947525,0.012155917473137379,0.2898319959640503,-0.0017026185424438723,0.8302694166207981,0.46405214071273804,-0.06648024916648865,1.3413575805643063e-11,0.0,0.8,-0.8,-0.0017026185424438723,0.00019693374633789062,0.00019693374633789062,0.003197908401489258,0
0.319913387298584,-0.02362070232629776,0.012165787629783154,0.29055824875831604,-0.001713735384443305,0.8339372971457988,0.3183797001838684,-0.05454966798424721,1.5401423192340502e-11,0.0,0.8,-0.8,-0.001713735384443305,0.00021767616271972656,0.00021767616271972656,0.003217935562133789,0
0.32988619804382324,-0.023847635835409164,0.012179502286016941,0.2913038730621338,-0.0017201224764202322,0.8365269617047872,0.21894653141498566,-0.04528919979929924,1.6543530434454112e-11,0.0,0.8,-0.8,-0.0017201224764202322,0.00028586387634277344,0.00028586387634277344,0.004502534866333008,0
0.3398914337158203,-0.024080993607640266,0.012197005562484264,0.2920684814453125,-0.0017080582724091644,0.8383654671821635,0.15047752857208252,-0.03867628052830696,1.4386276891986682e-11,0.0,0.8,-0.8,-0.0017080582724091644,0.00018167495727539062,0.00018167495727539062,0.003192424774169922,0
0.3500030040740967,-0.024321023374795914,0.012216726318001747,0.2928515076637268,-0.0017013394745492732,0.8396811626823217,0.10435803979635239,-0.03281805291771889,1.3184862923676377e-11,0.0,0.8,-0.8,-0.0017013394745492732,0.000263214111328125,0.000263214111328125,0.004626035690307617,0
0.35988545417785645,-0.024035345762968063,0.012164616957306862,0.2925584018230438,-0.0016892102122701548,0.8405944928607652,0.07427532970905304,-0.02531636692583561,1.1015972856132095e-11,0.0,0.8,-0.8,-0.0016892102122701548,0.00017690658569335938,0.00017690658569335938,0.003165721893310547,0
0.36978697776794434,-0.023517131805419922,0.012066451832652092,0.29210740327835083,-0.0016939532580659768,0.8412186581767278,0.056315455585718155,-0.01795898750424385,1.1864106919112771e-11,0.0,0.8,-0.8,-0.0016939532580659768,0.00020360946655273438,0.00020360946655273438,0.0032634735107421875,0
0.3800168037414551,-0.02328384853899479,0.012021465227007866,0.29192060232162476,-0.0017020710887411272,0.8416440742127569,0.04110970348119736,-0.013891774229705334,1.3315674951552836e-11,0.0,0.8,-0.8,-0.0017020710887411272,0.00022149085998535156,0.00022149085998535156,0.003805398941040039,0
0.38974881172180176,-0.02286546304821968,0.011945520527660847,0.2915757894515991,-0.0016999761440391942,0.8414813460711795,0.04392353072762489,-0.010442139580845833,1.2941078764150404e-11,0.0,0.8,-0.8,-0.0016999761440391942,0.00019049644470214844,0.00019049644470214844,0.0031135082244873047,0
0.4000101089477539,-0.02267829328775406,0.011918132193386555,0.29129135608673096,-0.0017090443367372918,0.8408455306265743,0.04830217733979225,-0.008619247935712337,1.4562594186084965e-11,0.0,0.8,-0.8,-0.0017090443367372918,0.00023412704467773438,0.00023412704467773438,0.0038967132568359375,0
0.4098482131958008,-0.022505823522806168,0.011896741576492786,0.2908692955970764,-0.0017049944532970148,0.8397909341976012,0.05757977068424225,-0.00767899863421917,1.3838423462697591e-11,0.0,0.8,-0.8,-0.0017049944532970148,0.0002181529998779297,0.0002181529998779297,0.0035524368286132812,0
0.4200618267059326,-0.022348323836922646,0.011877112090587616,0.2902871370315552,-0.0016890071884385894,0.8383847158814981,0.067720927298069,-0.007204629946500063,1.0979668563226852e-11,0.0,0.8,-0.8,-0.0016890071884385894,0.0002899169921875,0.0002899169921875,0.004112720489501953,0
0.4299304485321045,-0.022077953442931175,0.011847121641039848,0.28859883546829224,-0.0016946711697198012,0.8359870458505289,0.1031629890203476,-0.00902931671589613,1.1992483395228959e-11,0.0,0.8,-0.8,-0.0016946711697198012,0.0002143383026123047,0.0002143383026123047,0.003617525100708008,0
0.43993425369262695,-0.021964456886053085,0.011837117373943329,0.28748250007629395,-0.0016984328826532844,0.8335790004065002,0.101631760597229,-0.008424865081906319,1.266511201469811e-11,0.0,0.8,-0.8,-0.0016984328826532844,0.00020122528076171875,0.00020122528076171875,0.0040166378021240234,0
0.449831485748291,-0.02186451479792595,0.01182944793254137,0.2861449420452118,-0.0016821042708632047,0.8311531157656081,0.10158100724220276,-0.008015723899006844,9.745343421130315e-12,0.0,0.8,-0.8,-0.0016821042708632047,0.0002830028533935547,0.0002830028533935547,0.004308223724365234,0
0.46004533767700195,-0.021778415888547897,0.011825627647340298,0.28462284803390503,-0.0016648777949168428,0.8287041374948213,0.10048002749681473,-0.008081537671387196,6.664994944838298e-12,0.0,0.8,-0.8,-0.0016648777949168428,0.00024962425231933594,0.00024962425231933594,0.003540515899658203,0
0.4700596332550049,-0.021633675321936607,0.011830679140985012,0.28102046251296997,-0.001697714321346965,0.825475958628856,0.1298823356628418,-0.00894677173346281,1.2536631455173364e-11,0.0,0.8,-0.8,-0.001697714321346965,0.00021696090698242188,0.00021696090698242188,0.003470182418823242,0
0.47988128662109375,-0.021578440442681313,0.011840108782052994,0.2789434492588043,-0.001710500741641794,0.8224643963319127,0.12063801288604736,-0.008170390501618385,1.4823010874298603e-11,0.0,0.8,-0.8,-0.001710500741641794,0.00023818016052246094,0.00023818016052246094,0.003537893295288086,0
0.48990607261657715,-0.021534143015742302,0.011855664663016796,0.27668777108192444,-0.0016786466917085813,0.8196093260183913,0.11308510601520538,-0.007406971883028746,9.127067157610469e-12,0.0,0.8,-0.8,-0.0016786466917085813,0.00024008750915527344,0.00024008750915527344,0.003615140914916992,0
0.49991750717163086,-0.021501075476408005,0.011877576820552349,0.2742559313774109,-0.0016671754800764783,0.8168656185614117,0.10796421766281128,-0.007453534286469221,7.075853791782549e-12,0.0,0.8,-0.8,-0.0016671754800764783,0.00021696090698242188,0.00021696090698242188,0.0037529468536376953,0
0.5101573467254639,-0.021467136219143867,0.011944500729441643,0.2688728868961334,-0.001643671879418326,0.813471400756477,0.1290784329175949,-0.008359456434845924,1.2095534643319361e-11,0.0,0.8,-0.8,-0.001643671879418326,0.00021409988403320312,0.00021409988403320312,0.0039255619049072266,0
0.5199692249298096,-0.02146187797188759,0.011991189792752266,0.26589643955230713,-0.001643363564859397,0.8103591324307128,0.11712334305047989,-0.006290421821177006,1.2049599165675495e-11,0.0,0.8,-0.8,-0.001643363564859397,0.0003294944763183594,0.0003294944763183594,0.006319522857666016,0
0.5297789573669434,-0.021464349702000618,0.01204755436629057,0.2627559006214142,-0.0016528218817536487,0.8074506873654348,0.10809788852930069,-0.005452367011457682,1.3458992600967612e-11,0.0,0.8,-0.8,-0.0016528218817536487,0.00024318695068359375,0.00024318695068359375,0.004451274871826172,0
0.5400385856628418,-0.02147526480257511,0.012113092467188835,0.2594553530216217,-0.0016443650645511624,0.8046969105728171,0.10248978435993195,-0.004736770410090685,1.219882007907902e-11,0.0,0.8,-0.8,-0.0016443650645511624,0.0002772808074951172,0.0002772808074951172,0.003831624984741211,0
0.5498237609863281,-0.021494116634130478,0.012187744490802288,0.2559991776943207,-0.0016418841061254152,0.802058687115201,0.09647374600172043,-0.004860022570937872,1.1829133159113603e-11,0.0,0.8,-0.8,-0.0016418841061254152,0.00020766258239746094,0.00020766258239746094,0.0032918453216552734,0
0.5601415634155273,-0.021556431427598,0.012370164506137371,0.24863626062870026,-0.0016629559677293153,0.798821276728583,0.11409466713666916,-0.006052323617041111,6.321353163141197e-12,0.0,0.8,-0.8,-0.0016629559677293153,0.000232696533203125,0.000232696533203125,0.0034422874450683594,0
0.5698161125183105,-0.021599309518933296,0.012479121796786785,0.24473850429058075,-0.001664322173499139,0.7958750261615735,0.10181912779808044,-0.006157884374260902,6.5656577397099625e-12,0.0,0.8,-0.8,-0.001664322173499139,0.0002372264862060547,0.0002372264862060547,0.0036814212799072266,0
0.5799603462219238,-0.0216511320322752,0.012600742280483246,0.24070270359516144,-0.001659553816532024,0.7931362228126234,0.09304489195346832,-0.006434127222746611,5.713006456797842e-12,0.0,0.8,-0.8,-0.001659553816532024,0.00023746490478515625,0.00023746490478515625,0.0035047531127929688,0
0.5899062156677246,-0.021710218861699104,0.012735151685774326,0.23653177917003632,-0.0016337352788115239,0.7905538655802916,0.08568385243415833,-0.005229959264397621,1.0614862287761095e-11,0.0,0.8,-0.8,-0.0016337352788115239,0.00020837783813476562,0.00020837783813476562,0.003272533416748047,0
0.5999395847320557,-0.021845443174242973,0.013047522865235806,0.22771990299224854,-0.001619509138865457,0.7874576750470977,0.09627209603786469,-0.006226112134754658,8.495012852882677e-12,0.0,0.8,-0.8,-0.001619509138865457,0.00021767616271972656,0.00021767616271972656,0.00351715087890625,0
0.609868049621582,-0.02192232757806778,0.013226265087723732,0.2231331765651703,-0.0016268267377575665,0.7846561478902411,0.0840032771229744,-0.004724416881799698,9.585407988177419e-12,0.0,0.8,-0.8,-0.0016268267377575665,0.0002129077911376953,0.0002129077911376953,0.003180265426635742,0
0.6199808120727539,-0.022004080936312675,0.01342174131423235,0.21843107044696808,-0.0016320204986450331,0.7820678828752354,0.07472380995750427,-0.003784938482567668,1.0359337519749712e-11,0.0,0.8,-0.8,-0.0016320204986450331,0.0002300739288330078,0.0002300739288330078,0.003459453582763672,0
0.6298139095306396,-0.022180285304784775,0.013862255960702896,0.20869621634483337,-0.0016185268923593389,0.7790448296304348,0.08181779831647873,-0.0042465971782803535,8.348620406106733e-12,0.0,0.8,-0.8,-0.0016185268923593389,0.0002655982971191406,0.0002655982971191406,0.003816843032836914,0
0.6400699615478516,-0.022276371717453003,0.014108236879110336,0.20367105305194855,-0.0016049533903097252,0.7763263875406241,0.07059619575738907,-0.003624037839472294,6.326036916526334e-12,0.0,0.8,-0.8,-0.0016049533903097252,0.00024127960205078125,0.00024127960205078125,0.003414154052734375,0
0.6498680114746094,-0.022377535700798035,0.014371693134307861,0.19854457676410675,-0.0015979945456385321,0.7738326498821155,0.0628097727894783,-0.0034583567176014185,5.289088611526438e-12,0.0,0.8,-0.8,-0.0015979945456385321,0.00022840499877929688,0.00022840499877929688,0.003694295883178711,0
0.6598896980285645,-0.022483160719275475,0.014652775600552559,0.1933208405971527,-0.0016147146899063852,0.7715079245193356,0.05634376034140587,-0.0028794866520911455,7.780567856663367e-12,0.0,0.8,-0.8,-0.0016147146899063852,0.00020933151245117188,0.00020933151245117188,0.0035009384155273438,0
0.6698408126831055,-0.022708192467689514,0.01526863407343626,0.18254703283309937,-0.00162948379545757,0.7687636689572142,0.05954553559422493,-0.004166279453784227,9.981341274334365e-12,0.0,0.8,-0.8,-0.00162948379545757,0.00022172927856445312,0.00022172927856445312,0.003841876983642578,0
0.6797530651092529,-0.02282612957060337,0.015605508349835873,0.17703141272068024,-0.0016295562674287524,0.7662867596818043,0.0503997877240181,-0.002966402331367135,9.992148601589701e-12,0.0,0.8,-0.8,-0.0016295562674287524,0.00021147727966308594,0.00021147727966308594,0.003683328628540039,0
0.6897573471069336,-0.022947195917367935,0.01596180535852909,0.17143335938453674,-0.0016454000192238217,0.7640067635730637,0.044388048350811005,-0.0025129145942628384,1.2353054343328118e-11,0.0,0.8,-0.8,-0.0016454000192238217,0.0002675056457519531,0.0002675056457519531,0.0035262107849121094,0
0.6999974250793457,-0.02307121455669403,0.016336362808942795,0.16575607657432556,-0.0016371353075548497,0.7618757160983247,0.04004126414656639,-0.0017408619169145823,1.1121504758793144e-11,0.0,0.8,-0.8,-0.0016371353075548497,0.00027251243591308594,0.00027251243591308594,0.004099607467651367,0
0.7097671031951904,-0.023326018825173378,0.01714327372610569,0.1541827917098999,-0.0016463766835732806,0.7593576089149383,0.039624761790037155,-0.0007187604205682874,1.2498580295727812e-11,0.0,0.8,-0.8,-0.0016463766835732806,0.0002033710479736328,0.0002033710479736328,0.0035257339477539062,0
0.7199602127075195,-0.023456303402781487,0.01757829450070858,0.14829400181770325,-0.0016695074910462269,0.7570906457312435,0.031019728630781174,-0.000657732947729528,7.492853559831758e-12,0.0,0.8,-0.8,-0.0016695074910462269,0.00020766258239746094,0.00020766258239746094,0.0032117366790771484,0
0.7297389507293701,-0.023588713258504868,0.01803622394800186,0.14234156906604767,-0.0016786188903274003,0.75500964906836,0.023590561002492905,0.0004606583097483963,9.122091970681367e-12,0.0,0.8,-0.8,-0.0016786188903274003,0.00020933151245117188,0.00020933151245117188,0.004212617874145508,0
0.7398030757904053,-0.02372150681912899,0.01851610280573368,0.1362786442041397,-0.0016921328401964515,0.7530668569930495,0.019575051963329315,0.0015533057739958167,1.1538575650504868e-11,0.0,0.8,-0.8,-0.0016921328401964515,0.0001976490020751953,0.0001976490020751953,0.0035123825073242188,0
0.7500147819519043,-0.023474685847759247,0.019133426249027252,0.1236497089266777,-0.0017051111747211673,0.7507572729633287,0.02030956745147705,0.004380697850137949,1.3859281777772736e-11,0.0,0.8,-0.8,-0.0017051111747211673,0.00022602081298828125,0.00022602081298828125,0.004050016403198242,0
0.7598166465759277,-0.023106897249817848,0.0192806925624609,0.11710046231746674,-0.0017007689516752404,0.7486740761328815,0.018672844395041466,0.007813439704477787,1.3082840366607229e-11,0.0,0.8,-0.8,-0.0017007689516752404,0.0001881122589111328,0.0001881122589111328,0.0034894943237304688,0
0.7698855400085449,-0.022750727832317352,0.019459983333945274,0.11051379889249802,-0.0016962557948451429,0.7467552406097053,0.015579582192003727,0.010784157551825047,1.2275819250007203e-11,0.0,0.8,-0.8,-0.0016962557948451429,0.0003066062927246094,0.0003066062927246094,0.0036361217498779297,0
0.780052900314331,-0.022406738251447678,0.019670434296131134,0.10389116406440735,-0.0017160834016349661,0.7449576172802989,0.0147602753713727,0.012578670866787434,1.5821274845784217e-11,0.0,0.8,-0.8,-0.0017160834016349661,0.0002448558807373047,0.0002448558807373047,0.0037102699279785156,0
0.7897670269012451,-0.02174953930079937,0.02018117718398571,0.09054622799158096,-0.0017649267290753045,0.7428174846904874,0.01505975890904665,0.018999258056282997,2.455515998867064e-11,0.0,0.8,-0.8,-0.0017649267290753045,0.00020623207092285156,0.00020623207092285156,0.0032629966735839844,0
0.8000397682189941,-0.021435793489217758,0.020481491461396217,0.08382848650217056,-0.0017800736677347304,0.7408903020013967,0.011073175817728043,0.01960102654993534,2.726363926286446e-11,0.0,0.8,-0.8,-0.0017800736677347304,0.00021982192993164062,0.00021982192993164062,0.004714488983154297,0
0.8099236488342285,-0.02113189361989498,0.020811546593904495,0.077036052942276,-0.0017913508830378125,0.7391189948392302,0.008756325580179691,0.020070485770702362,-2.8927481937612853e-11,0.0,0.8,-0.8,-0.0017913508830378125,0.00020956993103027344,0.00020956993103027344,0.0033903121948242188,0
0.8199148178100586,-0.02083730325102806,0.021169988438487053,0.07022079825401306,-0.0018004835969820249,0.737469850203576,0.006659290287643671,0.02012280374765396,2.63641261599723e-11,0.0,0.8,-0.8,-0.0018004835969820249,0.00021767616271972656,0.00021767616271972656,0.0034339427947998047,0
0.83011794090271,-0.020281435921788216,0.021972129121422768,0.05653415620326996,-0.001765416884013139,0.735526405926228,0.0012702278327196836,0.023739194497466087,2.46428190353587e-11,0.0,0.8,-0.8,-0.001765416884013139,0.00022411346435546875,0.00022411346435546875,0.0036232471466064453,0
0.8400263786315918,-0.020015094429254532,0.02241668850183487,0.04966703802347183,-0.0017465326749498947,0.7337809589454535,-0.002265659859403968,0.02391682006418705,2.1266023664257006e-11,0.0,0.8,-0.8,-0.0017465326749498947,0.0002079010009765625,0.0002079010009765625,0.0033652782440185547,0
0.8502590656280518,-0.019755894318223,0.022890692576766014,0.04278590902686119,-0.0017360008043138745,0.7321758377891057,-0.0063510462641716,0.023365125060081482,1.9382780103160968e-11,0.0,0.8,-0.8,-0.0017360008043138745,0.00039315223693847656,0.00039315223693847656,0.004715442657470703,0
0.8599743843078613,-0.01950475387275219,0.023394882678985596,0.035892900079488754,-0.0017240472828979451,0.7306827387757614,-0.010225217789411545,0.022462109103798866,1.7245323225001385e-11,0.0,0.8,-0.8,-0.0017240472828979451,0.00021648406982421875,0.00021648406982421875,0.0034575462341308594,0
0.8697443008422852,-0.01926119439303875,0.023928558453917503,0.028990555554628372,-0.0017185674791102739,0.7292755121188614,-0.012713651172816753,0.021902253851294518,1.6265461200148934e-11,0.0,0.8,-0.8,-0.0017185674791102739,0.00021505355834960938,0.00021505355834960938,0.003204345703125,0
0.8799002170562744,-0.0187983401119709,0.02507735788822174,0.015119270421564579,-0.001749364078663339,0.727589043547581,-0.01865684613585472,0.022931046783924103,2.17723269968495e-11,0.0,0.8,-0.8,-0.001749364078663339,0.00021386146545410156,0.00021386146545410156,0.0033545494079589844,0
0.8897805213928223,-0.018579119816422462,0.025691965594887733,0.008155069313943386,-0.0017632761599488743,0.7260645026267621,-0.020117951557040215,0.021557031199336052,2.4260021075361848e-11,0.0,0.8,-0.8,-0.0017632761599488743,0.0002503395080566406,0.0002503395080566406,0.003720998764038086,0
0.8998334407806396,-0.018367495387792587,0.026334159076213837,0.0011902437545359135,-0.0017652309000675253,0.7246680392739856,-0.022985395044088364,0.020795676857233047,2.4609553977983367e-11,0.0,0.8,-0.8,-0.0017652309000675253,0.00024890899658203125,0.00024890899658203125,0.0036759376525878906,0
0.9099831581115723,-0.017963062971830368,0.027702342718839645,-0.012734643183648586,-0.0017559270789992269,0.7230422984270006,-0.03415244445204735,0.02293037623167038,2.2945888245029522e-11,0.0,0.8,-0.8,-0.0017559270789992269,0.0002377033233642578,0.0002377033233642578,0.003329038619995117,0
0.9199721813201904,-0.017770562320947647,0.02842748537659645,-0.019692592322826385,-0.0017758673656366928,0.7215878300583572,-0.03444322198629379,0.021770361810922623,2.6511511735938242e-11,0.0,0.8,-0.8,-0.0017758673656366928,0.00019693374633789062,0.00019693374633789062,0.0033309459686279297,0
0.9297490119934082,-0.01758383773267269,0.029180647805333138,-0.026644760742783546,-0.001780919067020343,0.7202678678334291,-0.035598039627075195,0.021121161058545113,2.741481000545498e-11,0.0,0.8,-0.8,-0.001780919067020343,0.00020456314086914062,0.00020456314086914062,0.0031337738037109375,0
0.940115213394165,-0.01740211993455887,0.029960207641124725,-0.03358931839466095,-0.0017578862054041307,0.719042543156337,-0.034908175468444824,0.020753992721438408,2.3296212181556086e-11,0.0,0.8,-0.8,-0.0017578862054041307,0.0002129077911376953,0.0002129077911376953,0.0033998489379882812,0
0.949927568435669,-0.01705153100192547,0.03159528225660324,-0.04749507084488869,-0.0016938929611072415,0.7176109634171989,-0.04673236981034279,0.024210870265960693,1.18533238779861e-11,0.0,0.8,-0.8,-0.0016938929611072415,0.0003402233123779297,0.0003402233123779297,0.0037300586700439453,0
0.9600193500518799,-0.01688247174024582,0.032450832426548004,-0.05445196479558945,-0.001680922104812874,0.7163267957748294,-0.04433861002326012,0.023464184254407883,9.533950018347781e-12,0.0,0.8,-0.8,-0.001680922104812874,0.0002086162567138672,0.0002086162567138672,0.003235340118408203,0
0.9697871208190918,-0.01671738177537918,0.03332918882369995,-0.061394594609737396,-0.0016700559696820553,0.715158880219065,-0.042092807590961456,0.021842529997229576,7.59094176405739e-12,0.0,0.8,-0.8,-0.0016700559696820553,0.00023055076599121094,0.00023055076599121094,0.0036187171936035156,0
0.9798033237457275,-0.016558773815631866,0.034230493009090424,-0.06832113116979599,-0.0016656218256609196,0.7140778525423721,-0.04121154174208641,0.01944005861878395,6.798055174339623e-12,0.0,0.8,-0.8,-0.0016656218256609196,0.00020003318786621094,0.00020003318786621094,0.0033502578735351562,0
0.9898712635040283,-0.016255848109722137,0.03610644116997719,-0.0821218490600586,-0.0016674469662904116,0.7128071727045721,-0.057774387300014496,0.02148829959332943,7.124398293534284e-12,0.0,0.8,-0.8,-0.0016674469662904116,0.00020503997802734375,0.00020503997802734375,0.003313302993774414,0
0.999807596206665,-0.016112754121422768,0.037081483751535416,-0.08899348229169846,-0.001656130904824006,0.7116731177019479,-0.05453488975763321,0.019099242985248566,5.1009335644280895e-12,0.0,0.8,-0.8,-0.001656130904824006,0.00020933151245117188,0.00020933151245117188,0.0038840770721435547,0
1.009789228439331,-0.015975555405020714,0.03807968646287918,-0.0958436131477356,-0.0016218570465784934,0.7106429546970726,-0.052788618952035904,0.01773487590253353,8.84487188351768e-12,0.0,0.8,-0.8,-0.0016218570465784934,0.00023221969604492188,0.00023221969604492188,0.003061532974243164,0
1.0199284553527832,-0.015842434018850327,0.03910040855407715,-0.10267093032598495,-0.0015942197802632939,0.7096906816803563,-0.05126909911632538,0.017616719007492065,4.726604524440958e-12,0.0,0.8,-0.8,-0.0015942197802632939,0.0002455711364746094,0.0002455711364746094,0.0033440589904785156,0
1.029773473739624,-0.015587817877531052,0.04120612144470215,-0.11633124947547913,-0.0015573405834131658,0.7085704978540832,-0.06393659114837646,0.018381984904408455,-7.68825975105969e-13,0.0,0.8,-0.8,-0.0015573405834131658,0.00018453598022460938,0.00018453598022460938,0.003231525421142578,0
1.0399234294891357,-0.015467588789761066,0.04229195788502693,-0.1231221929192543,-0.0015379382117352135,0.7075716299499383,-0.06266367435455322,0.017268404364585876,-3.6600028563427145e-12,0.0,0.8,-0.8,-0.0015379382117352135,0.0002155303955078125,0.0002155303955078125,0.0035126209259033203,0
1.0499796867370605,-0.015351914800703526,0.043400898575782776,-0.1298855096101761,-0.001532397830913104,0.7066602057248145,-0.060307856649160385,0.01568843051791191,-4.4855924530295965e-12,0.0,0.8,-0.8,-0.001532397830913104,0.0004923343658447266,0.0004923343658447266,0.004251718521118164,0
1.059849500656128,-0.01524229533970356,0.044530387967824936,-0.13662050664424896,-0.0015374168257504708,0.7058175196655878,-0.05793463811278343,0.013218412175774574,-3.737701120831716e-12,0.0,0.8,-0.8,-0.0015374168257504708,0.00018286705017089844,0.00018286705017089844,0.0030438899993896484,0
1.0698957443237305,-0.015042261220514774,0.04685031250119209,-0.1500021517276764,-0.0015217371265544694,0.7048343773721398,-0.07201068848371506,0.012081626802682877,-6.074165476155358e-12,0.0,0.8,-0.8,-0.0015217371265544694,0.0002186298370361328,0.0002186298370361328,0.0034759044647216797,0
1.0797793865203857,-0.014950880780816078,0.04803843796253204,-0.15664733946323395,-0.0015041895659224944,0.7039563887425735,-0.06685033440589905,0.011147798039019108,4.6903865340286455e-12,0.0,0.8,-0.8,-0.0015041895659224944,0.0001976490020751953,0.0001976490020751953,0.003366231918334961,0
1.0897672176361084,-0.014863750897347927,0.04924536123871803,-0.1632603108882904,-0.001500321188275706,0.7031640943792246,-0.06339872628450394,0.01100563257932663,4.229241522962779e-12,0.0,0.8,-0.8,-0.001500321188275706,0.00020170211791992188,0.00020170211791992188,0.0032961368560791016,0
1.0999665260314941,-0.014780651777982712,0.050470393151044846,-0.16988582909107208,-0.0014929949241255928,0.7024360176986075,-0.060821302235126495,0.010504846461117268,3.3558845806413995e-12,0.0,0.8,-0.8,-0.0014929949241255928,0.00022482872009277344,0.00022482872009277344,0.003468036651611328,0
1.1097850799560547,-0.014620644971728325,0.05297621339559555,-0.18303002417087555,-0.0015250150275691692,0.7015874874272927,-0.07993800938129425,0.01203098613768816,-5.585719387024568e-12,0.0,0.8,-0.8,-0.0015250150275691692,0.0001800060272216797,0.0001800060272216797,0.0030257701873779297,0
1.1200387477874756,-0.014546899124979973,0.05425798520445824,-0.18954560160636902,-0.0015310293936952697,0.7008362036022098,-0.07487627118825912,0.010066230781376362,-4.68950919763067e-12,0.0,0.8,-0.8,-0.0015310293936952697,0.00021529197692871094,0.00021529197692871094,0.0033750534057617188,0
1.1297824382781982,-0.014479094184935093,0.055558182299137115,-0.1960236132144928,-0.0015468820554995551,0.7001513528701929,-0.07114272564649582,0.00873508956283331,-2.327266851454013e-12,0.0,0.8,-0.8,-0.0015468820554995551,0.00018644332885742188,0.00018644332885742188,0.003473997116088867,0
1.1398677825927734,-0.014415746554732323,0.056875940412282944,-0.20246270298957825,-0.0015543766880592239,0.6995248979862979,-0.06884666532278061,0.008034801110625267,-1.210486572089664e-12,0.0,0.8,-0.8,-0.0015543766880592239,0.00019478797912597656,0.00019478797912597656,0.0031599998474121094,0
1.1502275466918945,-0.01386696845293045,0.059461742639541626,-0.21631751954555511,-0.0015627278599782532,0.6987556729063024,-0.07903245836496353,0.012704904191195965,3.39346606370583e-14,0.0,0.8,-0.8,-0.0015627278599782532,0.0002410411834716797,0.0002410411834716797,0.003881692886352539,0
1.1598784923553467,-0.013389709405601025,0.06072891131043434,-0.22370541095733643,-0.0016054881452461725,0.698036653293569,-0.06879064440727234,0.014155641198158264,6.405712765777949e-12,0.0,0.8,-0.8,-0.0016054881452461725,0.00017380714416503906,0.00017380714416503906,0.0028846263885498047,0
1.1699233055114746,-0.012925449758768082,0.06201308220624924,-0.23109273612499237,-0.001631710825890712,0.6973558647178811,-0.06387536972761154,0.0166896004229784,1.0313193875288729e-11,0.0,0.8,-0.8,-0.001631710825890712,0.00020933151245117188,0.00020933151245117188,0.0032355785369873047,0
1.1800658702850342,-0.012473568320274353,0.06331513822078705,-0.23841078579425812,-0.0016708003448909423,0.6967032854206139,-0.06052420660853386,0.015837809070944786,7.724043626922139e-12,0.0,0.8,-0.8,-0.0016708003448909423,0.00041675567626953125,0.00041675567626953125,0.004659414291381836,0
1.1897642612457275,-0.012037012726068497,0.06463445723056793,-0.2456607073545456,-0.0017092636783681305,0.6960747844894976,-0.05847565457224846,0.01553333643823862,1.460181281442985e-11,0.0,0.8,-0.8,-0.0017092636783681305,0.0002434253692626953,0.0002434253692626953,0.0034112930297851562,0
1.2001230716705322,-0.011202303692698479,0.0673217624425888,-0.2599559724330902,-0.0017975504201881672,0.6953161321135137,-0.07178196310997009,0.019646629691123962,2.5752237148291002e-11,0.0,0.8,-0.8,-0.0017975504201881672,0.00032520294189453125,0.00032520294189453125,0.003645181655883789,0
1.2098212242126465,-0.010803641751408577,0.06868748366832733,-0.26700082421302795,-0.0018455936107213862,0.6946355296612404,-0.06513974815607071,0.018854090943932533,-2.2432854185350237e-11,0.0,0.8,-0.8,-0.0018455936107213862,0.00020051002502441406,0.00020051002502441406,0.0034639835357666016,0
1.22015380859375,-0.01041595358401537,0.07006705552339554,-0.2739775478839874,-0.001891242848578327,0.6940130666431127,-0.061112795025110245,0.01969698816537857,-1.2909654248383085e-11,0.0,0.8,-0.8,-0.001891242848578327,0.00023937225341796875,0.00023937225341796875,0.003496408462524414,0
1.2299368381500244,-0.009672310203313828,0.07286857813596725,-0.28772687911987305,-0.0019726821316159906,0.6933070417562169,-0.07576398551464081,0.022352945059537888,4.6627146588207324e-12,0.0,0.8,-0.8,-0.0019726821316159906,0.0003104209899902344,0.0003104209899902344,0.0040111541748046875,0
1.2399005889892578,-0.00931691937148571,0.07428938150405884,-0.2945444881916046,-0.001997033512809099,0.6926821162988351,-0.06791971623897552,0.020763395354151726,1.0468570454946757e-11,0.0,0.8,-0.8,-0.001997033512809099,0.00020241737365722656,0.00020241737365722656,0.00322723388671875,0
1.2501139640808105,-0.00897475890815258,0.07572244107723236,-0.30129316449165344,-0.0020133895112655637,0.6921222680243246,-0.06394004821777344,0.019139882177114487,1.4368171583067912e-11,0.0,0.8,-0.8,-0.0020133895112655637,0.0002562999725341797,0.0002562999725341797,0.003846883773803711,0
1.2599067687988281,-0.008643693290650845,0.07716770470142365,-0.30797240138053894,-0.0020472139164988004,0.6916130683610522,-0.06101294606924057,0.017853792756795883,-3.297116052403126e-11,0.0,0.8,-0.8,-0.0020472139164988004,0.00022459030151367188,0.00022459030151367188,0.0034530162811279297,0
1.2698209285736084,-0.008011518977582455,0.0800950825214386,-0.32112541794776917,-0.002097208380910538,0.6910316444365547,-0.07716940343379974,0.01965980976819992,-1.956163703242808e-11,0.0,0.8,-0.8,-0.002097208380910538,0.00019121170043945312,0.00019121170043945312,0.0030829906463623047,0
1.2800142765045166,-0.007711009122431278,0.08157646656036377,-0.3275991380214691,-0.0021268191409277203,0.6905250628537972,-0.0700119137763977,0.017062906175851822,-1.161936519222806e-11,0.0,0.8,-0.8,-0.0021268191409277203,0.0002467632293701172,0.0002467632293701172,0.0034286975860595703,0
1.289971113204956,-0.007420980371534824,0.0830676257610321,-0.3340029716491699,-0.0021593000772003237,0.6900822741968079,-0.06490498036146164,0.016074994578957558,-5.49705142516288e-11,0.0,0.8,-0.8,-0.0021593000772003237,0.00023102760314941406,0.00023102760314941406,0.003801107406616211,0
1.2998974323272705,-0.007140781730413437,0.08456776291131973,-0.34033703804016113,-0.002199071937702094,0.6896812648151152,-0.061320722103118896,0.014292753301560879,-4.311756507391351e-11,0.0,0.8,-0.8,-0.002199071937702094,0.0002644062042236328,0.0002644062042236328,0.0036978721618652344,0
1.313352346420288,-0.007140781730413437,0.08456776291131973,-0.34033703804016113,-0.002199071937702094,0.6894005241320783,-0.04298504814505577,0.011505411937832832,-4.311756507391351e-11,0.0,0.8,-0.8,-0.002199071937702094,0.000415802001953125,0.000415802001953125,0.006600618362426758,0
1.3203954696655273,-0.007140781730413437,0.08456776291131973,-0.34033703804016113,-0.002199071937702094,0.689203950192851,-0.030120130628347397,0.00925112422555685,-4.311756507391351e-11,0.0,0.8,-0.8,-0.002199071937702094,0.0005233287811279297,0.0005233287811279297,0.007060050964355469,0
1.3307721614837646,-0.006360319908708334,0.08911985903978348,-0.3590182662010193,-0.0022826692879566366,0.6888259472152269,-0.0684918686747551,0.011617694050073624,4.9825227277366935e-11,0.0,0.8,-0.8,-0.0022826692879566366,0.00039458274841308594,0.00039458274841308594,0.006788730621337891,0
1.3399498462677002,-0.005884426645934582,0.0921911746263504,-0.3711531460285187,-0.002351813848377701,0.6884228323051026,-0.07760917395353317,0.012012439779937267,-4.3922629422432635e-11,0.0,0.8,-0.8,-0.002351813848377701,0.0003819465637207031,0.0003819465637207031,0.0071392059326171875,0
1.3500640392303467,-0.005884426645934582,0.0921911746263504,-0.3711531460285187,-0.002351813848377701,0.6881407314052486,-0.054404184222221375,0.009674533270299435,-4.3922629422432635e-11,0.0,0.8,-0.8,-0.002351813848377701,0.00027751922607421875,0.00027751922607421875,0.008818864822387695,0
1.3599216938018799,-0.005239969585090876,0.09684639424085617,-0.3888446092605591,-0.002483589303349459,0.6877507140587052,-0.08324833959341049,0.011956379748880863,3.0894647951029697e-11,0.0,0.8,-0.8,-0.002483589303349459,0.0004813671112060547,0.0004813671112060547,0.00790858268737793,0
1.3704359531402588,-0.005239969585090876,0.09684639424085617,-0.3888446092605591,-0.002483589303349459,0.6874777377805674,-0.05835418403148651,0.009625460021197796,3.0894647951029697e-11,0.0,0.8,-0.8,-0.002483589303349459,0.0006635189056396484,0.0006635189056396484,0.008892297744750977,0
1.379849910736084,-0.004845848307013512,0.09997496753931046,-0.4003000557422638,-0.0025674912304436506,0.6871904550361367,-0.0691862627863884,0.012008831836283207,2.3502644275197326e-11,0.0,0.8,-0.8,-0.0025674912304436506,0.0003712177276611328,0.0003712177276611328,0.004185199737548828,0
1.3898811340332031,-0.004845848307013512,0.09997496753931046,-0.4003000557422638,-0.0025674912304436506,0.686989397959083,-0.048479847609996796,0.009649987332522869,2.3502644275197326e-11,0.0,0.8,-0.8,-0.0025674912304436506,0.00020623207092285156,0.00020623207092285156,0.003178834915161133,0
1.399906873703003,-0.004310007207095623,0.10469754040241241,-0.41720372438430786,-0.00260400215531801,0.6867142905782251,-0.07578525692224503,0.011563721112906933,3.8736167051744985e-11,0.0,0.8,-0.8,-0.00260400215531801,0.00020575523376464844,0.00020575523376464844,0.003437519073486328,0
1.410003662109375,-0.004310007207095623,0.10469754040241241,-0.41720372438430786,-0.00260400215531801,0.6865217733794786,-0.053101494908332825,0.00929029006510973,3.8736167051744985e-11,0.0,0.8,-0.8,-0.00260400215531801,0.00021147727966308594,0.00021147727966308594,0.0032186508178710938,0
1.4198784828186035,-0.003985503688454628,0.10785874724388123,-0.4281255900859833,-0.0026426563209628207,0.6863269040291067,-0.0629066452383995,0.010848491452634335,5.486399529130992e-11,0.0,0.8,-0.8,-0.0026426563209628207,0.0002205371856689453,0.0002205371856689453,0.0034737586975097656,0
1.4297981262207031,-0.003985503688454628,0.10785874724388123,-0.4281255900859833,-0.0026426563209628207,0.686190538292086,-0.044065240770578384,0.008705236949026585,5.486399529130992e-11,0.0,0.8,-0.8,-0.0026426563209628207,0.00018453598022460938,0.00018453598022460938,0.0032927989959716797,0
1.4399542808532715,-0.0035505001433193684,0.1126040369272232,-0.4439953863620758,-0.002735568383270859,0.6860294603257565,-0.06855630874633789,0.00925945769995451,-5.7674455489209464e-11,0.0,0.8,-0.8,-0.002735568383270859,0.0003571510314941406,0.0003571510314941406,0.004070281982421875,0
1.4500210285186768,-0.0035505001433193684,0.1126040369272232,-0.4439953863620758,-0.002735568383270859,0.68591674177358,-0.04801659286022186,0.007427992299199104,-5.7674455489209464e-11,0.0,0.8,-0.8,-0.002735568383270859,0.00029158592224121094,0.00029158592224121094,0.0039157867431640625,0
1.4598591327667236,-0.0032981703989207745,0.11577078700065613,-0.45429563522338867,-0.0027810434368654006,0.6858190392832182,-0.06062372401356697,0.0051711383275687695,4.553590837730326e-11,0.0,0.8,-0.8,-0.0027810434368654006,0.00020003318786621094,0.00020003318786621094,0.0031347274780273438,0
1.4698214530944824,-0.0032981703989207745,0.11577078700065613,-0.45429563522338867,-0.0027810434368654006,0.6857507158762249,-0.04245111718773842,0.004147858824580908,4.553590837730326e-11,0.0,0.8,-0.8,-0.0027810434368654006,0.0002167224884033203,0.0002167224884033203,0.003474712371826172,0
1.479814052581787,-0.0029836047906428576,0.12051621824502945,-0.4693230092525482,-0.002843517791602446,0.6856860059845791,-0.06564617156982422,0.0016316110268235207,4.3654052594988e-11,0.0,0.8,-0.8,-0.002843517791602446,0.00017905235290527344,0.00017905235290527344,0.0034139156341552734,0
1.4900407791137695,-0.0029836047906428576,0.12051621824502945,-0.4693230092525482,-0.002843517791602446,0.6856408212408518,-0.04596288502216339,0.001311826054006815,4.3654052594988e-11,0.0,0.8,-0.8,-0.002843517791602446,0.00021266937255859375,0.00021266937255859375,0.0033712387084960938,0
1.4998300075531006,-0.0028093773871660233,0.123675137758255,-0.47899848222732544,-0.002889858905877232,0.6856086812147636,-0.05628350377082825,0.0013637276133522391,-4.9282973535458297e-11,0.0,0.8,-0.8,-0.002889858905877232,0.0002162456512451172,0.0002162456512451172,0.0033752918243408203,0
1.509793996810913,-0.0028093773871660233,0.123675137758255,-0.47899848222732544,-0.002889858905877232,0.6855862858400725,-0.03940298780798912,0.0010941983200609684,-4.9282973535458297e-11,0.0,0.8,-0.8,-0.002889858905877232,0.00017714500427246094,0.00017714500427246094,0.0029604434967041016,0
1.519925832748413,-0.0025956733152270317,0.12839998304843903,-0.49301567673683167,-0.002925000486357404,0.6855755453805827,-0.06368539482355118,0.0007875479059293866,5.569279759587431e-11,0.0,0.8,-0.8,-0.002925000486357404,0.0002067089080810547,0.0002067089080810547,0.0033178329467773438,0
1.5297355651855469,-0.0025956733152270317,0.12839998304843903,-0.49301567673683167,-0.002925000486357404,0.6855681860920795,-0.04458174481987953,0.0006311355973593891,5.569279759587431e-11,0.0,0.8,-0.8,-0.002925000486357404,0.00018739700317382812,0.00018739700317382812,0.0033943653106689453,0
1.539900541305542,-0.002480009337887168,0.13153742253780365,-0.5021794438362122,-0.002951183587047423,0.6855716071753103,-0.051747314631938934,2.2817501303507015e-05,-4.667688457971053e-11,0.0,0.8,-0.8,-0.002951183587047423,0.0002002716064453125,0.0002002716064453125,0.0036988258361816406,0
1.5500853061676025,-0.002480009337887168,0.13153742253780365,-0.5021794438362122,-0.002951183587047423,0.6855741133082225,-0.03622261434793472,1.7969607142731547e-05,-4.667688457971053e-11,0.0,0.8,-0.8,-0.002951183587047423,0.0002970695495605469,0.0002970695495605469,0.0038084983825683594,0
1.5598812103271484,-0.0007080917712301016,0.13612236082553864,-0.5184739828109741,-0.003070483390481022,0.6854879852677569,-0.05182734504342079,0.013291222974658012,-3.249508995217809e-11,0.0,0.8,-0.8,-0.003070483390481022,0.00019931793212890625,0.00019931793212890625,0.003233194351196289,0
1.5698719024658203,-0.0007080917712301016,0.13612236082553864,-0.5184739828109741,-0.003070483390481022,0.6854277099135222,-0.03629015013575554,0.01064407080411911,-3.249508995217809e-11,0.0,0.8,-0.8,-0.003070483390481022,0.00021147727966308594,0.00021147727966308594,0.003126859664916992,0
1.57979154586792,0.0009225817047990859,0.13913364708423615,-0.5298788547515869,-0.003252468468052648,0.6852960429035665,-0.039215218275785446,0.01987333782017231,3.700784123594758e-11,0.0,0.8,-0.8,-0.003252468468052648,0.00020551681518554688,0.00020551681518554688,0.0032854080200195312,0
1.589864730834961,0.0009225817047990859,0.13913364708423615,-0.5298788547515869,-0.003252468468052648,0.6852038747994051,-0.027463184669613838,0.01591705158352852,3.700784123594758e-11,0.0,0.8,-0.8,-0.003252468468052648,0.00020074844360351562,0.00020074844360351562,0.0032529830932617188,0
1.599823236465454,0.0031992641743272543,0.1436215341091156,-0.5462879538536072,-0.003515565527198583,0.6850294580460022,-0.03658764809370041,0.028567466884851456,4.651860840976241e-11,0.0,0.8,-0.8,-0.003515565527198583,0.0002257823944091797,0.0002257823944091797,0.0034940242767333984,0
1.6100120544433594,0.0031992641743272543,0.1436215341091156,-0.5462879538536072,-0.003515565527198583,0.684907359183235,-0.02562727779150009,0.022880680859088898,4.651860840976241e-11,0.0,0.8,-0.8,-0.003515565527198583,0.0002105236053466797,0.0002105236053466797,0.003408670425415039,0
1.61973237991333,0.0046101100742816925,0.14659184217453003,-0.5568035840988159,-0.0036720803428965275,0.6847650922409839,-0.03142965957522392,0.027539968490600586,3.7422509535645077e-11,0.0,0.8,-0.8,-0.0036720803428965275,0.00020122528076171875,0.00020122528076171875,0.0033342838287353516,0
1.6299965381622314,0.0046101100742816925,0.14659184217453003,-0.5568035840988159,-0.0036720803428965275,0.6846654940163993,-0.0220122579485178,0.02205152064561844,3.7422509535645077e-11,0.0,0.8,-0.8,-0.0036720803428965275,0.0002582073211669922,0.0002582073211669922,0.004058361053466797,0
1.63979172706604,0.006580980494618416,0.15100780129432678,-0.5718790888786316,-0.003919826539824061,0.6845429401887445,-0.0337604284286499,0.031168092042207718,1.2945200467129325e-11,0.0,0.8,-0.8,-0.003919826539824061,0.00020503997802734375,0.00020503997802734375,0.003420114517211914,0
1.649918556213379,0.006580980494618416,0.15100780129432678,-0.5718790888786316,-0.003919826539824061,0.6844571769701645,-0.02364269085228443,0.024950912222266197,1.2945200467129325e-11,0.0,0.8,-0.8,-0.003919826539824061,0.00021076202392578125,0.00021076202392578125,0.0033729076385498047,0
1.6598715782165527,0.007801063358783722,0.15392741560935974,-0.5814831256866455,-0.004069640024527048,0.6843797709018253,-0.030511653050780296,0.028214026242494583,-6.727351314905761e-11,0.0,0.8,-0.8,-0.004069640024527048,0.000370025634765625,0.000370025634765625,0.006393909454345703,0
1.6699800491333008,0.008385056629776955,0.15537875890731812,-0.5861997604370117,-0.004150217487943058,0.6843225181645622,-0.027472442016005516,0.02622826211154461,2.8914981520244964e-11,0.0,0.8,-0.8,-0.004150217487943058,0.00021576881408691406,0.00021576881408691406,0.003340482711791992,0
1.6798086166381836,0.009501777589321136,0.15826448798179626,-0.5953716039657593,-0.00432118762848194,0.6842833113741488,-0.03184261545538902,0.0299084335565567,-9.98021804088367e-11,0.0,0.8,-0.8,-0.00432118762848194,0.00024175643920898438,0.00024175643920898438,0.0035707950592041016,0
1.6898818016052246,0.009501777589321136,0.15826448798179626,-0.5953716039657593,-0.00432118762848194,0.6842559371786738,-0.022292692214250565,0.02393076755106449,-9.98021804088367e-11,0.0,0.8,-0.8,-0.00432118762848194,0.0002155303955078125,0.0002155303955078125,0.003551959991455078,0
1.699852705001831,0.010559063404798508,0.16112783551216125,-0.6042042970657349,-0.004525651562824581,0.6842497609180382,-0.029273059219121933,0.02658786252140999,-2.1148846562901724e-11,0.0,0.8,-0.8,-0.004525651562824581,0.00018906593322753906,0.00018906593322753906,0.0031893253326416016,0
1.7100253105163574,0.010559063404798508,0.16112783551216125,-0.6042042970657349,-0.004525651562824581,0.684245417583042,-0.020491668954491615,0.021270787343382835,-2.1148846562901724e-11,0.0,0.8,-0.8,-0.004525651562824581,0.00020885467529296875,0.00020885467529296875,0.003250598907470703,0
1.7197763919830322,0.012027954682707787,0.16536559164524078,-0.6168859601020813,-0.004773116804244179,0.6842802034349713,-0.026485983282327652,0.02553822286427021,7.5902839569153e-11,0.0,0.8,-0.8,-0.004773116804244179,0.0001976490020751953,0.0001976490020751953,0.003499269485473633,0
1.7299928665161133,0.012027954682707787,0.16536559164524078,-0.6168859601020813,-0.004773116804244179,0.6843045486289111,-0.018537798896431923,0.02042829990386963,7.5902839569153e-11,0.0,0.8,-0.8,-0.004773116804244179,0.00031757354736328125,0.00031757354736328125,0.004689455032348633,0
1.739966869354248,0.01293504610657692,0.16815002262592316,-0.6250051856040955,-0.004900369531483747,0.684373834660489,-0.024478759616613388,0.02263435535132885,8.436173981607453e-11,0.0,0.8,-0.8,-0.004900369531483747,0.0004305839538574219,0.0004305839538574219,0.004858255386352539,0
1.7497735023498535,0.01293504610657692,0.16815002262592316,-0.6250051856040955,-0.004900369531483747,0.6844223989662712,-0.017130939289927483,0.018104279413819313,8.436173981607453e-11,0.0,0.8,-0.8,-0.004900369531483747,0.0002415180206298828,0.0002415180206298828,0.0033135414123535156,0
1.7598929405212402,0.01419379934668541,0.17226611077785492,-0.6365845203399658,-0.005064891999100993,0.68453903663234,-0.027962179854512215,0.020203178748488426,1.9780566073990258e-12,0.0,0.8,-0.8,-0.005064891999100993,0.0002472400665283203,0.0002472400665283203,0.0032682418823242188,0
1.7698278427124023,0.01419379934668541,0.17226611077785492,-0.6365845203399658,-0.005064891999100993,0.6846207284414553,-0.019565066322684288,0.01615910232067108,1.9780566073990258e-12,0.0,0.8,-0.8,-0.005064891999100993,0.00022602081298828125,0.00022602081298828125,0.0035812854766845703,0
1.7797365188598633,0.014957316219806671,0.17497298121452332,-0.6439149975776672,-0.005184885014792683,0.6847564112512875,-0.024983717128634453,0.014418712817132473,3.8467451446422274e-11,0.0,0.8,-0.8,-0.005184885014792683,0.00020313262939453125,0.00020313262939453125,0.0033254623413085938,0
1.789872169494629,0.014957316219806671,0.17497298121452332,-0.6439149975776672,-0.005184885014792683,0.6848514588761367,-0.01747957058250904,0.011534265242516994,3.8467451446422274e-11,0.0,0.8,-0.8,-0.005184885014792683,0.00021910667419433594,0.00021910667419433594,0.0032501220703125,0
1.7997910976409912,0.015995077788829803,0.17897072434425354,-0.6544451713562012,-0.005352890649478776,0.6850428730330592,-0.027036957442760468,0.01253221184015274,2.5646207379992347e-11,0.0,0.8,-0.8,-0.005352890649478776,0.00019788742065429688,0.00019788742065429688,0.003355741500854492,0
1.809983253479004,0.015995077788829803,0.17897072434425354,-0.6544451713562012,-0.005352890649478776,0.6851768510978913,-0.01891332119703293,0.010026982054114342,2.5646207379992347e-11,0.0,0.8,-0.8,-0.005352890649478776,0.00024437904357910156,0.00024437904357910156,0.003279447555541992,0
1.819889783859253,0.01662374474108219,0.1815955489873886,-0.661128580570221,-0.005432159367757098,0.6853544979816439,-0.026783643290400505,0.010775725357234478,2.55097332146903e-11,0.0,0.8,-0.8,-0.005432159367757098,0.0002186298370361328,0.0002186298370361328,0.0034329891204833984,0
1.8297357559204102,0.01662374474108219,0.1815955489873886,-0.661128580570221,-0.005432159367757098,0.6854788348517101,-0.018736381083726883,0.008623532950878143,2.55097332146903e-11,0.0,0.8,-0.8,-0.005432159367757098,0.00018930435180664062,0.00018930435180664062,0.003037691116333008,0
1.8397698402404785,0.017472634091973305,0.18547473847866058,-0.6706125140190125,-0.005559607612477167,0.6857175064869052,-0.02861565351486206,0.0065076821483671665,5.957566384662272e-11,0.0,0.8,-0.8,-0.005559607612477167,0.00020384788513183594,0.00020384788513183594,0.0031561851501464844,0
1.8497874736785889,0.017472634091973305,0.18547473847866058,-0.6706125140190125,-0.005559607612477167,0.6858844539752647,-0.020013893023133278,0.005213932134211063,5.957566384662272e-11,0.0,0.8,-0.8,-0.005559607612477167,0.00024771690368652344,0.00024771690368652344,0.0036215782165527344,0
1.8597431182861328,0.017972081899642944,0.18801893293857574,-0.6765827536582947,-0.0056219237175119076,0.6861208160963554,-0.026337042450904846,0.004050243180245161,1.1500614349735372e-10,0.0,0.8,-0.8,-0.0056219237175119076,0.00022220611572265625,0.00022220611572265625,0.0031304359436035156,0
1.869945764541626,0.017972081899642944,0.18801893293857574,-0.6765827536582947,-0.0056219237175119076,0.6862861279458007,-0.018420977517962456,0.0032501111272722483,1.1500614349735372e-10,0.0,0.8,-0.8,-0.0056219237175119076,0.0002167224884033203,0.0002167224884033203,0.003256082534790039,0
1.8798303604125977,0.018422028049826622,0.19052709639072418,-0.6824081540107727,-0.005711819615713259,0.68652205150269,-0.02019331604242325,0.001957793952897191,-6.621514447857635e-11,0.0,0.8,-0.8,-0.005711819615713259,0.0001723766326904297,0.0001723766326904297,0.0036382675170898438,0
1.8897736072540283,0.018422028049826622,0.19052709639072418,-0.6824081540107727,-0.005711819615713259,0.6866871201437075,-0.014123499393463135,0.0015778555534780025,-6.621514447857635e-11,0.0,0.8,-0.8,-0.005711819615713259,0.0001881122589111328,0.0001881122589111328,0.003138303756713867,0
1.8998405933380127,0.018997343257069588,0.19421595335006714,-0.6906310319900513,-0.005814665493239306,0.6869906686232055,-0.019909705966711044,-0.003044659039005637,-3.641388579556093e-11,0.0,0.8,-0.8,-0.005814665493239306,0.0002567768096923828,0.0002567768096923828,0.003716707229614258,0
1.9097750186920166,0.018997343257069588,0.19421595335006714,-0.6906310319900513,-0.005814665493239306,0.6872030789446901,-0.013921297155320644,-0.0024165872018784285,-3.641388579556093e-11,0.0,0.8,-0.8,-0.005814665493239306,0.0001983642578125,0.0001983642578125,0.003038644790649414,0
1.9197490215301514,0.019457578659057617,0.19780845940113068,-0.698262095451355,-0.005894919270826617,0.6875514665721854,-0.020961729809641838,-0.0047187721356749535,1.910339941790795e-11,0.0,0.8,-0.8,-0.005894919270826617,0.0002162456512451172,0.0002162456512451172,0.0032753944396972656,0
1.929980993270874,0.01958874613046646,0.19898681342601776,-0.7006774544715881,-0.00591582044734463,0.6878623372772682,-0.01860973797738552,-0.005310148000717163,6.457441525942187e-11,0.0,0.8,-0.8,-0.00591582044734463,0.00019812583923339844,0.00019812583923339844,0.003408670425415039,0
1.9397945404052734,0.01970759592950344,0.20015564560890198,-0.7030853629112244,-0.005935933200293878,0.6881457273245856,-0.016949545592069626,-0.006252317223697901,5.24039700522394e-11,0.0,0.8,-0.8,-0.005935933200293878,0.00020074844360351562,0.00020074844360351562,0.0031697750091552734,0
1.9500858783721924,0.01970759592950344,0.20015564560890198,-0.7030853629112244,-0.005935933200293878,0.6883440714561124,-0.011853041127324104,-0.004982765763998032,5.24039700522394e-11,0.0,0.8,-0.8,-0.005935933200293878,0.0003101825714111328,0.0003101825714111328,0.003990650177001953,0
1.959803819656372,0.02082148939371109,0.20376136898994446,-0.7131924033164978,-0.006035730889870896,0.6885353511415959,-0.010259740054607391,0.002610690426081419,-6.624084614159642e-11,0.0,0.8,-0.8,-0.006035730889870896,0.0002257823944091797,0.0002257823944091797,0.0034875869750976562,0
1.9698894023895264,0.02082148939371109,0.20376136898994446,-0.7131924033164978,-0.006035730889870896,0.6886691321460476,-0.007176790852099657,0.0020965023431926966,-6.624084614159642e-11,0.0,0.8,-0.8,-0.006035730889870896,0.0002186298370361328,0.0002186298370361328,0.0032148361206054688,0
1.9797348976135254,0.021755767986178398,0.20615309476852417,-0.7205551266670227,-0.006132589292777625,0.6887691756781574,-0.004728271625936031,0.005153477657586336,2.9436730830667557e-12,0.0,0.8,-0.8,-0.006132589292777625,0.00020384788513183594,0.00020384788513183594,0.0033152103424072266,0
1.9897980690002441,0.021755767986178398,0.20615309476852417,-0.7205551266670227,-0.006132589292777625,0.6888392184089226,-0.0033091334626078606,0.004126398824155331,2.9436730830667557e-12,0.0,0.8,-0.8,-0.006132589292777625,0.00020456314086914062,0.00020456314086914062,0.0030913352966308594,0
2.0000011920928955,0.0230183657258749,0.20964421331882477,-0.7308858633041382,-0.006248607430323897,0.6889122654009125,-0.003825207008048892,0.007741438690572977,-9.656075938835329e-11,0.0,0.8,-0.8,-0.006248607430323897,0.00035953521728515625,0.00035953521728515625,0.004931449890136719,0
2.0098071098327637,0.0230183657258749,0.20964421331882477,-0.7308858633041382,-0.006248607430323897,0.6889633625840936,-0.002677197102457285,0.00619547301903367,-9.656075938835329e-11,0.0,0.8,-0.8,-0.006248607430323897,0.0001990795135498047,0.0001990795135498047,0.003020763397216797,0
2.019937515258789,0.023769238963723183,0.2119084596633911,-0.7374051213264465,-0.006324862325056888,0.6890241203537444,-0.0019118452910333872,0.0047227684408426285,1.1181611192512264e-12,0.0,0.8,-0.8,-0.006324862325056888,0.0003604888916015625,0.0003604888916015625,0.0039653778076171875,0
2.030003070831299,0.023769238963723183,0.2119084596633911,-0.7374051213264465,-0.006324862325056888,0.6890667351371492,-0.0013381588505581021,0.003780838567763567,1.1181611192512264e-12,0.0,0.8,-0.8,-0.006324862325056888,0.0002231597900390625,0.0002231597900390625,0.0032885074615478516,0
2.0398635864257812,0.024772368371486664,0.2152077555656433,-0.7465305328369141,-0.006434820328129508,0.6891531457835037,0.0014874335611239076,0.007245979271829128,-7.9620518511625e-11,0.0,0.8,-0.8,-0.006434820328129508,0.0003528594970703125,0.0003528594970703125,0.0042917728424072266,0
2.0498828887939453,0.024772368371486664,0.2152077555656433,-0.7465305328369141,-0.006434820328129508,0.6892136513644451,0.0010406178189441562,0.005800137296319008,-7.9620518511625e-11,0.0,0.8,-0.8,-0.006434820328129508,0.000255584716796875,0.000255584716796875,0.004084348678588867,0
2.0598578453063965,0.02536206878721714,0.217340886592865,-0.7521955370903015,-0.006520709853149424,0.6893156450368889,-0.0003010437067132443,0.00380733166821301,6.607621394483232e-11,0.0,0.8,-0.8,-0.006520709853149424,0.0002276897430419922,0.0002276897430419922,0.003413677215576172,0
2.069901466369629,0.02536206878721714,0.217340886592865,-0.7521955370903015,-0.006520709853149424,0.689387024849028,-0.00021004969312343746,0.003051063744351268,6.607621394483232e-11,0.0,0.8,-0.8,-0.006520709853149424,0.0002167224884033203,0.0002167224884033203,0.003330707550048828,0
2.0798180103302,0.02612442336976528,0.22044871747493744,-0.7601413130760193,-0.006646309304266427,0.6895412433812435,0.0011368326377123594,-0.0007386641809716821,6.212007991335255e-11,0.0,0.8,-0.8,-0.006646309304266427,0.0001952648162841797,0.0001952648162841797,0.0031173229217529297,0
2.08992600440979,0.02612442336976528,0.22044871747493744,-0.7601413130760193,-0.006646309304266427,0.6896492100926841,0.0007953117019496858,-0.000580991676542908,6.212007991335255e-11,0.0,0.8,-0.8,-0.006646309304266427,0.0002200603485107422,0.0002200603485107422,0.0035250186920166016,0
2.099719285964966,0.026554403826594353,0.2224542498588562,-0.7651289105415344,-0.006698797711227695,0.6897971654165391,0.000774834246840328,-0.0014818755444139242,-9.318223970211648e-11,0.0,0.8,-0.8,-0.006698797711227695,0.0001850128173828125,0.0001850128173828125,0.003093242645263672,0
2.110043525695801,0.026554403826594353,0.2224542498588562,-0.7651289105415344,-0.006698797711227695,0.6899007453471606,0.0005419770022854209,-0.0011757287429645658,-9.318223970211648e-11,0.0,0.8,-0.8,-0.006698797711227695,0.0002295970916748047,0.0002295970916748047,0.0032601356506347656,0
2.1197783946990967,0.027097320184111595,0.22536467015743256,-0.7720507383346558,-0.006753393814492763,0.6900889585989669,0.0033076335676014423,-0.0046607451513409615,2.8199772378334487e-11,0.0,0.8,-0.8,-0.006753393814492763,0.00020647048950195312,0.00020647048950195312,0.0033111572265625,0
2.129905939102173,0.027097320184111595,0.22536467015743256,-0.7720507383346558,-0.006753393814492763,0.6902206970207754,0.0023135500960052013,-0.003714760299772024,2.8199772378334487e-11,0.0,0.8,-0.8,-0.006753393814492763,0.00023126602172851562,0.00023126602172851562,0.0034008026123046875,0
2.1399312019348145,0.027384279295802116,0.22723698616027832,-0.7763094902038574,-0.006790200923803472,0.6904144482485123,0.006435856223106384,-0.006518209353089333,1.0194066424329407e-10,0.0,0.8,-0.8,-0.006790200923803472,0.0003540515899658203,0.0003540515899658203,0.004034280776977539,0
2.1499013900756836,0.027384279295802116,0.22723698616027832,-0.7763094902038574,-0.006790200923803472,0.6905501249130254,0.004502205643802881,-0.005199809093028307,1.0194066424329407e-10,0.0,0.8,-0.8,-0.006790200923803472,0.0002620220184326172,0.0002620220184326172,0.0034339427947998047,0
2.1598777770996094,0.027714034542441368,0.22995597124099731,-0.7823180556297302,-0.006831035421333375,0.6907851320048954,0.0014933260390534997,-0.008579559624195099,-7.256406586719777e-11,0.0,0.8,-0.8,-0.006831035421333375,0.00021028518676757812,0.00021028518676757812,0.003286600112915039,0
2.1700122356414795,0.027714034542441368,0.22995597124099731,-0.7823180556297302,-0.006831035421333375,0.6909497060496325,0.0010445293737575412,-0.0068452004343271255,-7.256406586719777e-11,0.0,0.8,-0.8,-0.006831035421333375,0.00023746490478515625,0.00023746490478515625,0.0036597251892089844,0
2.179755210876465,0.02787136659026146,0.23171082139015198,-0.7860382199287415,-0.006874531856642563,0.6911541016135858,0.003651417326182127,-0.008316323161125183,2.6518953699650183e-11,0.0,0.8,-0.8,-0.006874531856642563,0.0002014636993408203,0.0002014636993408203,0.0030655860900878906,0
2.1899564266204834,0.02787136659026146,0.23171082139015198,-0.7860382199287415,-0.006874531856642563,0.6912971549929899,0.002554504433646798,-0.006637963932007551,2.6518953699650183e-11,0.0,0.8,-0.8,-0.006874531856642563,0.00020694732666015625,0.00020694732666015625,0.0031464099884033203,0
2.1999900341033936,0.027979427948594093,0.23341476917266846,-0.7894996404647827,-0.006891884017226026,0.6915162664152898,0.0025270250625908375,-0.009204370900988579,7.771599336292567e-11,0.0,0.8,-0.8,-0.006891884017226026,0.0002117156982421875,0.0002117156982421875,0.0040171146392822266,0
2.2100961208343506,0.027979427948594093,0.23341476917266846,-0.7894996404647827,-0.006891884017226026,0.6916695570122675,0.0017672523390501738,-0.007347649894654751,7.771599336292567e-11,0.0,0.8,-0.8,-0.006891884017226026,0.00021266937255859375,0.00021266937255859375,0.0031974315643310547,0
2.2199294567108154,0.028053654357790947,0.23588111996650696,-0.7942168116569519,-0.006940742493978808,0.6919558857663727,0.003810569643974304,-0.011198730207979679,-6.292520671191681e-11,0.0,0.8,-0.8,-0.006940742493978808,0.00021648406982421875,0.00021648406982421875,0.003403902053833008,0
2.2298827171325684,0.028053654357790947,0.23588111996650696,-0.7942168116569519,-0.006940742493978808,0.6921563134886952,0.00266492972150445,-0.00893801636993885,-6.292520671191681e-11,0.0,0.8,-0.8,-0.006940742493978808,0.0002148151397705078,0.0002148151397705078,0.003704547882080078,0
2.239762783050537,0.028018655255436897,0.23823843896389008,-0.7985792756080627,-0.00697007471250896,0.6924788640714653,0.00347396032884717,-0.015230302698910236,2.5848767570835207e-13,0.0,0.8,-0.8,-0.00697007471250896,0.00021195411682128906,0.00021195411682128906,0.0032091140747070312,0
2.2499563694000244,0.028018655255436897,0.23823843896389008,-0.7985792756080627,-0.00697007471250896,0.6927046265791565,0.002428740030154586,-0.012158932164311409,2.5848767570835207e-13,0.0,0.8,-0.8,-0.00697007471250896,0.0004279613494873047,0.0004279613494873047,0.005161285400390625,0
2.259876251220703,0.027937835082411766,0.23975148797035217,-0.8011906743049622,-0.007020600038056551,0.693000472887627,0.004344910848885775,-0.015279495157301426,-1.0258473237545473e-10,0.0,0.8,-0.8,-0.007020600038056551,0.0001952648162841797,0.0001952648162841797,0.002979755401611328,0
2.2700021266937256,0.027937835082411766,0.23975148797035217,-0.8011906743049622,-0.007020600038056551,0.6932074917699655,0.003038019174709916,-0.012202405370771885,-1.0258473237545473e-10,0.0,0.8,-0.8,-0.007020600038056551,0.00022268295288085938,0.00022268295288085938,0.0032515525817871094,0
2.279867172241211,0.027733072638511658,0.2419327199459076,-0.8046773076057434,-0.007106880147429539,0.6935606860851916,0.002288192044943571,-0.01856503076851368,9.917380805468667e-11,0.0,0.8,-0.8,-0.007106880147429539,0.00021696090698242188,0.00021696090698242188,0.0035943984985351562,0
2.289806842803955,0.027733072638511658,0.2419327199459076,-0.8046773076057434,-0.007106880147429539,0.693807832538833,0.0015996613074094057,-0.014826216734945774,9.917380805468667e-11,0.0,0.8,-0.8,-0.007106880147429539,0.0001983642578125,0.0001983642578125,0.003170013427734375,0
