time,x,y,z,yaw,throttle,roll_rate,pitch_rate,yaw_rate,x_ref,y_ref,z_ref,yaw_ref,pred_time,nr_time,ctrl_callback_time,metadata
2.6226043701171875e-06,0.1275351196527481,0.158317431807518,1.150866985321045,0.11741412594344726,0.7734375853127801,0.8,0.1485752996481903,0.0,0.0,0.8,-0.8,0.11741412594344726,0.00127410888671875,0.00127410888671875,0.003133535385131836,Sim
0.00855398178100586,0.1275351196527481,0.158317431807518,1.150866985321045,0.11741412594344726,0.8255690324242686,0.8,0.09667768213445797,0.0,0.0,0.8,-0.8,0.11741412594344726,0.0008444786071777344,0.0008444786071777344,0.0018014907836914062,flat wardi normal
0.018549442291259766,0.12788909673690796,0.15754513442516327,1.1491646766662598,0.11742181354932536,0.8604075888355946,0.8,0.07145937525286604,0.0,0.0,0.8,-0.8,0.11742181354932536,0.0008914470672607422,0.0008914470672607422,0.0018393993377685547,1x Speed
0.028421878814697266,0.1282108575105667,0.15682867169380188,1.1475861072540283,0.11744350686728658,0.8840488194432938,0.7073885005630972,0.055710988389121564,0.0,0.0,0.8,-0.8,0.11744350686728658,0.0006465911865234375,0.0006465911865234375,0.0013709068298339844,QuatYawError
0.03840327262878418,0.12899991869926453,0.1550002098083496,1.1435580253601074,0.11746491378511217,0.900146529345732,0.48086697828443986,0.04938566714611078,0.0,0.0,0.8,-0.8,0.11746491378511217,0.0008435249328613281,0.0008435249328613281,0.0018126964569091797,0
0.04871034622192383,0.12899991869926453,0.1550002098083496,1.1435580253601074,0.11746491378511217,0.911269580260391,0.3220405891863767,0.03924585067962376,0.0,0.0,0.8,-0.8,0.11746491378511217,0.0010137557983398438,0.0010137557983398438,0.0022161006927490234,0
0.058567047119140625,0.12920552492141724,0.15449291467666626,1.1424274444580078,0.11748078094599866,0.9189504377063079,0.22304520254908033,0.03237850999013601,0.0,0.0,0.8,-0.8,0.11748078094599866,0.0008144378662109375,0.0008144378662109375,0.0018126964569091797,0
0.06866908073425293,0.1293826848268509,0.15403461456298828,1.1414040327072144,0.11748438074314886,0.924259361568676,0.15777502015180037,0.02715397354311678,0.0,0.0,0.8,-0.8,0.11748438074314886,0.0011444091796875,0.0011444091796875,0.0024025440216064453,0
0.07847309112548828,0.12980037927627563,0.1529344618320465,1.1389480829238892,0.11750913164799025,0.9278740554422522,0.11890671831378904,0.024794915068203235,0.0,0.0,0.8,-0.8,0.11750913164799025,0.0006763935089111328,0.0006763935089111328,0.0014424324035644531,0
0.08855485916137695,0.12980037927627563,0.1529344618320465,1.1389480829238892,0.11750913164799025,0.9303973393872609,0.08242247855559277,0.020059485909333357,0.0,0.0,0.8,-0.8,0.11750913164799025,0.0007944107055664062,0.0007944107055664062,0.0017442703247070312,0
0.09837150573730469,0.12992233037948608,0.15265421569347382,1.1383291482925415,0.1175138146724615,0.9321417903114609,0.060205015382109366,0.016763053823694418,0.0,0.0,0.8,-0.8,0.1175138146724615,0.00079345703125,0.00079345703125,0.0016393661499023438,0
0.10852885246276855,0.13009081780910492,0.15222406387329102,1.1373716592788696,0.11752902112335031,0.9333373743196114,0.04520227662145003,0.015366656126072083,0.0,0.0,0.8,-0.8,0.11752902112335031,0.001007080078125,0.001007080078125,0.0020627975463867188,0
0.11836814880371094,0.13016122579574585,0.15195925533771515,1.1367521286010742,0.11753805665870762,0.9341560527053651,0.035231441288556126,0.01219645050900674,0.0,0.0,0.8,-0.8,0.11753805665870762,0.0007004737854003906,0.0007004737854003906,0.0015354156494140625,0
0.12879395484924316,0.13016122579574585,0.15195925533771515,1.1367521286010742,0.11753805665870762,0.9347288311124566,0.02460746344768827,0.00984053653515268,0.0,0.0,0.8,-0.8,0.11753805665870762,0.0010597705841064453,0.0010597705841064453,0.0021734237670898438,0
0.138777494430542,0.13015973567962646,0.15188418328762054,1.1365612745285034,0.11754257611936039,0.93512783627248,0.018583477054245304,0.00831251233405269,0.0,0.0,0.8,-0.8,0.11754257611936039,0.0010540485382080078,0.0010540485382080078,0.002264738082885742,0
0.14860296249389648,0.13013634085655212,0.15184615552425385,1.1364537477493286,0.11756592828198177,0.9354053083203498,0.014459033408485887,0.00716161394687072,0.0,0.0,0.8,-0.8,0.11756592828198177,0.001112222671508789,0.001112222671508789,0.002667665481567383,0
0.15829253196716309,0.1300470530986786,0.15193477272987366,1.1366207599639893,0.11762415025676053,0.9356076226693267,0.01156241050010323,0.005738053931338962,0.0,0.0,0.8,-0.8,0.11762415025676053,0.0007507801055908203,0.0007507801055908203,0.0015559196472167969,0
0.1688823699951172,0.1300470530986786,0.15193477272987366,1.1366207599639893,0.11762415025676053,0.9357492461346044,0.008089264096452118,0.004615089996186988,0.0,0.0,0.8,-0.8,0.11762415025676053,0.0013871192932128906,0.0013871192932128906,0.002736330032348633,0
0.17881226539611816,0.12999269366264343,0.15203791856765747,1.1368299722671509,0.11766051056259845,0.9358569772559024,0.004294271113826637,0.003013321532582906,0.0,0.0,0.8,-0.8,0.11766051056259845,0.0009028911590576172,0.0009028911590576172,0.0018990039825439453,0
0.18872690200805664,0.12981419265270233,0.1523539274930954,1.137463927268982,0.11773796182824539,0.9359453815428019,-0.0012064979511491256,0.0011113733539850415,0.0,0.0,0.8,-0.8,0.11773796182824539,0.0008842945098876953,0.0008842945098876953,0.0020699501037597656,0
0.19833040237426758,0.12954942882061005,0.15280750393867493,1.1383386850357056,0.11776608792996705,0.9360343488960295,-0.004562306824892961,0.0004347045624510967,0.0,0.0,0.8,-0.8,0.11776608792996705,0.0008122920989990234,0.0008122920989990234,0.0017499923706054688,0
0.20861458778381348,0.12954942882061005,0.15280750393867493,1.1383386850357056,0.11776608792996705,0.9360966241775149,-0.0031928471103063985,0.0003597904185230607,0.0,0.0,0.8,-0.8,0.11776608792996705,0.0009543895721435547,0.0009543895721435547,0.0019707679748535156,0
0.21856999397277832,0.12938541173934937,0.1530863344669342,1.1388763189315796,0.1177910570737274,0.9361588862421087,-0.006184005944827904,-0.0009368492400538598,0.0,0.0,0.8,-0.8,0.1177910570737274,0.0007748603820800781,0.0007748603820800781,0.0016262531280517578,0
0.2284557819366455,0.12920011579990387,0.15339846909046173,1.139479160308838,0.11780277878788059,0.9362204279109462,-0.006593619276539178,-0.001461797347886975,0.0,0.0,0.8,-0.8,0.11780277878788059,0.0008289813995361328,0.0008289813995361328,0.0017328262329101562,0
0.23827171325683594,0.1286994069814682,0.15450407564640045,1.1416757106781006,0.11784899674134418,0.9363358746974534,-0.01634972102978854,-0.004971541767111052,0.0,0.0,0.8,-0.8,0.11784899674134418,0.0007216930389404297,0.0007216930389404297,0.0014851093292236328,0
0.24869227409362793,0.1286994069814682,0.15450407564640045,1.1416757106781006,0.11784899674134418,0.9364166714638059,-0.011441233134195592,-0.003960420790535874,0.0,0.0,0.8,-0.8,0.11784899674134418,0.0013265609741210938,0.0013265609741210938,0.002424955368041992,0
0.25843024253845215,0.12848836183547974,0.1549377292394638,1.1425285339355469,0.1178649943022796,0.9365017482030116,-0.012751539493578089,-0.0043680353810461444,0.0,0.0,0.8,-0.8,0.1178649943022796,0.0007107257843017578,0.0007107257843017578,0.001516580581665039,0
0.2685661315917969,0.12800881266593933,0.1558992564678192,1.1443891525268555,0.11788334122381268,0.9366292905205387,-0.01890574410125692,-0.004750884092834887,0.0,0.0,0.8,-0.8,0.11788334122381268,0.0008177757263183594,0.0008177757263183594,0.0016338825225830078,0
0.27835702896118164,0.12745071947574615,0.15698039531707764,1.1464523077011108,0.11794300595924073,0.9367805404733915,-0.024179018487209415,-0.007264676494968399,0.0,0.0,0.8,-0.8,0.11794300595924073,0.0009403228759765625,0.0009403228759765625,0.0018699169158935547,0
0.28839993476867676,0.12745071947574615,0.15698039531707764,1.1464523077011108,0.11794300595924073,0.9368863973319376,-0.016918395689405175,-0.005789575601137908,0.0,0.0,0.8,-0.8,0.11794300595924073,0.0008563995361328125,0.0008563995361328125,0.0017025470733642578,0
0.29846644401550293,0.12714244425296783,0.15756532549858093,1.1475621461868286,0.1179658735701291,0.9369971898720396,-0.017341523662980987,-0.006240975929035001,0.0,0.0,0.8,-0.8,0.1179658735701291,0.0007190704345703125,0.0007190704345703125,0.0015616416931152344,0
0.30843019485473633,0.12661272287368774,0.1587933897972107,1.1499513387680054,0.11799523657262934,0.9371582449668153,-0.021679588841583924,-0.008185935548193113,0.0,0.0,0.8,-0.8,0.11799523657262934,0.0007572174072265625,0.0007572174072265625,0.0017232894897460938,0
0.318265438079834,0.12600719928741455,0.1601281315088272,1.1525357961654663,0.11804566222863037,0.9373538212513042,-0.027528882952879235,-0.008424342754627832,0.0,0.0,0.8,-0.8,0.11804566222863037,0.0006296634674072266,0.0006296634674072266,0.0013058185577392578,0
0.3287084102630615,0.12600719928741455,0.1601281315088272,1.1525357961654663,0.11804566222863037,0.9374907010081618,-0.019260042177161023,-0.006711429007122652,0.0,0.0,0.8,-0.8,0.11804566222863037,0.000926971435546875,0.000926971435546875,0.0019345283508300781,0
0.33861804008483887,0.12567777931690216,0.16083471477031708,1.1538997888565063,0.11805383756251785,0.9376368992720111,-0.019553109058323297,-0.007031910664301085,0.0,0.0,0.8,-0.8,0.11805383756251785,0.0010721683502197266,0.0010721683502197266,0.002195596694946289,0
0.3486595153808594,0.1253291517496109,0.16156598925590515,1.1552852392196655,0.11806979406348998,0.9377866721771532,-0.019693462802834454,-0.007628478455297778,0.0,0.0,0.8,-0.8,0.11806979406348998,0.0010464191436767578,0.0010464191436767578,0.002056598663330078,0
0.35837459564208984,0.12417356669902802,0.16391116380691528,1.1597182750701904,0.11810017803811468,0.9380491562743821,-0.036269569288302696,-0.012667900099147304,0.0,0.0,0.8,-0.8,0.11810017803811468,0.0010502338409423828,0.0010502338409423828,0.0023415088653564453,0
0.3687019348144531,0.12417356669902802,0.16391116380691528,1.1597182750701904,0.11810017803811468,0.9382328623812937,-0.025370718408467885,-0.010096037512218926,0.0,0.0,0.8,-0.8,0.11810017803811468,0.0019347667694091797,0.0019347667694091797,0.003474712371826172,0
0.3786947727203369,0.12382392585277557,0.1647384762763977,1.1612908840179443,0.11810046499089,0.9384157181880001,-0.02562995881744719,-0.010168906825441602,0.0,0.0,0.8,-0.8,0.11810046499089,0.0006215572357177734,0.0006215572357177734,0.0013570785522460938,0
0.3882884979248047,0.12504273653030396,0.1625918298959732,1.156714677810669,0.11815189274109526,0.9384029269400732,0.001301612816191949,-0.0005921114276590889,0.0,0.0,0.8,-0.8,0.11815189274109526,0.0007610321044921875,0.0007610321044921875,0.001592874526977539,0
0.3983170986175537,0.12611638009548187,0.16069358587265015,1.1526892185211182,0.1181734920777079,0.9382692273333674,0.019008846032632466,0.005397136700402855,0.0,0.0,0.8,-0.8,0.1181734920777079,0.0007574558258056641,0.0007574558258056641,0.0016064643859863281,0
0.40855836868286133,0.12611638009548187,0.16069358587265015,1.1526892185211182,0.1181734920777079,0.9381756558653729,0.013310993504496969,0.004303778740846387,0.0,0.0,0.8,-0.8,0.1181734920777079,0.0014603137969970703,0.0014603137969970703,0.0024352073669433594,0
0.41829562187194824,0.12660060822963715,0.1598331481218338,1.1508790254592896,0.11816507372523806,0.9380562134662466,0.0168533265663693,0.006542826973699674,0.0,0.0,0.8,-0.8,0.11816507372523806,0.0008077621459960938,0.0008077621459960938,0.0016410350799560547,0
0.4285886287689209,0.1270502358675003,0.15903137624263763,1.1491948366165161,0.11818430607591603,0.9379156341539865,0.018446808905057586,0.007112516929864536,0.0,0.0,0.8,-0.8,0.11818430607591603,0.001035451889038086,0.001035451889038086,0.002219676971435547,0
0.43840742111206055,0.1282515525817871,0.15695281326770782,1.1448709964752197,0.11820994954741562,0.9376826248006944,0.032751879705053374,0.01265801685266176,0.0,0.0,0.8,-0.8,0.11820994954741562,0.0008053779602050781,0.0008053779602050781,0.0017521381378173828,0
0.4483931064605713,0.1282515525817871,0.15695281326770782,1.1448709964752197,0.11820994954741562,0.9375195662812973,0.022940746492578976,0.010104360924198502,0.0,0.0,0.8,-0.8,0.11820994954741562,0.0009398460388183594,0.0009398460388183594,0.0018734931945800781,0
0.4587087631225586,0.1286241114139557,0.15636076033115387,1.1436636447906494,0.11821316770553732,0.9373644689181435,0.02100242256642725,0.01027738173813319,0.0,0.0,0.8,-0.8,0.11821316770553732,0.0009860992431640625,0.0009860992431640625,0.002158641815185547,0
0.46848201751708984,0.12927788496017456,0.15532824397087097,1.1415724754333496,0.11822355545539137,0.9371874962511964,0.02531832228597466,0.012564204331509152,0.0,0.0,0.8,-0.8,0.11822355545539137,0.0008168220520019531,0.0008168220520019531,0.0017020702362060547,0
0.478590726852417,0.12981395423412323,0.15448710322380066,1.1398955583572388,0.118256565062809,0.9370032296359118,0.02598066272467514,0.012805320001740547,0.0,0.0,0.8,-0.8,0.118256565062809,0.0011501312255859375,0.0011501312255859375,0.0024352073669433594,0
0.4900975227355957,0.12981395423412323,0.15448710322380066,1.1398955583572388,0.118256565062809,0.9368742940964442,0.01819552423292795,0.010225225034154645,0.0,0.0,0.8,-0.8,0.118256565062809,0.0014078617095947266,0.0014078617095947266,0.004149198532104492,0
0.49834585189819336,0.13003884255886078,0.15413683652877808,1.1392059326171875,0.11829911021145226,0.936762937239264,0.01493798746243136,0.009688778977038855,0.0,0.0,0.8,-0.8,0.11829911021145226,0.0007121562957763672,0.0007121562957763672,0.001505136489868164,0
0.5084710121154785,0.13040682673454285,0.15357236564159393,1.138110876083374,0.11835055436491831,0.9366496148936144,0.016152273846618107,0.010297187658954859,0.0,0.0,0.8,-0.8,0.11835055436491831,0.0010683536529541016,0.0010683536529541016,0.0023424625396728516,0
0.5183961391448975,0.13078874349594116,0.15316101908683777,1.137391448020935,0.11837414136886656,0.9365504823671681,0.016799622540966994,0.011273643592564967,0.0,0.0,0.8,-0.8,0.11837414136886656,0.0009942054748535156,0.0009942054748535156,0.002151966094970703,0
0.5285019874572754,0.13078874349594116,0.15316101908683777,1.137391448020935,0.11837414136886656,0.9364811384985919,0.011762890801025293,0.009007528387224914,0.0,0.0,0.8,-0.8,0.11837414136886656,0.00089263916015625,0.00089263916015625,0.0018620491027832031,0
0.5384716987609863,0.13094232976436615,0.15301567316055298,1.1371614933013916,0.11838812700094416,0.9364283620276573,0.01027484959767211,0.009193726419941406,0.0,0.0,0.8,-0.8,0.11838812700094416,0.0009200572967529297,0.0009200572967529297,0.0019297599792480469,0
0.5484914779663086,0.13117673993110657,0.15284037590026855,1.1369500160217285,0.11842859806741977,0.9363814052987145,0.00995040587667601,0.008838368451773503,0.0,0.0,0.8,-0.8,0.11842859806741977,0.0015690326690673828,0.0015690326690673828,0.003279447555541992,0
0.5584895610809326,0.13130855560302734,0.15282027423381805,1.1370182037353516,0.11845926482461071,0.9363610898824792,0.006898471968753298,0.007657346889398346,0.0,0.0,0.8,-0.8,0.11845926482461071,0.0009469985961914062,0.0009469985961914062,0.0018525123596191406,0
0.5686123371124268,0.13130855560302734,0.15282027423381805,1.1370182037353516,0.11845926482461071,0.9363469020989102,0.004829197053611625,0.0061232179626225436,0.0,0.0,0.8,-0.8,0.11845926482461071,0.0007011890411376953,0.0007011890411376953,0.0015716552734375,0
0.5784187316894531,0.13134199380874634,0.15287113189697266,1.1371707916259766,0.11847505889511409,0.9363460795726442,0.0032636407685461867,0.005322539643348893,0.0,0.0,0.8,-0.8,0.11847505889511409,0.0007810592651367188,0.0007810592651367188,0.0015370845794677734,0
0.5884318351745605,0.13140344619750977,0.15307213366031647,1.1377047300338745,0.11852143567180586,0.936363853905493,0.0009092123948067515,0.005437556132669352,0.0,0.0,0.8,-0.8,0.11852143567180586,0.000568389892578125,0.000568389892578125,0.0012242794036865234,0
0.5984561443328857,0.13143986463546753,0.15340983867645264,1.1385326385498047,0.11854601178458923,0.9364122454180525,-0.002022701348789756,0.005210142190114742,0.0,0.0,0.8,-0.8,0.11854601178458923,0.0007810592651367188,0.0007810592651367188,0.0016553401947021484,0
0.6085827350616455,0.13143986463546753,0.15340983867645264,1.1385326385498047,0.11854601178458923,0.9364461404050565,-0.0014157061963056634,0.004174769243061221,0.0,0.0,0.8,-0.8,0.11854601178458923,0.0009565353393554688,0.0009565353393554688,0.0019307136535644531,0
0.6183469295501709,0.1314231902360916,0.1536291241645813,1.1390489339828491,0.1185597815444475,0.9364832528283643,-0.002586217869452355,0.0034318255362655167,0.0,0.0,0.8,-0.8,0.1185597815444475,0.0004706382751464844,0.0004706382751464844,0.0010373592376708984,0
0.628326416015625,0.13132137060165405,0.1541692614555359,1.1402711868286133,0.11859766295300632,0.9365503366720898,-0.007078757557458134,0.002167409292184056,0.0,0.0,0.8,-0.8,0.11859766295300632,0.0005400180816650391,0.0005400180816650391,0.0012345314025878906,0
0.6382732391357422,0.13112680613994598,0.15483969449996948,1.1417410373687744,0.1186153087551306,0.9366434738886571,-0.011055770297488847,0.0005135401628109114,0.0,0.0,0.8,-0.8,0.1186153087551306,0.0006830692291259766,0.0006830692291259766,0.0014259815216064453,0
0.6485233306884766,0.13112680613994598,0.15483969449996948,1.1417410373687744,0.1186153087551306,0.9367086714033792,-0.007737092849926244,0.00042482025498692666,0.0,0.0,0.8,-0.8,0.1186153087551306,0.0008907318115234375,0.0008907318115234375,0.0019073486328125,0
0.658797025680542,0.1309969127178192,0.1552238017320633,1.1425657272338867,0.11862815990008162,0.9367795658270711,-0.009379639406824312,-0.00024650205688633685,0.0,0.0,0.8,-0.8,0.11862815990008162,0.001409292221069336,0.001409292221069336,0.002832651138305664,0
0.6685957908630371,0.13091231882572174,0.15563209354877472,1.1434553861618042,0.1186476807966968,0.9368598842178656,-0.011213948817694983,-0.0001880669097100834,0.0,0.0,0.8,-0.8,0.1186476807966968,0.0007343292236328125,0.0007343292236328125,0.0016565322875976562,0
0.6786990165710449,0.13052818179130554,0.15704801678657532,1.1464601755142212,0.11865181460979884,0.9370104797440897,-0.022226346531857975,-0.002428975251740903,0.0,0.0,0.8,-0.8,0.11865181460979884,0.0008921623229980469,0.0008921623229980469,0.0019693374633789062,0
0.6885566711425781,0.13052818179130554,0.15704801678657532,1.1464601755142212,0.11865181460979884,0.9371158901134279,-0.015552115887917078,-0.0019196787242260825,0.0,0.0,0.8,-0.8,0.11865181460979884,0.001775503158569336,0.001775503158569336,0.003030538558959961,0
0.6986000537872314,0.13035590946674347,0.15758022665977478,1.147569179534912,0.11868729364809798,0.9372256262806188,-0.015759782543071327,-0.0029970041419837222,0.0,0.0,0.8,-0.8,0.11868729364809798,0.0008633136749267578,0.0008633136749267578,0.0018923282623291016,0
0.7091214656829834,0.1301615685224533,0.15814031660556793,1.1487014293670654,0.11872580154634758,0.9373365637435449,-0.014801295206622217,-0.003553492912522795,0.0,0.0,0.8,-0.8,0.11872580154634758,0.0021255016326904297,0.0021255016326904297,0.004338264465332031,0
0.7182369232177734,0.12945617735385895,0.15998050570487976,1.1523983478546143,0.11877858626447761,0.937530527104701,-0.026135527687653388,-0.0065379706290327085,0.0,0.0,0.8,-0.8,0.11877858626447761,0.0006365776062011719,0.0006365776062011719,0.0013408660888671875,0
0.72879958152771,0.12945617735385895,0.15998050570487976,1.1523983478546143,0.11877858626447761,0.9376662775642028,-0.018285290439194846,-0.005198949249994565,0.0,0.0,0.8,-0.8,0.11877858626447761,0.0008528232574462891,0.0008528232574462891,0.0020287036895751953,0
0.7382915019989014,0.12925493717193604,0.16064037382602692,1.1537330150604248,0.11879874382076337,0.9378014855021941,-0.018792144931523508,-0.005149578244445504,0.0,0.0,0.8,-0.8,0.11879874382076337,0.0004885196685791016,0.0004885196685791016,0.0010857582092285156,0
0.7484924793243408,0.1287924200296402,0.16204042732715607,1.1565370559692383,0.11881052135578635,0.9379852429950584,-0.025964800224012635,-0.006064916157338425,0.0,0.0,0.8,-0.8,0.11881052135578635,0.0006513595581054688,0.0006513595581054688,0.0014235973358154297,0
0.7582697868347168,0.12825214862823486,0.1635448932647705,1.1595196723937988,0.11886716639689344,0.9382085082136125,-0.03245561817791761,-0.007716892414430683,0.0,0.0,0.8,-0.8,0.11886716639689344,0.00063323974609375,0.00063323974609375,0.0013823509216308594,0
0.7686090469360352,0.12825214862823486,0.1635448932647705,1.1595196723937988,0.11886716639689344,0.9383647713618375,-0.022705249635509524,-0.006137844936881129,0.0,0.0,0.8,-0.8,0.11886716639689344,0.0013942718505859375,0.0013942718505859375,0.0023255348205566406,0
0.7789030075073242,0.12795476615428925,0.16433972120285034,1.1610575914382935,0.11888789676972805,0.9385278178411746,-0.02256158182104345,-0.007320467162297477,0.0,0.0,0.8,-0.8,0.11888789676972805,0.0010387897491455078,0.0010387897491455078,0.001995563507080078,0
0.7883830070495605,0.1283711940050125,0.16329598426818848,1.1587493419647217,0.118880312739103,0.9385680815028602,-0.00596984253722825,-0.0033808632169460427,0.0,0.0,0.8,-0.8,0.118880312739103,0.0009081363677978516,0.0009081363677978516,0.0018754005432128906,0
0.7988817691802979,0.12947842478752136,0.1605222076177597,1.1526554822921753,0.11892838796604384,0.9384066595991708,0.024193867980254063,0.0033915463191980123,0.0,0.0,0.8,-0.8,0.11892838796604384,0.0009381771087646484,0.0009381771087646484,0.001953125,0
0.8085875511169434,0.12947842478752136,0.1605222076177597,1.1526554822921753,0.11892838796604384,0.938293679807329,0.01694308342014997,0.0026916794517640877,0.0,0.0,0.8,-0.8,0.11892838796604384,0.0008111000061035156,0.0008111000061035156,0.0016570091247558594,0
0.8184239864349365,0.12981611490249634,0.15970906615257263,1.15088951587677,0.11894405914861561,0.9381542166817237,0.019374911878651726,0.0038963645796763766,0.0,0.0,0.8,-0.8,0.11894405914861561,0.0008378028869628906,0.0008378028869628906,0.001661539077758789,0
0.8285348415374756,0.1303967535495758,0.158253476023674,1.1477272510528564,0.11897573197321105,0.9379516900089981,0.02682678190782573,0.005941377994156816,0.0,0.0,0.8,-0.8,0.11897573197321105,0.000989675521850586,0.000989675521850586,0.002017498016357422,0
0.8385670185089111,0.13086190819740295,0.15700922906398773,1.1450337171554565,0.11900339213302749,0.9377291045818329,0.031683452411350566,0.007582889339841604,0.0,0.0,0.8,-0.8,0.11900339213302749,0.0008206367492675781,0.0008206367492675781,0.0017652511596679688,0
0.8485043048858643,0.13086190819740295,0.15700922906398773,1.1450337171554565,0.11900339213302749,0.9375733276100727,0.022191748877021713,0.0060376863738935685,0.0,0.0,0.8,-0.8,0.11900339213302749,0.0009121894836425781,0.0009121894836425781,0.0017921924591064453,0
0.8586969375610352,0.13105210661888123,0.15646451711654663,1.143855333328247,0.11901658838878246,0.9374269949726135,0.0200099480522135,0.006231412593208707,0.0,0.0,0.8,-0.8,0.11901658838878246,0.0011854171752929688,0.0011854171752929688,0.002316713333129883,0
0.8686583042144775,0.13141508400440216,0.15552018582820892,1.1418285369873047,0.1190660358005917,0.9372574231420915,0.023067670671964406,0.008762763074018293,0.0,0.0,0.8,-0.8,0.1190660358005917,0.0008733272552490234,0.0008733272552490234,0.001974344253540039,0
0.8784205913543701,0.13173313438892365,0.15476316213607788,1.1402196884155273,0.11909248366265918,0.9370867114379375,0.022001571465173952,0.009757850343393524,0.0,0.0,0.8,-0.8,0.11909248366265918,0.0006856918334960938,0.0006856918334960938,0.0014226436614990234,0
0.8886454105377197,0.13173313438892365,0.15476316213607788,1.1402196884155273,0.11909248366265918,0.9369672532226734,0.015408207463095772,0.007784086591807532,0.0,0.0,0.8,-0.8,0.11909248366265918,0.0008404254913330078,0.0008404254913330078,0.0024242401123046875,0
0.8984818458557129,0.13185398280620575,0.15445446968078613,1.1395639181137085,0.11911413835896156,0.9368652928446679,0.013252271701575035,0.006484331819005191,0.0,0.0,0.8,-0.8,0.11911413835896156,0.0007488727569580078,0.0007488727569580078,0.0016124248504638672,0
0.9084296226501465,0.13201908767223358,0.1539713591337204,1.1385314464569092,0.11916392254949391,0.9367495793700354,0.013576962836524457,0.006508125237628214,0.0,0.0,0.8,-0.8,0.11916392254949391,0.0011730194091796875,0.0011730194091796875,0.0022649765014648438,0
0.9185020923614502,0.13208894431591034,0.15365619957447052,1.1378408670425415,0.1192118437387622,0.9366418758833761,0.013568104629228804,0.006047495137123531,0.0,0.0,0.8,-0.8,0.1192118437387622,0.0006544589996337891,0.0006544589996337891,0.0016586780548095703,0
0.9284160137176514,0.13208894431591034,0.15365619957447052,1.1378408670425415,0.1192118437387622,0.9365665083387968,0.009500439511298177,0.004822572190697678,0.0,0.0,0.8,-0.8,0.1192118437387622,0.0007867813110351562,0.0007867813110351562,0.0016088485717773438,0
0.9383502006530762,0.1320890635251999,0.15355877578258514,1.1376235485076904,0.11919496804792337,0.9365044401179226,0.007681322024946294,0.004140969102701091,0.0,0.0,0.8,-0.8,0.11919496804792337,0.0004937648773193359,0.0004937648773193359,0.001108407974243164,0
0.9482932090759277,0.1321227252483368,0.1534949392080307,1.1374950408935547,0.1192119674265683,0.9364579175041454,0.005994444902254337,0.0038600820900131865,0.0,0.0,0.8,-0.8,0.1192119674265683,0.0007030963897705078,0.0007030963897705078,0.0015981197357177734,0
0.9582109451293945,0.13208580017089844,0.1535300761461258,1.1375935077667236,0.11926936501455788,0.9364345046132885,0.005134014395348604,0.0030690263715510385,0.0,0.0,0.8,-0.8,0.11926936501455788,0.00049591064453125,0.00049591064453125,0.0010797977447509766,0
0.9685425758361816,0.13208580017089844,0.1535300761461258,1.1375935077667236,0.11926936501455788,0.9364181293512694,0.0035940379355461774,0.002451634170506601,0.0,0.0,0.8,-0.8,0.11926936501455788,0.0008161067962646484,0.0008161067962646484,0.0016977787017822266,0
0.9793624877929688,0.13203026354312897,0.15362077951431274,1.1377801895141602,0.11928395527474614,0.9364142581548152,0.0018169580309784082,0.002162996959255858,0.0,0.0,0.8,-0.8,0.11928395527474614,0.0006487369537353516,0.0006487369537353516,0.001331329345703125,0
0.9883086681365967,0.13185542821884155,0.15390796959400177,1.1383702754974365,0.11931399201920638,0.9364359244971272,-0.000813966802806914,0.0009548350935828602,0.0,0.0,0.8,-0.8,0.11931399201920638,0.0006840229034423828,0.0006840229034423828,0.0014774799346923828,0
0.9981727600097656,0.13159385323524475,0.1543351411819458,1.1392370462417603,0.11933348304694048,0.9364765678241433,-0.00422631657104869,-0.00024831821403862046,0.0,0.0,0.8,-0.8,0.11933348304694048,0.0004799365997314453,0.0004799365997314453,0.0010416507720947266,0
1.0083074569702148,0.13159385323524475,0.1543351411819458,1.1392370462417603,0.11933348304694048,0.9365050169703493,-0.002958096764611384,-0.00019213323341720861,0.0,0.0,0.8,-0.8,0.11933348304694048,0.0005025863647460938,0.0005025863647460938,0.0011425018310546875,0
1.0185296535491943,0.1314942091703415,0.15459275245666504,1.139777421951294,0.11935248223869353,0.936544739935621,-0.004312182935884244,-0.0004941657480183123,0.0,0.0,0.8,-0.8,0.11935248223869353,0.0009834766387939453,0.0009834766387939453,0.0021066665649414062,0
1.0283937454223633,0.1312314122915268,0.1552070826292038,1.1410521268844604,0.1193875208000746,0.9366094995429628,-0.006908070724197175,-0.0018767609839438005,0.0,0.0,0.8,-0.8,0.1193875208000746,0.0006933212280273438,0.0006933212280273438,0.0014946460723876953,0
1.0387272834777832,0.13088351488113403,0.15594621002674103,1.142465591430664,0.11943632249968894,0.9361616256802786,-0.004367326929839284,-0.0014476473688775757,0.0,0.0,0.8,-0.8,0.11943632249968894,0.0008950233459472656,0.0008950233459472656,0.001844167709350586,0
1.0485446453094482,0.13088351488113403,0.15594621002674103,1.142465591430664,0.11943632249968894,0.9358479901851836,-0.003060832789410929,-0.0012309089364181624,0.0,0.0,0.8,-0.8,0.11943632249968894,0.0008800029754638672,0.0008800029754638672,0.0018017292022705078,0
1.0585746765136719,0.13068531453609467,0.15637347102165222,1.1429991722106934,0.11945336364098491,0.9348590927162429,0.0018756303101415677,0.0019998861884457154,0.0,0.0,0.8,-0.8,0.11945336364098491,0.0007882118225097656,0.0007882118225097656,0.0016777515411376953,0
1.0684788227081299,0.13047555088996887,0.15684588253498077,1.1432706117630005,0.1194621574196197,0.9332075702136405,0.006348244567809874,0.005349565961188787,0.0,0.0,0.8,-0.8,0.1194621574196197,0.0008373260498046875,0.0008373260498046875,0.0017628669738769531,0
1.0786395072937012,0.1299172341823578,0.1585325300693512,1.1422439813613892,0.11947425401327298,0.9287030578449633,0.020919707715933704,0.01791355029457329,0.0,0.0,0.8,-0.8,0.11947425401327298,0.0007140636444091797,0.0007140636444091797,0.0015094280242919922,0
1.0885121822357178,0.1299172341823578,0.1585325300693512,1.1422439813613892,0.11947425401327298,0.925538196724048,0.01482541711982387,0.013754411576211297,0.0,0.0,0.8,-0.8,0.11947425401327298,0.0007271766662597656,0.0007271766662597656,0.0015969276428222656,0
1.098494529724121,0.1297350823879242,0.15919093787670135,1.141236662864685,0.11949020499180137,0.9221382381567996,0.015609017880431925,0.016335697250876927,0.0,0.0,0.8,-0.8,0.11949020499180137,0.0007967948913574219,0.0007967948913574219,0.0017864704132080078,0
1.1083896160125732,0.1293482482433319,0.16065233945846558,1.1382017135620117,0.1195279883730666,0.9173592254213224,0.022762068628262595,0.02332168572992585,0.0,0.0,0.8,-0.8,0.1195279883730666,0.0005822181701660156,0.0005822181701660156,0.0013005733489990234,0
1.1186299324035645,0.12892837822437286,0.16230015456676483,1.1338123083114624,0.11953915295719307,0.9115965670152819,0.02589975458942168,0.028873360946944895,0.0,0.0,0.8,-0.8,0.11953915295719307,0.0005624294281005859,0.0005624294281005859,0.0012235641479492188,0
1.1285243034362793,0.12892837822437286,0.16230015456676483,1.1338123083114624,0.11953915295719307,0.9075432288122058,0.018423376595001744,0.02239245941112085,0.0,0.0,0.8,-0.8,0.11953915295719307,0.0007181167602539062,0.0007181167602539062,0.0015630722045898438,0
1.1384210586547852,0.12870889902114868,0.16319455206394196,1.1310921907424927,0.11954897782257105,0.9034895758996853,0.017265321027358106,0.02382324222552497,0.0,0.0,0.8,-0.8,0.11954897782257105,0.0006320476531982422,0.0006320476531982422,0.0013947486877441406,0
1.1484432220458984,0.12832465767860413,0.165111243724823,1.1246824264526367,0.1195875314526031,0.8982419273537721,0.020087549643683648,0.029504138213710514,0.0,0.0,0.8,-0.8,0.1195875314526031,0.0006206035614013672,0.0006206035614013672,0.001392364501953125,0
1.1583619117736816,0.12815549969673157,0.1661328375339508,1.1210017204284668,0.11961338895093263,0.893365002810627,0.017792254642401827,0.027886702937277776,0.0,0.0,0.8,-0.8,0.11961338895093263,0.0006859302520751953,0.0006859302520751953,0.0015285015106201172,0
1.1684775352478027,0.12797747552394867,0.16719864308834076,1.1170121431350708,0.11964237861483071,0.8887619924019373,0.015229415013906969,0.02731208088447574,0.0,0.0,0.8,-0.8,0.11964237861483071,0.0010004043579101562,0.0010004043579101562,0.001928567886352539,0
1.1790661811828613,0.12779197096824646,0.16830848157405853,1.112720012664795,0.11965103252004904,0.8843591015962095,0.013208342996200165,0.0268443465189253,0.0,0.0,0.8,-0.8,0.11965103252004904,0.0010373592376708984,0.0010373592376708984,0.002173900604248047,0
1.1884245872497559,0.12925098836421967,0.16674908995628357,1.09541916847229,0.1196915327595004,0.8786926151524691,0.05606146917904708,0.044501081428077405,0.0,0.0,0.8,-0.8,0.1196915327595004,0.0008361339569091797,0.0008361339569091797,0.0018906593322753906,0
1.1983835697174072,0.1299440711736679,0.1660909652709961,1.0864895582199097,0.11972980736632333,0.8734454397113918,0.06048825581174255,0.04653951357438989,0.0,0.0,0.8,-0.8,0.11972980736632333,0.0008161067962646484,0.0008161067962646484,0.0016970634460449219,0
1.2086265087127686,0.1306132972240448,0.16551290452480316,1.0773804187774658,0.1197475973243365,0.8685106531023186,0.06366440227788424,0.047439787900343144,0.0,0.0,0.8,-0.8,0.1197475973243365,0.0008897781372070312,0.0008897781372070312,0.001969575881958008,0
1.2182819843292236,0.13125745952129364,0.16501131653785706,1.0680962800979614,0.11973630428335902,0.8638074241461509,0.06678065897039634,0.04767757805825853,0.0,0.0,0.8,-0.8,0.11973630428335902,0.0006616115570068359,0.0006616115570068359,0.0013186931610107422,0
1.2285046577453613,0.1325758844614029,0.16421383619308472,1.0490366220474243,0.1197695336495104,0.8580963455473058,0.09033599774317032,0.060226660996190624,0.0,0.0,0.8,-0.8,0.1197695336495104,0.000545501708984375,0.000545501708984375,0.0012507438659667969,0
1.238372802734375,0.13320089876651764,0.1639208197593689,1.0392656326293945,0.11977341562469566,0.8528987016932784,0.0841517861742378,0.05806557422433258,0.0,0.0,0.8,-0.8,0.11977341562469566,0.0005600452423095703,0.0005600452423095703,0.001321554183959961,0
1.248328447341919,0.1338028609752655,0.16369634866714478,1.029340147972107,0.11979569923052809,0.8480818877915572,0.07901937371238783,0.056303877784175865,0.0,0.0,0.8,-0.8,0.11979569923052809,0.0004379749298095703,0.0004379749298095703,0.0009171962738037109,0
1.2583754062652588,0.13438160717487335,0.1635390967130661,1.01926589012146,0.11981703657788503,0.8435497815738673,0.07443210800302369,0.05421527481195922,0.0,0.0,0.8,-0.8,0.11981703657788503,0.0005071163177490234,0.0005071163177490234,0.0011582374572753906,0
1.2684626579284668,0.13493773341178894,0.16344888508319855,1.0090492963790894,0.11984179333776199,0.8392409128529309,0.0691388970589271,0.05283295740571191,0.0,0.0,0.8,-0.8,0.11984179333776199,0.0006482601165771484,0.0006482601165771484,0.0014734268188476562,0
1.2784969806671143,0.13647307455539703,0.16356021165847778,0.9776073098182678,0.1199010980408156,0.8329319526806956,0.09935806871851142,0.0712834998926328,0.0,0.0,0.8,-0.8,0.1199010980408156,0.0006237030029296875,0.0006237030029296875,0.001285552978515625,0
1.2884283065795898,0.13647307455539703,0.16356021165847778,0.9776073098182678,0.1199010980408156,0.8284909759600717,0.07089151612301922,0.05588299304464617,0.0,0.0,0.8,-0.8,0.1199010980408156,0.0005710124969482422,0.0005710124969482422,0.00128173828125,0
1.2984137535095215,0.13699626922607422,0.16371339559555054,0.966883659362793,0.11993655261541016,0.8243231034583979,0.06440285507598346,0.05320288894965591,0.0,0.0,0.8,-0.8,0.11993655261541016,0.0007407665252685547,0.0007407665252685547,0.0014929771423339844,0
1.3084452152252197,0.1374981552362442,0.16392767429351807,0.9560451507568359,0.11997324624428309,0.8203581613579377,0.05825293075108714,0.05151890171406793,0.0,0.0,0.8,-0.8,0.11997324624428309,0.0006587505340576172,0.0006587505340576172,0.0014801025390625,0
1.3183629512786865,0.13843828439712524,0.16453160345554352,0.9340388178825378,0.12003750118048044,0.815554589578389,0.06661487472102078,0.05771532019118058,0.0,0.0,0.8,-0.8,0.12003750118048044,0.0006592273712158203,0.0006592273712158203,0.0014553070068359375,0
1.32855224609375,0.1388750672340393,0.1649181842803955,0.922881543636322,0.12007902310501864,0.8111966040673414,0.058617053197856636,0.05301850802097137,0.0,0.0,0.8,-0.8,0.12007902310501864,0.0008361339569091797,0.0008361339569091797,0.0017466545104980469,0
1.3384153842926025,0.1392880082130432,0.16536037623882294,0.9116300344467163,0.12012367999840685,0.8071798188156359,0.05126315504030212,0.04730737326512911,0.0,0.0,0.8,-0.8,0.12012367999840685,0.0006995201110839844,0.0006995201110839844,0.0014803409576416016,0
1.3482985496520996,0.14004158973693848,0.16640768945217133,0.8888512849807739,0.12017257881456597,0.8024952096125681,0.053958009784834955,0.05030891956954341,0.0,0.0,0.8,-0.8,0.12017257881456597,0.0005447864532470703,0.0005447864532470703,0.0012328624725341797,0
1.3585703372955322,0.14076584577560425,0.16766205430030823,0.8657439947128296,0.12027208044994926,0.7973969953379387,0.052159018207728225,0.051874429263410224,0.0,0.0,0.8,-0.8,0.12027208044994926,0.0008378028869628906,0.0008378028869628906,0.0017282962799072266,0
1.3686730861663818,0.14076584577560425,0.16766205430030823,0.8657439947128296,0.12027208044994926,0.7938113554820978,0.037101028419907554,0.039809757549132956,0.0,0.0,0.8,-0.8,0.12027208044994926,0.0008814334869384766,0.0008814334869384766,0.001974344253540039,0
1.3787050247192383,0.14112354815006256,0.16836461424827576,0.8540860414505005,0.12031337717885385,0.7904175900151474,0.03254916412772342,0.037172233109503065,0.0,0.0,0.8,-0.8,0.12031337717885385,0.0009000301361083984,0.0009000301361083984,0.0018856525421142578,0
1.3886322975158691,0.14176955819129944,0.1699225753545761,0.830579936504364,0.1203936508912837,0.7863321330534426,0.031325573075703265,0.04045404307921622,0.0,0.0,0.8,-0.8,0.1203936508912837,0.0009212493896484375,0.0009212493896484375,0.002065420150756836,0
1.3985939025878906,0.14205782115459442,0.17077745497226715,0.8187406659126282,0.12043438829945441,0.7826352169382503,0.025224681511356258,0.03584581795482073,0.0,0.0,0.8,-0.8,0.12043438829945441,0.0009481906890869141,0.0009481906890869141,0.0020596981048583984,0
1.4085187911987305,0.14232277870178223,0.17168113589286804,0.8068491220474243,0.12046720042555753,0.7792252195131945,0.020696897444114057,0.032407668309022836,0.0,0.0,0.8,-0.8,0.12046720042555753,0.0008897781372070312,0.0008897781372070312,0.0018711090087890625,0
1.4186794757843018,0.1425650268793106,0.17263329029083252,0.7949104905128479,0.12051444055008238,0.7760387232967664,0.015426824048207473,0.02967393119112005,0.0,0.0,0.8,-0.8,0.12051444055008238,0.000942230224609375,0.000942230224609375,0.0020313262939453125,0
1.428558111190796,0.1429826319217682,0.1746852844953537,0.7708914279937744,0.120598265367928,0.7722672458559827,0.008397405056491624,0.03129835499691875,0.0,0.0,0.8,-0.8,0.120598265367928,0.0007910728454589844,0.0007910728454589844,0.0017733573913574219,0
1.4384255409240723,0.14322225749492645,0.1757732331752777,0.758834958076477,0.12063315303134983,0.768871825010677,0.004931373920330459,0.027850054326428234,0.0,0.0,0.8,-0.8,0.12063315303134983,0.0009486675262451172,0.0009486675262451172,0.0019192695617675781,0
1.4487764835357666,0.14343777298927307,0.17690636217594147,0.7467473745346069,0.12067896914997767,0.7657531147244101,0.002377007315032741,0.024214255224376997,0.0,0.0,0.8,-0.8,0.12067896914997767,0.0011017322540283203,0.0011017322540283203,0.0023272037506103516,0
1.458327054977417,0.14362946152687073,0.1780838519334793,0.7346324324607849,0.12074312875476187,0.7628474773876337,-0.0004067844588612693,0.021606521070603,0.0,0.0,0.8,-0.8,0.12074312875476187,0.0007402896881103516,0.0007402896881103516,0.0015895366668701172,0
1.469085931777954,0.14362946152687073,0.1780838519334793,0.7346324324607849,0.12074312875476187,0.7608077661590815,-0.00028745868830021764,0.01584561543796731,0.0,0.0,0.8,-0.8,0.12074312875476187,0.002267122268676758,0.002267122268676758,0.003740072250366211,0
1.4808413982391357,0.14379768073558807,0.1793048083782196,0.7224946618080139,0.12078814702230375,0.7586790785577607,-0.003258991056193483,0.014414728610055303,0.0,0.0,0.8,-0.8,0.12078814702230375,0.0017461776733398438,0.0017461776733398438,0.007605314254760742,0
1.488677740097046,0.14415225386619568,0.1832239031791687,0.6859878301620483,0.12089798650378512,0.7551779484164364,-0.017552534102817863,0.01452988668444191,0.0,0.0,0.8,-0.8,0.12089798650378512,0.0008988380432128906,0.0008988380432128906,0.0021054744720458984,0
1.4989984035491943,0.14422056078910828,0.18461522459983826,0.6737677454948425,0.1209176833940854,0.7520721015735463,-0.019956281757475162,0.011425820809881545,0.0,0.0,0.8,-0.8,0.1209176833940854,0.0014004707336425781,0.0014004707336425781,0.002731800079345703,0
1.5085506439208984,0.14422056078910828,0.18461522459983826,0.6737677454948425,0.1209176833940854,0.7498912051574462,-0.014113362230469132,0.007456432023625659,0.0,0.0,0.8,-0.8,0.1209176833940854,0.0008058547973632812,0.0008058547973632812,0.0019197463989257812,0
1.5184330940246582,0.14451178908348083,0.18900659680366516,0.6371084451675415,0.12101666720528431,0.7465080262765611,-0.03504483346076324,0.009978009193890115,0.0,0.0,0.8,-0.8,0.12101666720528431,0.001148223876953125,0.001148223876953125,0.0022699832916259766,0
1.52848482131958,0.14456214010715485,0.1905498206615448,0.6248891949653625,0.12103762559084238,0.7435340013543298,-0.03416795272237365,0.007428579257531355,0.0,0.0,0.8,-0.8,0.12103762559084238,0.0006005764007568359,0.0006005764007568359,0.0014295578002929688,0
1.5382499694824219,0.14458893239498138,0.1921313852071762,0.6126747131347656,0.12107592254023859,0.7408640646808102,-0.03389044577525385,0.004389094156793443,0.0,0.0,0.8,-0.8,0.12107592254023859,0.0005297660827636719,0.0005297660827636719,0.001168966293334961,0
1.5483300685882568,0.14458893239498138,0.1921313852071762,0.6126747131347656,0.12107592254023859,0.7389899683161449,-0.02393600290805986,0.0019775913236532287,0.0,0.0,0.8,-0.8,0.12107592254023859,0.0004417896270751953,0.0004417896270751953,0.0010199546813964844,0
1.5583868026733398,0.14456719160079956,0.19540436565876007,0.5882740020751953,0.12111009794046694,0.7365569727346064,-0.038082333457955655,-0.0017211584529994882,0.0,0.0,0.8,-0.8,0.12111009794046694,0.00044798851013183594,0.00044798851013183594,0.0011227130889892578,0
1.5681982040405273,0.14444446563720703,0.19882193207740784,0.5639070868492126,0.12114992526659012,0.7337898857663722,-0.051818154337931084,-0.006666400528309372,0.0,0.0,0.8,-0.8,0.12114992526659012,0.0004601478576660156,0.0004601478576660156,0.0010673999786376953,0
1.5785694122314453,0.1444290578365326,0.2005690336227417,0.5517484545707703,0.12117535041924957,0.7313363100492435,-0.04774316401136691,-0.009111571185149086,0.0,0.0,0.8,-0.8,0.12117535041924957,0.0006527900695800781,0.0006527900695800781,0.0014324188232421875,0
1.5884270668029785,0.1444290578365326,0.2005690336227417,0.5517484545707703,0.12117535041924957,0.7296143120944354,-0.03369848463684369,-0.008793860917518681,0.0,0.0,0.8,-0.8,0.12117535041924957,0.0007131099700927734,0.0007131099700927734,0.0016031265258789062,0
1.5983102321624756,0.1450403332710266,0.20031893253326416,0.5099453330039978,0.12122754491221589,0.7267574699242813,0.014505222619647118,-0.00456007109242043,0.0,0.0,0.8,-0.8,0.12122754491221589,0.0005660057067871094,0.0005660057067871094,0.001230001449584961,0
1.6084439754486084,0.14532199501991272,0.19943715631961823,0.49526387453079224,0.12124986337380428,0.7242026401889079,0.03422647783356002,-0.0035835428875057545,0.0,0.0,0.8,-0.8,0.12124986337380428,0.0006194114685058594,0.0006194114685058594,0.0014760494232177734,0
1.6183593273162842,0.14557364583015442,0.19863982498645782,0.48068472743034363,0.1212805593551445,0.7218701787541236,0.04722275011219521,-0.003112210153557986,0.0,0.0,0.8,-0.8,0.1212805593551445,0.0006313323974609375,0.0006313323974609375,0.0013020038604736328,0
1.628492832183838,0.14557364583015442,0.19863982498645782,0.48068472743034363,0.1212805593551445,0.7202333982721398,0.03332053808128787,-0.003886537335850268,0.0,0.0,0.8,-0.8,0.1212805593551445,0.0008606910705566406,0.0008606910705566406,0.001817941665649414,0
1.6387054920196533,0.14614765346050262,0.19673967361450195,0.4375598430633545,0.12135406569776146,0.7175610173288183,0.08145814457473102,-0.004052701287868608,0.0,0.0,0.8,-0.8,0.12135406569776146,0.0008227825164794922,0.0008227825164794922,0.0018529891967773438,0
1.6481821537017822,0.1463303416967392,0.19625848531723022,0.42339572310447693,0.12136839928759684,0.7151966038216547,0.07617509151423286,-0.00449322736381933,0.0,0.0,0.8,-0.8,0.12136839928759684,0.0004506111145019531,0.0004506111145019531,0.0009543895721435547,0
1.658496618270874,0.14648433029651642,0.19585181772708893,0.409333735704422,0.12138448737684608,0.7130625326387215,0.07051548210749761,-0.004970009971695451,0.0,0.0,0.8,-0.8,0.12138448737684608,0.0006396770477294922,0.0006396770477294922,0.0014302730560302734,0
1.6685810089111328,0.14648433029651642,0.19585181772708893,0.409333735704422,0.12138448737684608,0.711565294881476,0.04972604309551727,-0.005268939023245653,0.0,0.0,0.8,-0.8,0.12138448737684608,0.0010597705841064453,0.0010597705841064453,0.0026209354400634766,0
1.6784801483154297,0.1467812955379486,0.1950695812702179,0.36776456236839294,0.12141234879819492,0.7091635110981013,0.0752160576067094,-0.0060415532161150025,0.0,0.0,0.8,-0.8,0.12141234879819492,0.0006566047668457031,0.0006566047668457031,0.0013766288757324219,0
1.688561201095581,0.1468258649110794,0.19494882225990295,0.35411301255226135,0.12140942368581986,0.7070468735389331,0.06511910442897137,-0.007528379756608455,0.0,0.0,0.8,-0.8,0.12140942368581986,0.0008058547973632812,0.0008058547973632812,0.001828908920288086,0
1.6982624530792236,0.14684373140335083,0.19489504396915436,0.34056416153907776,0.12141463313071808,0.7051494847299086,0.0561380353489263,-0.008773762805797895,0.0,0.0,0.8,-0.8,0.12141463313071808,0.0005967617034912109,0.0005967617034912109,0.0012426376342773438,0
1.7085597515106201,0.14680223166942596,0.19498470425605774,0.31375667452812195,0.12145063027831207,0.7030265542478635,0.05592930612727064,-0.01145772216110574,0.0,0.0,0.8,-0.8,0.12145063027831207,0.0005438327789306641,0.0005438327789306641,0.0011646747589111328,0
1.7185695171356201,0.14680176973342896,0.1951172947883606,0.30050531029701233,0.12146137281225211,0.7011613751288739,0.046572641740485185,-0.011991019946946197,0.0,0.0,0.8,-0.8,0.12146137281225211,0.0006761550903320312,0.0006761550903320312,0.001470804214477539,0
1.7282483577728271,0.14677546918392181,0.1953103244304657,0.28735923767089844,0.12146834314602274,0.6994862463071857,0.039923754191953896,-0.012812786688571054,0.0,0.0,0.8,-0.8,0.12146834314602274,0.0005772113800048828,0.0005772113800048828,0.001234292984008789,0
1.7382757663726807,0.14672480523586273,0.1955614984035492,0.27431854605674744,0.12148502157636078,0.6979591818800126,0.0350022851766218,-0.0126136605517395,0.0,0.0,0.8,-0.8,0.12148502157636078,0.000997304916381836,0.000997304916381836,0.0016160011291503906,0
1.748401403427124,0.1466497778892517,0.1958686113357544,0.2613838016986847,0.12149785161118634,0.6965476824567746,0.031088382556046616,-0.013895668531182376,0.0,0.0,0.8,-0.8,0.12149785161118634,0.0005600452423095703,0.0005600452423095703,0.0011680126190185547,0
1.7583746910095215,0.1465500295162201,0.19623060524463654,0.24855640530586243,0.12151146214943659,0.6952343208449714,0.026396674272826832,-0.014524043005593552,0.0,0.0,0.8,-0.8,0.12151146214943659,0.0005779266357421875,0.0005779266357421875,0.001199483871459961,0
1.7684223651885986,0.14627774059772491,0.19711987674236298,0.22322522103786469,0.12155606204064402,0.6936942746386402,0.023281600760907364,-0.019550615241238734,0.0,0.0,0.8,-0.8,0.12155606204064402,0.0005822181701660156,0.0005822181701660156,0.0013298988342285156,0
1.7783684730529785,0.1461048424243927,0.19764432311058044,0.21072319149971008,0.12158566508212965,0.6923242275878198,0.01757120565093882,-0.020755211651216448,0.0,0.0,0.8,-0.8,0.12158566508212965,0.0006403923034667969,0.0006403923034667969,0.0013127326965332031,0
1.7887182235717773,0.14590679109096527,0.19822117686271667,0.19830799102783203,0.12160474621425632,0.6910822852193275,0.012747955785350921,-0.022837341771211127,0.0,0.0,0.8,-0.8,0.12160474621425632,0.0006961822509765625,0.0006961822509765625,0.0014524459838867188,0
1.7984933853149414,0.14574630558490753,0.19884105026721954,0.18600966036319733,0.1216149852674933,0.6899430580433119,0.008096989296598906,-0.023270570840464595,0.0,0.0,0.8,-0.8,0.1216149852674933,0.0007190704345703125,0.0007190704345703125,0.0016207695007324219,0
1.8082811832427979,0.14535444974899292,0.20023635029792786,0.16174395382404327,0.12168511961554579,0.6886230332578412,-0.0023488301425631957,-0.02671604715473727,0.0,0.0,0.8,-0.8,0.12168511961554579,0.0004870891571044922,0.0004870891571044922,0.001087188720703125,0
1.8183670043945312,0.14512303471565247,0.2010103464126587,0.1497744619846344,0.12169647815924298,0.6874505152963984,-0.005956535087469214,-0.02699582924755833,0.0,0.0,0.8,-0.8,0.12169647815924298,0.0008118152618408203,0.0008118152618408203,0.0016982555389404297,0
1.8281867504119873,0.14459271728992462,0.20270337164402008,0.12616680562496185,0.1217022702627468,0.6861728872019165,-0.015334058066692047,-0.031682400957245886,0.0,0.0,0.8,-0.8,0.1217022702627468,0.0006232261657714844,0.0006232261657714844,0.0012993812561035156,0
1.8383548259735107,0.14429205656051636,0.20362113416194916,0.11452891677618027,0.12171156257344487,0.6850603415528331,-0.01854112086632692,-0.03220086223623204,0.0,0.0,0.8,-0.8,0.12171156257344487,0.0004487037658691406,0.0004487037658691406,0.0009508132934570312,0
1.8484125137329102,0.14396806061267853,0.20458674430847168,0.10300131887197495,0.12170099169259907,0.6840742247946451,-0.02210788772536499,-0.03195823786220994,0.0,0.0,0.8,-0.8,0.12170099169259907,0.0004863739013671875,0.0004863739013671875,0.0011217594146728516,0
1.8583149909973145,0.14362181723117828,0.2055986523628235,0.09155678749084473,0.12168703455134079,0.6831906774573973,-0.0249694754924228,-0.031897413306142854,0.0,0.0,0.8,-0.8,0.12168703455134079,0.0006084442138671875,0.0006084442138671875,0.0013153553009033203,0
1.86826753616333,0.14333084225654602,0.206645667552948,0.08023172616958618,0.12168736244142221,0.6823835570061659,-0.027878863219100238,-0.030434654061956265,0.0,0.0,0.8,-0.8,0.12168736244142221,0.0005741119384765625,0.0005741119384765625,0.001222848892211914,0
1.8788723945617676,0.14268329739570618,0.20887337625026703,0.05791885778307915,0.12166843895980836,0.6814748261582393,-0.04244237796379928,-0.03456067122537072,0.0,0.0,0.8,-0.8,0.12166843895980836,0.0006659030914306641,0.0006659030914306641,0.0015368461608886719,0
1.888434886932373,0.14232711493968964,0.21005332469940186,0.04693183675408363,0.12165659972602694,0.6806796334067758,-0.04387439625886492,-0.03432302553307051,0.0,0.0,0.8,-0.8,0.12165659972602694,0.0006303787231445312,0.0006303787231445312,0.0013878345489501953,0
1.8983919620513916,0.14194834232330322,0.21127748489379883,0.03605727106332779,0.12163510755062944,0.6799662068142788,-0.04563997377249029,-0.033898906512994625,0.0,0.0,0.8,-0.8,0.12163510755062944,0.0006737709045410156,0.0006737709045410156,0.0014119148254394531,0
1.9082682132720947,0.1411297768354416,0.21385501325130463,0.014641063287854195,0.12161264912467815,0.679180167577487,-0.06365408827413006,-0.03798386013275842,0.0,0.0,0.8,-0.8,0.12161264912467815,0.0007042884826660156,0.0007042884826660156,0.0015571117401123047,0
1.9183948040008545,0.14069055020809174,0.2152067869901657,0.004101262427866459,0.12158874329483033,0.6785003888892303,-0.06171951758658331,-0.03720663304096532,0.0,0.0,0.8,-0.8,0.12158874329483033,0.0006086826324462891,0.0006086826324462891,0.0012798309326171875,0
1.928349256515503,0.14023123681545258,0.21659843623638153,-0.006375244818627834,0.1215725487354403,0.6779034245322915,-0.05870746930669541,-0.03608937393629868,0.0,0.0,0.8,-0.8,0.1215725487354403,0.00045990943908691406,0.00045990943908691406,0.0010590553283691406,0
1.938277006149292,0.13982266187667847,0.21801786124706268,-0.016733551397919655,0.12155300699714926,0.6773612421768336,-0.057492277774118895,-0.03454835567006175,0.0,0.0,0.8,-0.8,0.12155300699714926,0.0004277229309082031,0.0004277229309082031,0.0008509159088134766,0
1.9483368396759033,0.13939407467842102,0.21947479248046875,-0.026981044560670853,0.12155800221971455,0.6768673653495054,-0.05592168254919115,-0.033441656535417634,0.0,0.0,0.8,-0.8,0.12155800221971455,0.0009486675262451172,0.0009486675262451172,0.0018608570098876953,0
1.958611011505127,0.1389458179473877,0.22096821665763855,-0.03711747005581856,0.12155316920468337,0.6764147992541939,-0.056381573542605486,-0.03304088786499738,0.0,0.0,0.8,-0.8,0.12155316920468337,0.0016338825225830078,0.0016338825225830078,0.0029053688049316406,0
1.9685630798339844,0.13798542320728302,0.22406207025051117,-0.05705662816762924,0.12155016232359449,0.6759074271504472,-0.07460096686459339,-0.040811645812339675,0.0,0.0,0.8,-0.8,0.12155016232359449,0.0009133815765380859,0.0009133815765380859,0.0019466876983642578,0
1.9789118766784668,0.1374761462211609,0.22566021978855133,-0.06686040014028549,0.12155290151887695,0.6754666044630032,-0.06950698894629373,-0.03895974637068765,0.0,0.0,0.8,-0.8,0.12155290151887695,0.0009202957153320312,0.0009202957153320312,0.001991748809814453,0
1.9884593486785889,0.13743780553340912,0.22480721771717072,-0.08028861880302429,0.1215436595599827,0.6749264724988804,-0.028084469469099826,-0.030998324745130257,0.0,0.0,0.8,-0.8,0.1215436595599827,0.0010004043579101562,0.0010004043579101562,0.0021181106567382812,0
1.9983885288238525,0.13728737831115723,0.22335398197174072,-0.10655415803194046,0.12153003216152024,0.674110312525102,0.015592766066697931,-0.026530951060633096,0.0,0.0,0.8,-0.8,0.12153003216152024,0.0006330013275146484,0.0006330013275146484,0.001348257064819336,0
2.008429527282715,0.13722793757915497,0.22274522483348846,-0.11939015984535217,0.12154904079337103,0.6733377312692246,0.028215477338400755,-0.02138888623861945,0.0,0.0,0.8,-0.8,0.12154904079337103,0.0005879402160644531,0.0005879402160644531,0.0012924671173095703,0
2.0183632373809814,0.13714484870433807,0.2222135215997696,-0.1320294439792633,0.12154336910093974,0.6726024798723883,0.03671837659998785,-0.017654860814349874,0.0,0.0,0.8,-0.8,0.12154336910093974,0.0006220340728759766,0.0006220340728759766,0.0013422966003417969,0
2.0282883644104004,0.13691145181655884,0.22137576341629028,-0.15673266351222992,0.1215181085511515,0.6717121556939363,0.05272781426928516,-0.01381462016924988,0.0,0.0,0.8,-0.8,0.1215181085511515,0.0007307529449462891,0.0007307529449462891,0.0015745162963867188,0
2.0383963584899902,0.13676278293132782,0.2210680991411209,-0.16880330443382263,0.1214909766269534,0.6709190952315592,0.047659319319052464,-0.011915803558240923,0.0,0.0,0.8,-0.8,0.1214909766269534,0.0005879402160644531,0.0005879402160644531,0.001377105712890625,0
2.048372745513916,0.1365913450717926,0.22083145380020142,-0.18068881332874298,0.12148857042942558,0.6702007785531449,0.04454104841160807,-0.012271961993617783,0.0,0.0,0.8,-0.8,0.12148857042942558,0.0007767677307128906,0.0007767677307128906,0.0016531944274902344,0
2.0583271980285645,0.1363968402147293,0.22066354751586914,-0.19239233434200287,0.12147802867697932,0.6695457235392254,0.04102401315894827,-0.01191278633309108,0.0,0.0,0.8,-0.8,0.12147802867697932,0.0006799697875976562,0.0006799697875976562,0.0014748573303222656,0
2.0683398246765137,0.1359466314315796,0.22052721679210663,-0.21525001525878906,0.12145034839521933,0.6688180194120142,0.04484207241011072,-0.011225487303646534,0.0,0.0,0.8,-0.8,0.12145034839521933,0.0008478164672851562,0.0008478164672851562,0.0018458366394042969,0
2.078540086746216,0.1357497274875641,0.22054897248744965,-0.22640351951122284,0.12142884356284428,0.6681799792882058,0.03751269277903074,-0.00900498946689133,0.0,0.0,0.8,-0.8,0.12142884356284428,0.0007226467132568359,0.0007226467132568359,0.0014960765838623047,0
2.0884785652160645,0.1355341672897339,0.22063368558883667,-0.23738428950309753,0.12140004796357878,0.6676180093541793,0.03000853685220705,-0.008427143099161432,0.0,0.0,0.8,-0.8,0.12140004796357878,0.000766754150390625,0.000766754150390625,0.0016825199127197266,0
2.09853196144104,0.13529878854751587,0.22078046202659607,-0.24819377064704895,0.12137697288645022,0.667116995154001,0.024487404528670403,-0.00847000795787832,0.0,0.0,0.8,-0.8,0.12137697288645022,0.0017580986022949219,0.0017580986022949219,0.003094196319580078,0
2.108381509780884,0.13504382967948914,0.22098787128925323,-0.2588340640068054,0.1213652463524094,0.6666656657766855,0.018059716161177373,-0.009209555868175253,0.0,0.0,0.8,-0.8,0.1213652463524094,0.0008978843688964844,0.0008978843688964844,0.0018873214721679688,0
2.1185126304626465,0.13476985692977905,0.2212548702955246,-0.26930809020996094,0.12135147098203201,0.6662535690312358,0.013111076714996308,-0.008777516189291049,0.0,0.0,0.8,-0.8,0.12135147098203201,0.0009579658508300781,0.0009579658508300781,0.0021047592163085938,0
2.128505229949951,0.13416707515716553,0.22196266055107117,-0.28976258635520935,0.12134986791804175,0.6658174758472297,0.007732212893321357,-0.011165672025013338,0.0,0.0,0.8,-0.8,0.12134986791804175,0.0011327266693115234,0.0011327266693115234,0.0022401809692382812,0
2.138563632965088,0.13384053111076355,0.22239750623703003,-0.299743115901947,0.12134186209179092,0.665457395520599,0.004761739176960275,-0.010563577212359055,0.0,0.0,0.8,-0.8,0.12134186209179092,0.0012595653533935547,0.0012595653533935547,0.002445220947265625,0
2.1483662128448486,0.13349752128124237,0.222884401679039,-0.3095751106739044,0.12133630345186569,0.6651540970247162,0.001789663323628768,-0.010586128184797037,0.0,0.0,0.8,-0.8,0.12133630345186569,0.0008347034454345703,0.0008347034454345703,0.0018146038055419922,0
2.158339023590088,0.1331985592842102,0.22341430187225342,-0.3192416727542877,0.12133341224210198,0.6648918662458931,-0.0022176024830072396,-0.00998355282298284,0.0,0.0,0.8,-0.8,0.12133341224210198,0.0008928775787353516,0.0008928775787353516,0.001871347427368164,0
2.1686477661132812,0.1325477510690689,0.22462642192840576,-0.33809784054756165,0.12132915785649886,0.6646482087647804,-0.010039050588897244,-0.01296933635018638,0.0,0.0,0.8,-0.8,0.12132915785649886,0.0010037422180175781,0.0010037422180175781,0.002445697784423828,0
2.1787970066070557,0.13219644129276276,0.22530589997768402,-0.3472920358181,0.12131785391572791,0.6644475462412311,-0.011339577377302922,-0.012947546895892368,0.0,0.0,0.8,-0.8,0.12131785391572791,0.0011932849884033203,0.0011932849884033203,0.002277374267578125,0
2.1883347034454346,0.13144372403621674,0.22680728137493134,-0.3652172088623047,0.12129662009853445,0.6642922532625248,-0.021813878007752707,-0.01598413285302933,0.0,0.0,0.8,-0.8,0.12129662009853445,0.0007953643798828125,0.0007953643798828125,0.0017521381378173828,0
2.1984496116638184,0.13104262948036194,0.22762764990329742,-0.373950719833374,0.12130227090882763,0.6641807952826667,-0.023400406505748057,-0.01555632127430543,0.0,0.0,0.8,-0.8,0.12130227090882763,0.0008873939514160156,0.0008873939514160156,0.0019214153289794922,0
2.2083168029785156,0.13062649965286255,0.22849449515342712,-0.3825340270996094,0.12129297910154242,0.664106683587832,-0.02652634613071902,-0.014318980278014207,0.0,0.0,0.8,-0.8,0.12129297910154242,0.0007088184356689453,0.0007088184356689453,0.0015001296997070312,0
2.218526840209961,0.1301959604024887,0.22940616309642792,-0.3909866511821747,0.1212722074364212,0.6640616739727824,-0.027526015760935635,-0.014559584383412814,0.0,0.0,0.8,-0.8,0.1212722074364212,0.000865936279296875,0.000865936279296875,0.0017995834350585938,0
2.2285544872283936,0.12941832840442657,0.23134630918502808,-0.40743669867515564,0.1212607537288019,0.6640697608785636,-0.04458636729648347,-0.017484496424793466,0.0,0.0,0.8,-0.8,0.1212607537288019,0.0008699893951416016,0.0008699893951416016,0.002009153366088867,0
2.2384989261627197,0.12900519371032715,0.23238225281238556,-0.4154440760612488,0.12126792444012123,0.6641035324100676,-0.04278739852430246,-0.016673934900742562,0.0,0.0,0.8,-0.8,0.12126792444012123,0.0008454322814941406,0.0008454322814941406,0.0018384456634521484,0
2.248619318008423,0.12857699394226074,0.23345986008644104,-0.4233078360557556,0.12124426927418744,0.6641596884184131,-0.0434043890767632,-0.0159608046421987,0.0,0.0,0.8,-0.8,0.12124426927418744,0.0010035037994384766,0.0010035037994384766,0.0022041797637939453,0
