time,x,y,z,yaw,throttle,roll_rate,pitch_rate,yaw_rate,x_ref,y_ref,z_ref,yaw_ref,pred_time,nr_time,ctrl_callback_time,metadata
1.6689300537109375e-06,0.001322014955803752,0.01618163287639618,0.15940891206264496,-0.026539475684799373,0.6935150256235927,-0.014651679799861364,-0.005830332042521022,8.215008298568999e-05,0.0,0.0,-0.6,0.0,0.0030612945556640625,0.0030612945556640625,0.004464864730834961,Sim
0.010556936264038086,0.0011750919511541724,0.016369977965950966,0.1599908471107483,-0.02654148365729212,0.6947197685471204,-0.024872057326221452,-0.010453300654624029,0.00013713297594645626,0.0,0.0,-0.6,0.0,0.0033037662506103516,0.0033037662506103516,0.004425764083862305,flat wardi normal
0.020257949829101562,0.0010240797419101,0.016561467200517654,0.16055095195770264,-0.02653601635635719,0.6967647519122683,-0.031691924497795045,-0.014034232527490184,0.00017081087269743458,0.0,0.0,-0.6,0.0,0.0034546852111816406,0.0034546852111816406,0.004775285720825195,1x Speed
0.03266191482543945,0.0010086223483085632,0.016797732561826706,0.16100738942623138,-0.026511168971474798,0.6993794401460592,-0.03602777089835622,-0.01673201161130473,0.00018850480935527796,0.0,0.0,-0.6,0.0,0.007486104965209961,0.007486104965209961,0.010079622268676758,circle_horz_ref_func
0.04390859603881836,0.0010086223483085632,0.016797732561826706,0.16100738942623138,-0.026511168971474798,0.7023644078268889,-0.038414708546224315,-0.018646981531223156,0.0001936626164165477,0.0,0.0,-0.6,0.0,0.005871295928955078,0.005871295928955078,0.008168697357177734,0
0.05463147163391113,0.0012592040002346039,0.016898419708013535,0.1608642339706421,-0.02654033361720197,0.7055732836187151,-0.039401571081319794,-0.019882286810513548,0.00019018349786657302,0.0,0.0,-0.6,0.0,0.00670313835144043,0.00670313835144043,0.008940458297729492,0
0.06458234786987305,0.0012592040002346039,0.016898419708013535,0.1608642339706421,-0.02654033361720197,0.7089004270025449,-0.03943227365091958,-0.02062724949749654,0.00018115289179554766,0.0,0.0,-0.6,0.0,0.0028464794158935547,0.0028464794158935547,0.004193544387817383,0
0.07005667686462402,0.0015639669727534056,0.017084822058677673,0.16086170077323914,-0.026538520321701124,0.7122695517443632,-0.038920707564582394,-0.020885727225072752,0.00016870031242264866,0.0,0.0,-0.6,0.0,0.003229379653930664,0.003229379653930664,0.004296302795410156,0
0.08093571662902832,0.0016481406055390835,0.017157964408397675,0.16091325879096985,-0.026549511854208105,0.715626785973898,-0.038020999751145056,-0.020846369943160314,0.0001565338052910328,0.0,0.0,-0.6,0.0,0.003456592559814453,0.003456592559814453,0.0047762393951416016,0
0.0922083854675293,0.0017236846033483744,0.01723717339336872,0.16097243130207062,-0.026552004107433306,0.7189343879389721,-0.03686258728290908,-0.020578605692643418,0.00014332403036978165,0.0,0.0,-0.6,0.0,0.00601506233215332,0.00601506233215332,0.008214950561523438,0
0.10168147087097168,0.0017236846033483744,0.01723717339336872,0.16097243130207062,-0.026552004107433306,0.7221666589235042,-0.03549324701476695,-0.02016110965094825,0.00012955251399043364,0.0,0.0,-0.6,0.0,0.0066013336181640625,0.0066013336181640625,0.008489847183227539,0
0.11271452903747559,0.0019045224180445075,0.017504185438156128,0.16130006313323975,-0.02655577856561597,0.7253061901297089,-0.03405730021810359,-0.019561791183222255,0.00011847980283361936,0.0,0.0,-0.6,0.0,0.00589752197265625,0.00589752197265625,0.007923603057861328,0
0.12186217308044434,0.0019045224180445075,0.017504185438156128,0.16130006313323975,-0.02655577856561597,0.7283425677647367,-0.032552596099446586,-0.018899523189610325,0.00010608794503610296,0.0,0.0,-0.6,0.0,0.006246328353881836,0.006246328353881836,0.00805974006652832,0
0.13114452362060547,0.001989067066460848,0.01769903302192688,0.1616138368844986,-0.026553308661489854,0.7312692174846775,-0.031046974120676755,-0.01809960545901197,9.639622995989167e-05,0.0,0.0,-0.6,0.0,0.0031309127807617188,0.0031309127807617188,0.004276275634765625,0
0.14030218124389648,0.002020616549998522,0.017803361639380455,0.16178657114505768,-0.02653849223769916,0.7340810521785319,-0.029597693337236216,-0.01726441163836919,8.65249443308563e-05,0.0,0.0,-0.6,0.0,0.0031859874725341797,0.0031859874725341797,0.004840850830078125,0
0.1507883071899414,0.0020677270367741585,0.018023377284407616,0.1621437817811966,-0.026513159826860453,0.7367762999914023,-0.02823438651484423,-0.01637137093498267,7.557739712721124e-05,0.0,0.0,-0.6,0.0,0.0029125213623046875,0.0029125213623046875,0.004004716873168945,0
0.1602623462677002,0.002082257065922022,0.018138522282242775,0.162302166223526,-0.026521777652761033,0.7393522993677479,-0.02692849147723536,-0.015498728078150066,6.582776610359935e-05,0.0,0.0,-0.6,0.0,0.0030498504638671875,0.0030498504638671875,0.00451970100402832,0
0.17185735702514648,0.0020905109122395515,0.01825740933418274,0.1624540239572525,-0.026537830200821892,0.7418103205206742,-0.025696522064415233,-0.014655320379845828,5.783012944365666e-05,0.0,0.0,-0.6,0.0,0.005712747573852539,0.005712747573852539,0.007938861846923828,0
0.1813983917236328,0.0020905109122395515,0.01825740933418274,0.1624540239572525,-0.026537830200821892,0.744151909862799,-0.02448195608282579,-0.013853422462086646,5.208502747029744e-05,0.0,0.0,-0.6,0.0,0.006608724594116211,0.006608724594116211,0.009017705917358398,0
0.1930532455444336,0.002083382336422801,0.018635910004377365,0.16282258927822113,-0.02654744197676744,0.7463832752080076,-0.023435335396590554,-0.01301241174496427,4.291492085840433e-05,0.0,0.0,-0.6,0.0,0.006272077560424805,0.006272077560424805,0.008310794830322266,0
0.20237183570861816,0.002083382336422801,0.018635910004377365,0.16282258927822113,-0.02654744197676744,0.7484963192327695,-0.022388048092965823,-0.012227931072475698,3.9075134871221445e-05,0.0,0.0,-0.6,0.0,0.003933429718017578,0.003933429718017578,0.0055730342864990234,0
0.21013832092285156,0.002054656157270074,0.018900953233242035,0.16295234858989716,-0.026553278741571325,0.7505006394933388,-0.021442072572741805,-0.011480104979473353,3.15815561108409e-05,0.0,0.0,-0.6,0.0,0.002900838851928711,0.002900838851928711,0.003856658935546875,0
0.22076940536499023,0.0020321672782301903,0.019038572907447815,0.16297411918640137,-0.026553845563283992,0.7523927951126076,-0.02055692358476243,-0.010816939498820025,2.6577410136212396e-05,0.0,0.0,-0.6,0.0,0.003084897994995117,0.003084897994995117,0.004741191864013672,0
0.23060178756713867,0.0019672249909490347,0.019322074949741364,0.16290974617004395,-0.02654144999882587,0.7541769514094037,-0.019777369026991024,-0.010244610666363034,1.933624177458812e-05,0.0,0.0,-0.6,0.0,0.003092050552368164,0.003092050552368164,0.004210472106933594,0
0.24033498764038086,0.0019270199118182063,0.019467411562800407,0.1628168821334839,-0.026552035582137715,0.7558496960019985,-0.018968243257889403,-0.009676710041646061,1.537467403766516e-05,0.0,0.0,-0.6,0.0,0.003035306930541992,0.003035306930541992,0.004654645919799805,0
0.25040102005004883,0.0018827528692781925,0.019613593816757202,0.16267916560173035,-0.02657090433777212,0.7574162367932558,-0.018169609671919593,-0.009153390087480825,1.154311804473647e-05,0.0,0.0,-0.6,0.0,0.003500223159790039,0.003500223159790039,0.0045719146728515625,0
0.26036763191223145,0.0018327748402953148,0.01976080611348152,0.16249260306358337,-0.026586289003843723,0.7588809785519371,-0.017380466413740546,-0.00867810096117369,7.472235697574196e-06,0.0,0.0,-0.6,0.0,0.0028858184814453125,0.0028858184814453125,0.004477262496948242,0
0.27096104621887207,0.0017221601447090507,0.02005673386156559,0.16196522116661072,-0.026619729902335056,0.7602478355203188,-0.016584709594069536,-0.00819878733156906,1.6581737821139173e-06,0.0,0.0,-0.6,0.0,0.0032684803009033203,0.0032684803009033203,0.0044209957122802734,0
0.28060197830200195,0.0016625227872282267,0.020205819979310036,0.16162100434303284,-0.026618815347001005,0.7615114215278764,-0.01580474867146936,-0.007730206615734031,-1.0694692330999037e-06,0.0,0.0,-0.6,0.0,0.002288341522216797,0.002288341522216797,0.003496408462524414,0
0.29025912284851074,0.001599844777956605,0.020354680716991425,0.1612175554037094,-0.026613368071016257,0.7626776122121337,-0.015043457776602327,-0.007258924982666683,-3.914067955766945e-06,0.0,0.0,-0.6,0.0,0.002581357955932617,0.002581357955932617,0.003445863723754883,0
0.30040884017944336,0.0015350300818681717,0.020503196865320206,0.16075129806995392,-0.0266077546520013,0.7637509064853479,-0.014309488678662623,-0.00680348687352881,-6.286930354845387e-06,0.0,0.0,-0.6,0.0,0.0021474361419677734,0.0021474361419677734,0.003366708755493164,0
0.30974435806274414,0.0013977991184219718,0.02079830877482891,0.1595849096775055,-0.026614173992460917,0.7647356089511481,-0.013582764975014773,-0.00635502953434017,-1.0034898848837928e-05,0.0,0.0,-0.6,0.0,0.002001047134399414,0.002001047134399414,0.0026712417602539062,0
0.32068896293640137,0.0013243370922282338,0.02094520442187786,0.15890488028526306,-0.0266294601658664,0.7656247811055729,-0.012879604905136885,-0.005946380214278953,-1.1555371383850554e-05,0.0,0.0,-0.6,0.0,0.0031080245971679688,0.0031080245971679688,0.004745960235595703,0
0.32961487770080566,0.0012473315000534058,0.021091440692543983,0.15815821290016174,-0.026646771189539273,0.7664249141128072,-0.012227505874670233,-0.005590368161668939,-1.2722371019003963e-05,0.0,0.0,-0.6,0.0,0.002382516860961914,0.002382516860961914,0.0031294822692871094,0
0.3405172824859619,0.0011661421740427613,0.021237848326563835,0.1573430597782135,-0.02665016630359049,0.7671413915279927,-0.011636792265885959,-0.0052785710921166495,-1.3864452837869275e-05,0.0,0.0,-0.6,0.0,0.0022432804107666016,0.0022432804107666016,0.0036950111389160156,0
0.34975123405456543,0.0009999085450544953,0.02152789942920208,0.15549659729003906,-0.026660275716133042,0.7677786089192982,-0.01103699319128924,-0.004934822463213118,-1.553798294150497e-05,0.0,0.0,-0.6,0.0,0.002399921417236328,0.002399921417236328,0.003182649612426758,0
0.3601808547973633,0.000914396601729095,0.02167157270014286,0.15446418523788452,-0.02664673951659946,0.768328049298593,-0.01047413909601396,-0.004619761143829496,-1.603065241498501e-05,0.0,0.0,-0.6,0.0,0.002062082290649414,0.002062082290649414,0.0031049251556396484,0
0.36979222297668457,0.0008263746276497841,0.02181379683315754,0.15335862338542938,-0.026635145710184566,0.7687967447422466,-0.009902690757507304,-0.0043091888042051845,-1.6374303230945124e-05,0.0,0.0,-0.6,0.0,0.0025627613067626953,0.0025627613067626953,0.003451824188232422,0
0.38119935989379883,0.000736875634174794,0.021953687071800232,0.15214012563228607,-0.026640447318217183,0.7691903234852142,-0.009331248502320847,-0.0040112763451552146,-1.669085769116113e-05,0.0,0.0,-0.6,0.0,0.0025773048400878906,0.0025773048400878906,0.00371551513671875,0
0.3897097110748291,0.0006456534611061215,0.022091243416070938,0.1508459597826004,-0.0266253911475531,0.7695132228826996,-0.008753282309089016,-0.0037292724176765588,-1.680286938609566e-05,0.0,0.0,-0.6,0.0,0.003143787384033203,0.003143787384033203,0.003876924514770508,0
0.39983034133911133,0.00045499036787077785,0.022357506677508354,0.14802677929401398,-0.026603570198853087,0.7697693311778729,-0.008147213912501904,-0.0035081339328212014,-1.7597064093227905e-05,0.0,0.0,-0.6,0.0,0.002050161361694336,0.002050161361694336,0.0028657913208007812,0
0.40975356101989746,0.0003515253774821758,0.022488590329885483,0.14649923145771027,-0.026589270415679527,0.769948479248971,-0.007600415781040263,-0.0032821790221307864,-1.750167515926184e-05,0.0,0.0,-0.6,0.0,0.003144979476928711,0.003144979476928711,0.003990888595581055,0
0.4200584888458252,0.000247982214204967,0.0226177629083395,0.14489199221134186,-0.02659727621453302,0.7700572686848368,-0.007090745335245078,-0.0030374497209572776,-1.701922438114252e-05,0.0,0.0,-0.6,0.0,0.002923727035522461,0.002923727035522461,0.004116535186767578,0
0.4298410415649414,0.00024134112754836679,0.02240251936018467,0.14079658687114716,-0.026593556495012327,0.7701010520255369,-0.006315703288939458,-0.0027558980734595827,-1.6842848522300924e-05,0.0,0.0,-0.6,0.0,0.002594470977783203,0.002594470977783203,0.0034515857696533203,0
0.44013142585754395,0.00033214426366612315,0.022066233679652214,0.13832567632198334,-0.026598247890814802,0.7700692010700722,-0.005444093390345441,-0.002433458671936332,-1.5435119385465788e-05,0.0,0.0,-0.6,0.0,0.0029878616333007812,0.0029878616333007812,0.004216432571411133,0
0.4497263431549072,0.00041790850809775293,0.021736834198236465,0.13576018810272217,-0.026596663318204358,0.7699690065481681,-0.0045158552119042,-0.0020881010345739828,-1.3507960335746336e-05,0.0,0.0,-0.6,0.0,0.0027124881744384766,0.0027124881744384766,0.003547191619873047,0
0.46010637283325195,0.0004998386139050126,0.021413490176200867,0.13312868773937225,-0.026607724639545888,0.769805960890082,-0.003559402739692784,-0.0016830367892730334,-1.1193692689120213e-05,0.0,0.0,-0.6,0.0,0.002292633056640625,0.002292633056640625,0.0036911964416503906,0
0.4697895050048828,0.0006546556251123548,0.02078431099653244,0.1276654452085495,-0.026616922294824333,0.7695847692963178,-0.002352930987946607,-0.0011687048378912234,-8.07259467558242e-06,0.0,0.0,-0.6,0.0,0.0027654170989990234,0.0027654170989990234,0.003565073013305664,0
0.4802374839782715,0.0007256109965965152,0.02047717012465,0.12483123689889908,-0.026611784075071025,0.7692936706914013,-0.0012191183305297797,-0.0006988812763883361,-4.506998245057999e-06,0.0,0.0,-0.6,0.0,0.0025327205657958984,0.0025327205657958984,0.0035696029663085938,0
0.48987269401550293,0.0007921968353912234,0.020174993202090263,0.1219266727566719,-0.026607614450200223,0.7689402405389781,-0.00016425944779606326,-0.0002481181445016198,-9.194681857600023e-07,0.0,0.0,-0.6,0.0,0.002767801284790039,0.002767801284790039,0.003801584243774414,0
0.5000877380371094,0.0008547285106033087,0.019878150895237923,0.11895328015089035,-0.026602662107014664,0.7685304931675608,0.0007757564728384686,0.00018143648202054418,2.5547858432423235e-06,0.0,0.0,-0.6,0.0,0.0025577545166015625,0.0025577545166015625,0.003507375717163086,0
0.5097923278808594,0.0009716061176732183,0.019301429390907288,0.11280469596385956,-0.026590865000290766,0.7680696652554322,0.0018749579839625636,0.0006747359163468733,6.898944859725001e-06,0.0,0.0,-0.6,0.0,0.0021178722381591797,0.0021178722381591797,0.002813100814819336,0
0.5201036930084229,0.0010253777727484703,0.01901908591389656,0.10960638523101807,-0.026581871836883663,0.7675465895922917,0.0028572155111928573,0.001140470083850717,1.0878069642002837e-05,0.0,0.0,-0.6,0.0,0.0026886463165283203,0.0026886463165283203,0.003889799118041992,0
0.530048131942749,0.0010767645435407758,0.018741067498922348,0.10633999854326248,-0.02657705938264168,0.7669693317663862,0.003725335113146051,0.0015977084169799976,1.4581985923732468e-05,0.0,0.0,-0.6,0.0,0.002248525619506836,0.002248525619506836,0.003390073776245117,0
0.5400731563568115,0.0011268346570432186,0.01846751943230629,0.10300429165363312,-0.026564838144072237,0.7663438980186454,0.004502988247606224,0.0020488085803131908,1.806296405278446e-05,0.0,0.0,-0.6,0.0,0.0024683475494384766,0.0024683475494384766,0.0034182071685791016,0
0.5505890846252441,0.0012267271522432566,0.017931301146745682,0.09612675756216049,-0.026566346735763746,0.7656751440099644,0.00544525636307856,0.0025622423971315596,2.2800131015472694e-05,0.0,0.0,-0.6,0.0,0.002856016159057617,0.002856016159057617,0.004717588424682617,0
0.5598921775817871,0.0012753693154081702,0.01766698993742466,0.09258492290973663,-0.026564104124892674,0.7649509006144417,0.006294701374419043,0.003070611959183855,2.6944225326986316e-05,0.0,0.0,-0.6,0.0,0.0018587112426757812,0.0018587112426757812,0.0027709007263183594,0
0.5700695514678955,0.0013234372017905116,0.017404599115252495,0.08897681534290314,-0.026561065268322775,0.7641793028502246,0.007084129247502409,0.003556262189890987,3.0747375799877655e-05,0.0,0.0,-0.6,0.0,0.0020780563354492188,0.0020780563354492188,0.0030460357666015625,0
0.5802700519561768,0.0013703639851883054,0.017144476994872093,0.08530288189649582,-0.026565476195331703,0.7633667842755688,0.0077601336497955704,0.004008688513594595,3.406574960914881e-05,0.0,0.0,-0.6,0.0,0.002724885940551758,0.002724885940551758,0.0036716461181640625,0
0.5903956890106201,0.001464140834286809,0.01663328893482685,0.07771337777376175,-0.026544789339928834,0.7625183369741757,0.00855796025830399,0.0045455711497921015,3.85253269442901e-05,0.0,0.0,-0.6,0.0,0.0024557113647460938,0.0024557113647460938,0.0035712718963623047,0
0.6000394821166992,0.0015102244215086102,0.016380710527300835,0.07380210608243942,-0.026533547286711933,0.7616226105275435,0.009290921921863659,0.0050482974824326505,4.200572967173833e-05,0.0,0.0,-0.6,0.0,0.002690553665161133,0.002690553665161133,0.003643512725830078,0
0.6102428436279297,0.001556045957840979,0.016129516065120697,0.06982950866222382,-0.026516938062996393,0.7606876430358833,0.009916481021234047,0.005514965521571285,4.5050846046804837e-05,0.0,0.0,-0.6,0.0,0.0021288394927978516,0.0021288394927978516,0.0030624866485595703,0
0.6201963424682617,0.0016025434015318751,0.015880215913057327,0.06579555571079254,-0.02650468094282663,0.7597193851190461,0.010467771485078286,0.005951236550410735,4.782275003528447e-05,0.0,0.0,-0.6,0.0,0.003319263458251953,0.003319263458251953,0.00459742546081543,0
0.630305290222168,0.0016960655339062214,0.015387937426567078,0.057547494769096375,-0.02646945165485508,0.7587225160746544,0.01111043726376448,0.006468277659262678,5.139761630053473e-05,0.0,0.0,-0.6,0.0,0.002504587173461914,0.002504587173461914,0.003771066665649414,0
0.6399171352386475,0.0017440002411603928,0.01514567993581295,0.05333500728011131,-0.026457373121308428,0.7576854837093173,0.01164543830688615,0.006957510530883446,5.36571733543873e-05,0.0,0.0,-0.6,0.0,0.0022308826446533203,0.0022308826446533203,0.00304412841796875,0
0.6501514911651611,0.0017926532309502363,0.014906052500009537,0.04906532168388367,-0.026467285580779844,0.756615891460962,0.012062550309632927,0.007413667163101785,5.587745637555622e-05,0.0,0.0,-0.6,0.0,0.0018558502197265625,0.0018558502197265625,0.002887248992919922,0
0.6602716445922852,0.0018420001724734902,0.014668544754385948,0.04473899304866791,-0.026476373115840515,0.7555197253202535,0.012458555145555323,0.007848221350018,5.7743503809312864e-05,0.0,0.0,-0.6,0.0,0.002663135528564453,0.002663135528564453,0.003785848617553711,0
0.6699118614196777,0.0018929936923086643,0.014431177638471127,0.040313370525836945,-0.0264706441532573,0.7544014059967445,0.012849454356377547,0.008289017128275945,5.934233168447896e-05,0.0,0.0,-0.6,0.0,0.002823352813720703,0.002823352813720703,0.004058122634887695,0
0.6809403896331787,0.0020024555269628763,0.013958309777081013,0.03129951283335686,-0.026496635344695978,0.7532643476300397,0.013405028834304007,0.008831713301896797,6.266890335954447e-05,0.0,0.0,-0.6,0.0,0.0029718875885009766,0.0029718875885009766,0.004082918167114258,0
0.69028639793396,0.0020574000664055347,0.013723540119826794,0.026714269071817398,-0.026496575645437382,0.7520963854363588,0.013887046265769906,0.009300765570740334,6.426575807652933e-05,0.0,0.0,-0.6,0.0,0.0029578208923339844,0.0029578208923339844,0.004685878753662109,0
0.69978928565979,0.0021115706767886877,0.013489452190697193,0.02207927033305168,-0.026480207459142945,0.7509043656053792,0.014280253826769224,0.009678544298944339,6.579780750422644e-05,0.0,0.0,-0.6,0.0,0.0025742053985595703,0.0025742053985595703,0.0038373470306396484,0
0.7097253799438477,0.0022220767568796873,0.013027079403400421,0.012666731141507626,-0.02647013629182782,0.749693639228271,0.01474897566684751,0.010151394750862944,6.801626981299121e-05,0.0,0.0,-0.6,0.0,0.0020024776458740234,0.0020024776458740234,0.002794027328491211,0
0.7199163436889648,0.0022789756767451763,0.012798021547496319,0.007891254499554634,-0.026460283081839724,0.7484543660448171,0.015106039850033004,0.010537786280169782,6.93340665781059e-05,0.0,0.0,-0.6,0.0,0.001993894577026367,0.001993894577026367,0.0028591156005859375,0
0.7297515869140625,0.0023350222036242485,0.012571241706609726,0.003069693222641945,-0.02644950926725685,0.7471939044115824,0.015337291080305236,0.010852087224210376,6.989970079594527e-05,0.0,0.0,-0.6,0.0,0.002727031707763672,0.002727031707763672,0.0035614967346191406,0
0.7404441833496094,0.0023908319417387247,0.01234721764922142,-0.0018239686032757163,-0.026459066794307734,0.7459178651631709,0.015492326729324697,0.011114663273098553,6.98625749408314e-05,0.0,0.0,-0.6,0.0,0.0038826465606689453,0.0038826465606689453,0.005369663238525391,0
0.749845027923584,0.002501659793779254,0.011901737190783024,-0.011734549887478352,-0.026437858288821597,0.744630655717903,0.015837345470010353,0.011370361312061107,7.113356149294537e-05,0.0,0.0,-0.6,0.0,0.00339508056640625,0.00339508056640625,0.004496574401855469,0
0.7599725723266602,0.00255545973777771,0.011680387891829014,-0.01674916222691536,-0.026442223419011923,0.7433220449242193,0.01610906483035784,0.011597467099301852,7.115844445582638e-05,0.0,0.0,-0.6,0.0,0.0021848678588867188,0.0021848678588867188,0.003205537796020508,0
0.7696921825408936,0.002610383555293083,0.011459477245807648,-0.021801656112074852,-0.026431954615565002,0.7419989310110087,0.016318057580015782,0.011813337980251722,7.088438111614577e-05,0.0,0.0,-0.6,0.0,0.0019266605377197266,0.0019266605377197266,0.002701997756958008,0
0.781132698059082,0.0026671753730624914,0.011239948682487011,-0.026891347020864487,-0.026451435254840772,0.7406663543526839,0.01647120774797034,0.012018472104185666,7.040891520826369e-05,0.0,0.0,-0.6,0.0,0.0035600662231445312,0.0035600662231445312,0.005362272262573242,0
0.7918589115142822,0.0027805378194898367,0.010800745338201523,-0.03717465698719025,-0.02648077953005048,0.7393282544503093,0.016819379728784924,0.012213702297158593,7.193029890649149e-05,0.0,0.0,-0.6,0.0,0.0038182735443115234,0.0038182735443115234,0.005358219146728516,0
0.799964427947998,0.0028368327766656876,0.010582327842712402,-0.04236431419849396,-0.02647257936023254,0.7379749505982087,0.01702410919230402,0.012382855289922232,7.209275406000747e-05,0.0,0.0,-0.6,0.0,0.0034027099609375,0.0034027099609375,0.004891395568847656,0
0.8103020191192627,0.0028941435739398003,0.010364780202507973,-0.04762649908661842,-0.02648353488159961,0.7366129574453403,0.017221474128328824,0.012533013979772988,7.23266370406921e-05,0.0,0.0,-0.6,0.0,0.0031070709228515625,0.0031070709228515625,0.00425410270690918,0
0.8199315071105957,0.002952658338472247,0.010146326385438442,-0.05291612073779106,-0.026464796362011232,0.7352470968724474,0.017405148658136655,0.012669693199365657,7.22328434630639e-05,0.0,0.0,-0.6,0.0,0.00307464599609375,0.00307464599609375,0.0043773651123046875,0
0.8309967517852783,0.003011560533195734,0.009927438572049141,-0.05823209136724472,-0.026454454657990727,0.7338809240058358,0.017543016091252684,0.012758189978093765,7.222505297645401e-05,0.0,0.0,-0.6,0.0,0.003258228302001953,0.003258228302001953,0.0046787261962890625,0
0.8407964706420898,0.003913166932761669,0.00903268065303564,-0.06977080553770065,-0.026479442216403994,0.7325172761472573,0.017883734397007744,0.013190344230233289,7.358136995115014e-05,0.0,0.0,-0.6,0.0,0.007036447525024414,0.007036447525024414,0.009463071823120117,0
0.8514306545257568,0.003913166932761669,0.00903268065303564,-0.06977080553770065,-0.026479442216403994,0.7311456472678212,0.017958651112519073,0.013460601030212238,7.13705741759492e-05,0.0,0.0,-0.6,0.0,0.006892681121826172,0.006892681121826172,0.009474039077758789,0
0.8622918128967285,0.004788810387253761,0.00816583912819624,-0.08135386556386948,-0.026497560241038463,0.7297831339806587,0.018277852516891346,0.013976023231074882,7.259149815087578e-05,0.0,0.0,-0.6,0.0,0.003278017044067383,0.003278017044067383,0.004446268081665039,0
0.8713247776031494,0.005635473877191544,0.007326238323003054,-0.0929727777838707,-0.026493670846574106,0.7284175074565976,0.018652296024257362,0.014677743103697922,7.304087785176733e-05,0.0,0.0,-0.6,0.0,0.0068206787109375,0.0068206787109375,0.009338140487670898,0
0.8821864128112793,0.005635473877191544,0.007326238323003054,-0.0929727777838707,-0.026493670846574106,0.7270414113030134,0.018743696369696534,0.015158750795696984,7.034676395227727e-05,0.0,0.0,-0.6,0.0,0.007211208343505859,0.007211208343505859,0.00943756103515625,0
0.8942432403564453,0.006456774193793535,0.006510069128125906,-0.1046447828412056,-0.02650093461734194,0.7256726960015621,0.019146366468303345,0.015824097250580173,6.975261665043016e-05,0.0,0.0,-0.6,0.0,0.007167339324951172,0.007167339324951172,0.009240865707397461,0
0.9048929214477539,0.006456774193793535,0.006510069128125906,-0.1046447828412056,-0.02650093461734194,0.7243022015756767,0.019252681076814764,0.016266498763699757,6.678215960147857e-05,0.0,0.0,-0.6,0.0,0.0047953128814697266,0.0047953128814697266,0.006494760513305664,0
0.9128808975219727,0.007653368171304464,0.005312600173056126,-0.12216360867023468,-0.026498001095032458,0.722945240707338,0.019879930807419934,0.017155933656702423,6.80962050146629e-05,0.0,0.0,-0.6,0.0,0.003265857696533203,0.003265857696533203,0.0042951107025146484,0
0.9199812412261963,0.008045580238103867,0.004922549240291119,-0.12800481915473938,-0.0264995051194472,0.7215808358482257,0.02036049721835612,0.018009886299017206,6.663345194498005e-05,0.0,0.0,-0.6,0.0,0.0038335323333740234,0.0038335323333740234,0.005252361297607422,0
0.9319322109222412,0.008435203693807125,0.004536882042884827,-0.13384462893009186,-0.026507365068468663,0.7202155970321032,0.02070778385653562,0.018806794289734665,6.51488285573927e-05,0.0,0.0,-0.6,0.0,0.006997585296630859,0.006997585296630859,0.0096893310546875,0
0.9426271915435791,0.008435203693807125,0.004536882042884827,-0.13384462893009186,-0.026507365068468663,0.718854541276015,0.02075844472752867,0.019336165470144554,6.093269820443259e-05,0.0,0.0,-0.6,0.0,0.003615856170654297,0.003615856170654297,0.005426645278930664,0
0.9503881931304932,0.009581114165484905,0.003406576346606016,-0.1514057219028473,-0.02648014594139581,0.7175111814487651,0.021204041280814306,0.020214280240799326,6.2574620971606e-05,0.0,0.0,-0.6,0.0,0.003388643264770508,0.003388643264770508,0.0045680999755859375,0
0.9602692127227783,0.00995557103306055,0.003037843154743314,-0.15728648006916046,-0.026444585055983894,0.71616588214915,0.021506816871654892,0.020974198447914927,5.9849398925701726e-05,0.0,0.0,-0.6,0.0,0.003087759017944336,0.003087759017944336,0.004505634307861328,0
0.969975471496582,0.010326053015887737,0.002674390561878681,-0.1631581336259842,-0.026441061400613697,0.7148244555009372,0.021629267662718544,0.021623513486226063,5.645899095077246e-05,0.0,0.0,-0.6,0.0,0.003250598907470703,0.003250598907470703,0.004556417465209961,0
0.9803605079650879,0.01069213543087244,0.0023187657352536917,-0.16901688277721405,-0.02642061758075435,0.7134915101246682,0.0215482034486478,0.02217132424832612,5.274499434187797e-05,0.0,0.0,-0.6,0.0,0.0034656524658203125,0.0034656524658203125,0.004784584045410156,0
0.9911537170410156,0.011412887834012508,0.0016253046924248338,-0.18069030344486237,-0.02641491113066841,0.7121708279055599,0.021580130106113114,0.02281458963926933,4.96227930751714e-05,0.0,0.0,-0.6,0.0,0.0037517547607421875,0.0037517547607421875,0.005077838897705078,0
1.0003337860107422,0.011769130825996399,0.0012863166630268097,-0.1865031123161316,-0.026443587976252667,0.7108571341159865,0.02149717382777494,0.023388622505448008,4.517480573501646e-05,0.0,0.0,-0.6,0.0,0.002910137176513672,0.002910137176513672,0.004607439041137695,0
1.011132001876831,0.012122848071157932,0.0009517750586383045,-0.19229833781719208,-0.02644990813700432,0.7095550032556482,0.0214125339653334,0.023882197980132844,4.0707256745820386e-05,0.0,0.0,-0.6,0.0,0.003155231475830078,0.003155231475830078,0.004368305206298828,0
1.0206012725830078,0.012473570182919502,0.000621240062173456,-0.19807526469230652,-0.026435010515156693,0.7082676744317333,0.02126291559458976,0.02429288168677709,3.630317962364882e-05,0.0,0.0,-0.6,0.0,0.003718852996826172,0.003718852996826172,0.005422115325927734,0
1.0306236743927002,0.013166082091629505,-2.4022971047088504e-05,-0.20963352918624878,-0.02640969089905104,0.70699766193025,0.021206815037440287,0.024774631475389403,3.3735380182173295e-05,0.0,0.0,-0.6,0.0,0.003262042999267578,0.003262042999267578,0.0043332576751708984,0
1.0403234958648682,0.01350613683462143,-0.00034106732346117496,-0.2153811901807785,-0.02641212565679177,0.7057395750292723,0.021118259531447418,0.025133332015395346,2.8888130984910545e-05,0.0,0.0,-0.6,0.0,0.003648996353149414,0.003648996353149414,0.00538325309753418,0
1.0505597591400146,0.013846161775290966,-0.0006540941540151834,-0.22110655903816223,-0.026400770234703073,0.7044967866749974,0.020901548409732882,0.02542461477692376,2.4449456856482863e-05,0.0,0.0,-0.6,0.0,0.003187417984008789,0.003187417984008789,0.0042836666107177734,0
1.05995774269104,0.014183984138071537,-0.0009612238500267267,-0.2268078774213791,-0.02639221350930171,0.7032717916727792,0.020637593635833854,0.025666195021336817,1.9247974289787317e-05,0.0,0.0,-0.6,0.0,0.0031099319458007812,0.0031099319458007812,0.0044956207275390625,0
1.071040153503418,0.01485291589051485,-0.001558259129524231,-0.23813031613826752,-0.02637096581718633,0.7020666335401413,0.020356895147627865,0.026040583495255,1.5852908602043962e-05,0.0,0.0,-0.6,0.0,0.003246307373046875,0.003246307373046875,0.004283905029296875,0
1.0808320045471191,0.01518371794372797,-0.0018488992936909199,-0.24374762177467346,-0.026376447092345802,0.7008772398089627,0.02005750988620134,0.026287326389879795,1.0929018680839864e-05,0.0,0.0,-0.6,0.0,0.0029556751251220703,0.0029556751251220703,0.00464940071105957,0
1.0902743339538574,0.01518371794372797,-0.0018488992936909199,-0.24374762177467346,-0.026376447092345802,0.6997069680076035,0.019644771157045698,0.02631369340609152,4.932218761074097e-06,0.0,0.0,-0.6,0.0,0.0031304359436035156,0.0031304359436035156,0.0043904781341552734,0
1.1001582145690918,0.015830855816602707,-0.0024147348012775183,-0.2549380958080292,-0.02637054950230723,0.6985630685192841,0.019251502366675884,0.026378813786899685,1.3956754236580024e-06,0.0,0.0,-0.6,0.0,0.0031185150146484375,0.0031185150146484375,0.004716396331787109,0
1.1102139949798584,0.015830855816602707,-0.0024147348012775183,-0.2549380958080292,-0.02637054950230723,0.6974403273234503,0.01877816107075876,0.026255669325148123,-4.181946043999947e-06,0.0,0.0,-0.6,0.0,0.003246307373046875,0.003246307373046875,0.004641532897949219,0
1.119884729385376,0.016773564741015434,-0.0032132479827851057,-0.2715538442134857,-0.026323913381173784,0.6963449109795522,0.0182701041003167,0.026369556102559963,-7.329769092077284e-06,0.0,0.0,-0.6,0.0,0.003061056137084961,0.003061056137084961,0.004243612289428711,0
1.1303825378417969,0.01707981713116169,-0.003467555157840252,-0.2770198583602905,-0.026342270924610476,0.695267345634723,0.017796390187878684,0.02644234136557478,-1.1246098834001063e-05,0.0,0.0,-0.6,0.0,0.003123044967651367,0.003123044967651367,0.004170894622802734,0
1.1401755809783936,0.017384884878993034,-0.0037172562442719936,-0.2824483811855316,-0.026345758452723536,0.6942102422644449,0.01730629608412788,0.0264803882490095,-1.4824448222665891e-05,0.0,0.0,-0.6,0.0,0.002967357635498047,0.002967357635498047,0.0045642852783203125,0
1.1502974033355713,0.017985235899686813,-0.004195030312985182,-0.29318559169769287,-0.026361506734260843,0.6931754245694548,0.01665502779564635,0.026519427987596437,-1.6364016528153023e-05,0.0,0.0,-0.6,0.0,0.0029671192169189453,0.0029671192169189453,0.0039179325103759766,0
1.160043716430664,0.018279235810041428,-0.004422130063176155,-0.2984921634197235,-0.026370573681912736,0.6921612151060412,0.015964545744807393,0.026419415187562304,-1.9468736491008954e-05,0.0,0.0,-0.6,0.0,0.002343893051147461,0.002343893051147461,0.003861665725708008,0
1.1699352264404297,0.018569346517324448,-0.004643687512725592,-0.3037872612476349,-0.02636906928067912,0.6911699125467627,0.015374924989603916,0.026289222221205878,-2.2150378915301862e-05,0.0,0.0,-0.6,0.0,0.002849102020263672,0.002849102020263672,0.003730297088623047,0
1.1803922653198242,0.018857402727007866,-0.004861865192651749,-0.3090387284755707,-0.026375102691171215,0.6902029458362078,0.014867059797123258,0.026113108829618543,-2.417443213125088e-05,0.0,0.0,-0.6,0.0,0.0026319026947021484,0.0026319026947021484,0.004202127456665039,0
1.1902899742126465,0.019427018240094185,-0.0052846153266727924,-0.31940776109695435,-0.026372458803634532,0.689261279121919,0.0144260940211903,0.025989924821786692,-2.5454548307817007e-05,0.0,0.0,-0.6,0.0,0.002346038818359375,0.002346038818359375,0.0032029151916503906,0
1.1999025344848633,0.01970953494310379,-0.005489664152264595,-0.3245236575603485,-0.026374383754227935,0.6883432455603608,0.01400394224028579,0.02580906805166577,-2.800554088532551e-05,0.0,0.0,-0.6,0.0,0.0026535987854003906,0.0026535987854003906,0.004044294357299805,0
1.2095942497253418,0.019987739622592926,-0.005690010730177164,-0.3295917809009552,-0.02636466780430712,0.6874501823838665,0.013554353785752853,0.025517417004034017,-2.9642812091183967e-05,0.0,0.0,-0.6,0.0,0.002581357955932617,0.002581357955932617,0.003468036651611328,0
1.2199747562408447,0.020260369405150414,-0.005885198712348938,-0.3346121907234192,-0.026353939017807724,0.686583074739657,0.013089587191116324,0.02514320210212183,-3.133068251126283e-05,0.0,0.0,-0.6,0.0,0.0026502609252929688,0.0026502609252929688,0.0038671493530273438,0
1.2299561500549316,0.020528344437479973,-0.006075608544051647,-0.33958369493484497,-0.0263784385431141,0.6857423331673851,0.012623792442827613,0.024698759832533296,-3.281606699091083e-05,0.0,0.0,-0.6,0.0,0.002782583236694336,0.002782583236694336,0.0036749839782714844,0
1.2401950359344482,0.022064760327339172,-0.006997201591730118,-0.35130465030670166,-0.026387390601439204,0.6849285002205461,0.012296949047696399,0.024570273156163735,-3.332240296867823e-05,0.0,0.0,-0.6,0.0,0.002562999725341797,0.002562999725341797,0.0038111209869384766,0
1.2503256797790527,0.022810405120253563,-0.007439989130944014,-0.3570781648159027,-0.02636436446493919,0.6841377894286262,0.012011039798527478,0.024524050602262194,-3.462508261784178e-05,0.0,0.0,-0.6,0.0,0.002832174301147461,0.002832174301147461,0.0036737918853759766,0
1.2606635093688965,0.023542379960417747,-0.007871982641518116,-0.3627755641937256,-0.02636482453199871,0.6833701175836397,0.011804064005810475,0.02454338380637548,-3.6165858640195623e-05,0.0,0.0,-0.6,0.0,0.002378702163696289,0.002378702163696289,0.004525184631347656,0
1.2700507640838623,0.024257369339466095,-0.008292912505567074,-0.3683968484401703,-0.026379133177990656,0.682625373294017,0.011633346298896683,0.024615517180575433,-3.839036096070167e-05,0.0,0.0,-0.6,0.0,0.0032835006713867188,0.0032835006713867188,0.004342317581176758,0
1.2810003757476807,0.024958636611700058,-0.008703972212970257,-0.3739413022994995,-0.026395610616969656,0.6819034646986347,0.01153451584031545,0.024669546593640162,-4.049591690381689e-05,0.0,0.0,-0.6,0.0,0.0025343894958496094,0.0025343894958496094,0.0036978721618652344,0
1.289659023284912,0.02631790190935135,-0.009502238593995571,-0.3847990334033966,-0.026389365082354833,0.6812046249149204,0.011654332869189673,0.02485359018771314,-4.164385401358583e-05,0.0,0.0,-0.6,0.0,0.0028922557830810547,0.0028922557830810547,0.003744363784790039,0
1.3001761436462402,0.026976386085152626,-0.00988888181746006,-0.39011135697364807,-0.02637079420283689,0.6805279907993008,0.011755153770013438,0.02498518956225608,-4.404038043750892e-05,0.0,0.0,-0.6,0.0,0.0023512840270996094,0.0023512840270996094,0.003785371780395508,0
1.3101806640625,0.02825518511235714,-0.01063365675508976,-0.4005998373031616,-0.02634985934881479,0.6798741155382247,0.011831837402571708,0.02523247648122259,-4.518564668508983e-05,0.0,0.0,-0.6,0.0,0.0024747848510742188,0.0024747848510742188,0.003280162811279297,0
1.320314884185791,0.02887551672756672,-0.010992823168635368,-0.4057268798351288,-0.026333566444554892,0.6792428525534943,0.011854883207697876,0.025397989139781904,-4.774499544484033e-05,0.0,0.0,-0.6,0.0,0.0030677318572998047,0.0030677318572998047,0.004690885543823242,0
1.3301606178283691,0.029484786093235016,-0.011343094520270824,-0.4107761085033417,-0.02633430695901177,0.6786345965262317,0.011783774418998869,0.025490252298338307,-5.013413961116855e-05,0.0,0.0,-0.6,0.0,0.0015902519226074219,0.0015902519226074219,0.0022001266479492188,0
1.3401575088500977,0.030082132667303085,-0.011684528551995754,-0.4157477617263794,-0.026324846885596092,0.678049632825412,0.011703003132234423,0.025526500510956344,-5.26941194195158e-05,0.0,0.0,-0.6,0.0,0.0023543834686279297,0.0023543834686279297,0.0035207271575927734,0
1.3496630191802979,0.03124244138598442,-0.012342534027993679,-0.42545628547668457,-0.02633057131009792,0.6774880762658108,0.011620075758932868,0.025655620800991204,-5.5630250819287846e-05,0.0,0.0,-0.6,0.0,0.0022115707397460938,0.0022115707397460938,0.0031685829162597656,0
1.35990571975708,0.031806088984012604,-0.012659373693168163,-0.43022462725639343,-0.026338309080927796,0.6769510212693524,0.01152097578413726,0.025693509350646602,-5.818347628659618e-05,0.0,0.0,-0.6,0.0,0.002126455307006836,0.002126455307006836,0.0031714439392089844,0
1.3699438571929932,0.0323592834174633,-0.012969166971743107,-0.434914231300354,-0.02633541166771513,0.6764383472643941,0.01141376710073445,0.02570222046101921,-6.042580003027783e-05,0.0,0.0,-0.6,0.0,0.0028476715087890625,0.0028476715087890625,0.0038230419158935547,0
1.379957914352417,0.03290354833006859,-0.013271068222820759,-0.43952420353889465,-0.026332594244260387,0.6759499575416559,0.011208027804266897,0.02567821837203425,-6.209569534639333e-05,0.0,0.0,-0.6,0.0,0.0019655227661132812,0.0019655227661132812,0.002934694290161133,0
1.3902294635772705,0.03396381810307503,-0.013847372494637966,-0.4485035836696625,-0.026351623424764714,0.6754859249217776,0.010934544366240785,0.02571655983799358,-6.175074873106305e-05,0.0,0.0,-0.6,0.0,0.0028564929962158203,0.0028564929962158203,0.003676176071166992,0
1.4000027179718018,0.034476060420274734,-0.014123133383691311,-0.45287391543388367,-0.026353162620115184,0.6750481363447695,0.010627334151243674,0.025639493361778978,-6.220423454311897e-05,0.0,0.0,-0.6,0.0,0.00241851806640625,0.00241851806640625,0.0036437511444091797,0
1.4099864959716797,0.034977756440639496,-0.014391549862921238,-0.45716360211372375,-0.026362781174290684,0.6746360891493232,0.010327915229665485,0.025486273180160432,-6.277050737665122e-05,0.0,0.0,-0.6,0.0,0.002310514450073242,0.002310514450073242,0.003083944320678711,0
1.4200046062469482,0.035468779504299164,-0.01465123426169157,-0.46137183904647827,-0.026374562381623796,0.6742495341397851,0.00992690703956027,0.025232246541922236,-6.277826529885144e-05,0.0,0.0,-0.6,0.0,0.0021517276763916016,0.0021517276763916016,0.003146648406982422,0
1.4297592639923096,0.03641989454627037,-0.015142610296607018,-0.46959275007247925,-0.026358989465455798,0.6738881993144991,0.00943150452590297,0.024991897545729194,-6.194579169002097e-05,0.0,0.0,-0.6,0.0,0.003050088882446289,0.003050088882446289,0.004004716873168945,0
1.4398486614227295,0.03687964752316475,-0.015375093556940556,-0.4736045300960541,-0.026369944390834073,0.6735549854111689,0.008929311298905156,0.02464317913052697,-6.048374396219883e-05,0.0,0.0,-0.6,0.0,0.001878499984741211,0.001878499984741211,0.0027322769165039062,0
1.450085163116455,0.037326741963624954,-0.015598821453750134,-0.47753530740737915,-0.02636071323741896,0.6732485405657359,0.008402080152830626,0.02415266242029978,-5.868509364620416e-05,0.0,0.0,-0.6,0.0,0.0026810169219970703,0.0026810169219970703,0.0036144256591796875,0
1.460313081741333,0.03776147961616516,-0.01581384986639023,-0.4813850522041321,-0.026355741409949934,0.6729678295912067,0.007880571495086757,0.023601647286717018,-5.659879392045851e-05,0.0,0.0,-0.6,0.0,0.002006053924560547,0.002006053924560547,0.0029664039611816406,0
1.4703385829925537,0.03859575465321541,-0.016215920448303223,-0.48884567618370056,-0.02633103604779302,0.6727119534604288,0.007216969482618872,0.023035545247016655,-5.2892008568589734e-05,0.0,0.0,-0.6,0.0,0.0029315948486328125,0.0029315948486328125,0.003780364990234375,0
1.4801182746887207,0.03899598494172096,-0.016402753069996834,-0.4924561083316803,-0.026326233535017396,0.6724836185135142,0.00656086513532487,0.022440548006828133,-4.8955523063914476e-05,0.0,0.0,-0.6,0.0,0.0018703937530517578,0.0018703937530517578,0.0030364990234375,0
1.4897000789642334,0.03938614949584007,-0.016579383984208107,-0.49598824977874756,-0.026311865412307137,0.6722811654616666,0.005821732752250934,0.02179525529213092,-4.4408512911270496e-05,0.0,0.0,-0.6,0.0,0.002890348434448242,0.002890348434448242,0.0035982131958007812,0
1.5001630783081055,0.039765745401382446,-0.01674526184797287,-0.49946871399879456,-0.026312579433097363,0.6721032044553572,0.005091354236773981,0.021108641741983066,-3.875643791271118e-05,0.0,0.0,-0.6,0.0,0.0023369789123535156,0.0023369789123535156,0.003260374069213867,0
1.5099818706512451,0.04049418121576309,-0.017049308866262436,-0.5061865448951721,-0.026297029710608846,0.6719487984777448,0.004231917267033793,0.02037699388209554,-3.115534099727771e-05,0.0,0.0,-0.6,0.0,0.0024938583374023438,0.0024938583374023438,0.0033512115478515625,0
1.5200836658477783,0.04084298014640808,-0.017187170684337616,-0.5094245672225952,-0.02627970339062612,0.671821878570377,0.0034238979466510097,0.019626067549447415,-2.4529912101230934e-05,0.0,0.0,-0.6,0.0,0.0021009445190429688,0.0021009445190429688,0.0030689239501953125,0
1.5299222469329834,0.04118188098073006,-0.017317237332463264,-0.5125834345817566,-0.026259192918721874,0.671720401462204,0.0027671382573783753,0.018863632505859554,-1.882258962966461e-05,0.0,0.0,-0.6,0.0,0.0030045509338378906,0.0030045509338378906,0.003947257995605469,0
1.539996862411499,0.04151073843240738,-0.01744011789560318,-0.5156628489494324,-0.026254670330071225,0.6716429153588582,0.0021315484835032635,0.01807531719802325,-1.2927500365776609e-05,0.0,0.0,-0.6,0.0,0.0017533302307128906,0.0017533302307128906,0.002895355224609375,0
1.550121784210205,0.04213830828666687,-0.01766015961766243,-0.5216140151023865,-0.026243008569227205,0.6715881089248463,0.0013867797668801517,0.017288615144527657,-5.446888996828831e-06,0.0,0.0,-0.6,0.0,0.0029082298278808594,0.0029082298278808594,0.0038661956787109375,0
1.5602469444274902,0.04243895784020424,-0.017757970839738846,-0.5244859457015991,-0.026244326681803282,0.6715599705712797,0.0007295642506032039,0.01652076230220483,9.683197642519927e-07,0.0,0.0,-0.6,0.0,0.002417325973510742,0.002417325973510742,0.003762960433959961,0
1.569739818572998,0.04272982478141785,-0.017849432304501534,-0.5272798538208008,-0.026252132003081467,0.6715560954054058,0.00020875992234676075,0.015694775753010613,6.097899981169263e-06,0.0,0.0,-0.6,0.0,0.0019750595092773438,0.0019750595092773438,0.0026254653930664062,0
1.5805926322937012,0.04300955310463905,-0.01793476566672325,-0.5299955606460571,-0.026257791454369742,0.671574739518548,-0.0002585920748861975,0.014847504933815581,1.1107876083430963e-05,0.0,0.0,-0.6,0.0,0.0024242401123046875,0.0024242401123046875,0.003578662872314453,0
1.5896782875061035,0.043540339916944504,-0.018084518611431122,-0.5351937413215637,-0.026256511711583125,0.6716145976781982,-0.0008148101901751885,0.013973258206442718,1.7894489903116655e-05,0.0,0.0,-0.6,0.0,0.0018925666809082031,0.0018925666809082031,0.0028553009033203125,0
1.600215196609497,0.043792709708213806,-0.018149062991142273,-0.5376770496368408,-0.026248501350820696,0.671680096766031,-0.001321614095546652,0.013110241929463457,2.3441802302873824e-05,0.0,0.0,-0.6,0.0,0.0014989376068115234,0.0014989376068115234,0.002353191375732422,0
1.6097536087036133,0.04403296485543251,-0.018206829205155373,-0.5400831699371338,-0.026244732399734905,0.6717688021160731,-0.0017835670777166996,0.012224409730911833,2.8237311595487972e-05,0.0,0.0,-0.6,0.0,0.0029883384704589844,0.0029883384704589844,0.00405120849609375,0
1.620004415512085,0.044262174516916275,-0.018257787451148033,-0.5424115061759949,-0.026239575603142544,0.6718789403420324,-0.0022090023598588257,0.011289390220424642,3.309053097328306e-05,0.0,0.0,-0.6,0.0,0.0019130706787109375,0.0019130706787109375,0.0028133392333984375,0
1.6305899620056152,0.04448012262582779,-0.01830199360847473,-0.5447078943252563,-0.026243036392983733,0.6720092007040158,-0.0026298474674792665,0.010338618176396707,3.788898247713636e-05,0.0,0.0,-0.6,0.0,0.0025305747985839844,0.0025305747985839844,0.0033740997314453125,0
1.6399226188659668,0.045138780027627945,-0.01904297061264515,-0.5510755777359009,-0.026232651026804717,0.672158202378124,-0.002763072438349302,0.009311065320326469,3.990308037779871e-05,0.0,0.0,-0.6,0.0,0.0028793811798095703,0.0028793811798095703,0.004049539566040039,0
1.6499781608581543,0.04544714093208313,-0.019393686205148697,-0.5541101098060608,-0.026218994910132846,0.6723272157369504,-0.0028016854800737693,0.008344255684516319,4.014516670412423e-05,0.0,0.0,-0.6,0.0,0.0016374588012695312,0.0016374588012695312,0.0021905899047851562,0
1.6605863571166992,0.04574248194694519,-0.019730448722839355,-0.5570461750030518,-0.026211555640219448,0.6725129345290041,-0.0027825517825107496,0.007431446168774098,3.977335986414037e-05,0.0,0.0,-0.6,0.0,0.0029277801513671875,0.0029277801513671875,0.004433870315551758,0
1.6696319580078125,0.04629730433225632,-0.02036353573203087,-0.562626302242279,-0.026211093059188128,0.6727130169305606,-0.00269932866901683,0.006518132129617034,3.883760008841997e-05,0.0,0.0,-0.6,0.0,0.0018875598907470703,0.0018875598907470703,0.0025773048400878906,0
1.6807477474212646,0.04655446857213974,-0.020661547780036926,-0.5652732849121094,-0.026217911087527676,0.6729306524225106,-0.0026086107576322164,0.005633892152537997,3.733980370109526e-05,0.0,0.0,-0.6,0.0,0.0018253326416015625,0.0018253326416015625,0.003068208694458008,0
1.689760446548462,0.04679914936423302,-0.020946765318512917,-0.567827045917511,-0.02623114674712134,0.6731631675042823,-0.002510526422889499,0.0048073784200658495,3.559561893414231e-05,0.0,0.0,-0.6,0.0,0.0035867691040039062,0.0035867691040039062,0.004598855972290039,0
1.700202226638794,0.04703288525342941,-0.021220192313194275,-0.5703185796737671,-0.02623796055668223,0.6734084964320255,-0.0023988489355458785,0.00404344285600156,3.369092906350476e-05,0.0,0.0,-0.6,0.0,0.0022225379943847656,0.0022225379943847656,0.0034630298614501953,0
1.7111287117004395,0.04746800661087036,-0.02173093892633915,-0.5750271677970886,-0.0262361123879836,0.6736651616387358,-0.0023271399320976666,0.003214053706171369,3.220557906329777e-05,0.0,0.0,-0.6,0.0,0.0034775733947753906,0.0034775733947753906,0.005015373229980469,0
1.7198190689086914,0.0476667620241642,-0.021969646215438843,-0.5772461295127869,-0.02624223224804881,0.6739372690551394,-0.0022132483115295883,0.0023823886141082656,3.0138855394053446e-05,0.0,0.0,-0.6,0.0,0.0026090145111083984,0.0026090145111083984,0.003662109375,0
1.7299041748046875,0.047851886600255966,-0.022197876125574112,-0.5793769359588623,-0.026250504026705646,0.674222617754666,-0.0021132440299822647,0.0015143598090263896,2.8221362104205774e-05,0.0,0.0,-0.6,0.0,0.0020339488983154297,0.0020339488983154297,0.002772092819213867,0
1.7401578426361084,0.04802291467785835,-0.022416165098547935,-0.581419825553894,-0.02623231584652794,0.6745194490527386,-0.001977962603111035,0.000647646907528472,2.5822263875641347e-05,0.0,0.0,-0.6,0.0,0.0027227401733398438,0.0027227401733398438,0.003787517547607422,0
1.7496695518493652,0.048333246260881424,-0.02281913347542286,-0.5852480530738831,-0.026247430731438898,0.6748267218339666,-0.002048425965125752,-0.0002897201807846744,2.6023964147102266e-05,0.0,0.0,-0.6,0.0,0.0019159317016601562,0.0019159317016601562,0.0027227401733398438,0
1.759927749633789,0.048472873866558075,-0.023003490641713142,-0.5870376825332642,-0.026251853900664274,0.6751487598820543,-0.0021013546173528587,-0.0011405640309858436,2.6004056936377542e-05,0.0,0.0,-0.6,0.0,0.002370595932006836,0.002370595932006836,0.003203868865966797,0
1.7703981399536133,0.04860106483101845,-0.023178592324256897,-0.5887601971626282,-0.02626490951894787,0.6754831504764159,-0.0020909725220179666,-0.001960572319007387,2.520016716959538e-05,0.0,0.0,-0.6,0.0,0.0027618408203125,0.0027618408203125,0.003793954849243164,0
1.7808647155761719,0.048718277364969254,-0.023344730958342552,-0.5904003381729126,-0.026263242319385996,0.6758283216101095,-0.002105566622053408,-0.0027322262230961296,2.471548225505474e-05,0.0,0.0,-0.6,0.0,0.001955270767211914,0.001955270767211914,0.003050565719604492,0
1.7900254726409912,0.04891986399888992,-0.023646991699934006,-0.5934380888938904,-0.026261275569904208,0.6761829566667794,-0.002201295638116788,-0.003611097784909161,2.5430203740495085e-05,0.0,0.0,-0.6,0.0,0.0031249523162841797,0.0031249523162841797,0.004022359848022461,0
1.800130844116211,0.04900531470775604,-0.023783205077052116,-0.5948375463485718,-0.02627792222431641,0.6765521390941267,-0.002333776778822322,-0.004419117554563906,2.6605079842185933e-05,0.0,0.0,-0.6,0.0,0.0016350746154785156,0.0016350746154785156,0.0026543140411376953,0
1.8104145526885986,0.04907954856753349,-0.023909790441393852,-0.5961584448814392,-0.0262850468149013,0.6769333605484842,-0.00245610991289633,-0.00520513904921671,2.760213408144415e-05,0.0,0.0,-0.6,0.0,0.002051115036010742,0.002051115036010742,0.0027618408203125,0
1.821160078048706,0.04914426431059837,-0.024026332423090935,-0.5974018573760986,-0.02627412514732491,0.6773249305539821,-0.002676598489292273,-0.005968745134887016,2.977786008178575e-05,0.0,0.0,-0.6,0.0,0.0029001235961914062,0.0029001235961914062,0.0043942928314208984,0
1.829956293106079,0.049240726977586746,-0.024228326976299286,-0.5996668338775635,-0.026285627735100486,0.6777254508869395,-0.0029619744056649517,-0.006862336472708248,3.253581713809078e-05,0.0,0.0,-0.6,0.0,0.0028486251831054688,0.0028486251831054688,0.003892183303833008,0
1.8404738903045654,0.049272406846284866,-0.024314891546964645,-0.6007569432258606,-0.026305723919307928,0.6781392675230674,-0.003285790211796819,-0.00771793527751604,3.591127584008425e-05,0.0,0.0,-0.6,0.0,0.0021104812622070312,0.0021104812622070312,0.0034666061401367188,0
1.849771499633789,0.049292925745248795,-0.024390820413827896,-0.6017723679542542,-0.026311949377141684,0.678563812583439,-0.0035912180019297617,-0.008517848506804298,3.9038994910715155e-05,0.0,0.0,-0.6,0.0,0.0026187896728515625,0.0026187896728515625,0.003530263900756836,0
1.8599016666412354,0.0493021234869957,-0.02445879392325878,-0.6027140021324158,-0.02630325388279931,0.6789972881146515,-0.0037696841394491156,-0.009297353310477985,4.043712306116275e-05,0.0,0.0,-0.6,0.0,0.002409219741821289,0.002409219741821289,0.003444194793701172,0
1.8701171875,0.049285076558589935,-0.024570919573307037,-0.6043867468833923,-0.026304803254001585,0.6794381634112479,-0.004084461273519635,-0.010274489086767778,4.381397804225304e-05,0.0,0.0,-0.6,0.0,0.0025682449340820312,0.0025682449340820312,0.003349781036376953,0
1.8808321952819824,0.049259379506111145,-0.0246133990585804,-0.6051191687583923,-0.026306785323351074,0.6798908943115505,-0.004322250294646413,-0.011184068918520182,4.570751247464867e-05,0.0,0.0,-0.6,0.0,0.002632617950439453,0.002632617950439453,0.00406646728515625,0
1.8896219730377197,0.049222301691770554,-0.0246482715010643,-0.6057830452919006,-0.026304480457841724,0.6803529533347193,-0.004507729453517483,-0.012000357787360196,4.722667353315005e-05,0.0,0.0,-0.6,0.0,0.0015685558319091797,0.0015685558319091797,0.0022115707397460938,0
1.9001715183258057,0.0491756796836853,-0.024675674736499786,-0.6063799858093262,-0.02630770224115575,0.6808223669272123,-0.004664752604269081,-0.012723810658255693,4.818277458724285e-05,0.0,0.0,-0.6,0.0,0.002070188522338867,0.002070188522338867,0.0033559799194335938,0
1.9096674919128418,0.04905524477362633,-0.024703092873096466,-0.6074248552322388,-0.02627780497398625,0.6812976754992125,-0.005061565212910191,-0.013560471813574464,5.282059410276267e-05,0.0,0.0,-0.6,0.0,0.0023398399353027344,0.0023398399353027344,0.003222942352294922,0
1.9202938079833984,0.04898100346326828,-0.0247027724981308,-0.6078473925590515,-0.026270244363253127,0.681784083711773,-0.00543925858107612,-0.014302703962460795,5.6618769409449055e-05,0.0,0.0,-0.6,0.0,0.002407073974609375,0.002407073974609375,0.0038454532623291016,0
1.9302773475646973,0.048897650092840195,-0.02469445765018463,-0.6082063317298889,-0.026286069802796186,0.6822789486647575,-0.0057404095815051836,-0.014950639664264475,5.913370166890276e-05,0.0,0.0,-0.6,0.0,0.0022649765014648438,0.0022649765014648438,0.0032105445861816406,0
1.9398763179779053,0.04880555719137192,-0.024678215384483337,-0.6085020303726196,-0.026277321183687075,0.6827802341627639,-0.006033643736719897,-0.015537671849386986,6.171292638706178e-05,0.0,0.0,-0.6,0.0,0.0022394657135009766,0.0022394657135009766,0.0031490325927734375,0
1.9499037265777588,0.04870409891009331,-0.02465367317199707,-0.6087360978126526,-0.02627916732829371,0.6832863862730031,-0.006323960411701109,-0.016071377741337455,6.411152750116483e-05,0.0,0.0,-0.6,0.0,0.0023376941680908203,0.0023376941680908203,0.003155231475830078,0
1.9600157737731934,0.04847215116024017,-0.02457847259938717,-0.6090661287307739,-0.02627967037904428,0.6837963739609882,-0.00677353740045287,-0.016795173362814098,6.808736389266474e-05,0.0,0.0,-0.6,0.0,0.002253293991088867,0.002253293991088867,0.0032286643981933594,0
1.9698221683502197,0.04834058880805969,-0.02452903799712658,-0.6091645956039429,-0.02625713897599779,0.6843150767787973,-0.007150608976481974,-0.017462216940494137,7.088782453748964e-05,0.0,0.0,-0.6,0.0,0.001842498779296875,0.001842498779296875,0.0025141239166259766,0
1.9803550243377686,0.048199012875556946,-0.024471508339047432,-0.6092063188552856,-0.026257915887971422,0.6848398141411903,-0.007511378669832404,-0.018092767736762886,7.348242084958538e-05,0.0,0.0,-0.6,0.0,0.0023012161254882812,0.0023012161254882812,0.0034515857696533203,0
1.9896924495697021,0.048046428710222244,-0.02440623752772808,-0.60919189453125,-0.026254220123200497,0.6853684482659964,-0.007804959119769552,-0.018700967690815914,7.555383402562082e-05,0.0,0.0,-0.6,0.0,0.002568483352661133,0.002568483352661133,0.003401041030883789,0
2.001124382019043,0.047714799642562866,-0.024257594719529152,-0.60899817943573,-0.026240217484149515,0.6858996740762471,-0.00812953482705472,-0.019387486251269657,7.710127119907445e-05,0.0,0.0,-0.6,0.0,0.002222776412963867,0.002222776412963867,0.0038743019104003906,0
2.0107693672180176,0.04753793776035309,-0.024173149839043617,-0.6088209748268127,-0.02623838019267898,0.6864381274552627,-0.00842699359012512,-0.01998051468287476,7.853329296220022e-05,0.0,0.0,-0.6,0.0,0.003170013427734375,0.003170013427734375,0.004282712936401367,0
2.0200459957122803,0.04735193029046059,-0.02408113330602646,-0.6085912585258484,-0.026240697439170915,0.686981187554597,-0.008713703084248202,-0.02052527587866187,7.957938987738688e-05,0.0,0.0,-0.6,0.0,0.0023698806762695312,0.0023698806762695312,0.0031843185424804688,0
2.030160427093506,0.04715912789106369,-0.023984281346201897,-0.6083089709281921,-0.02625259884127504,0.687527181654072,-0.008864130239563804,-0.020953044265314368,7.957240745096459e-05,0.0,0.0,-0.6,0.0,0.0027098655700683594,0.0027098655700683594,0.0036072731018066406,0
2.040006399154663,0.04778376594185829,-0.024481911212205887,-0.6101948022842407,-0.026283090807935266,0.6880748689471267,-0.008717414769446655,-0.02112289690814398,7.577084798086805e-05,0.0,0.0,-0.6,0.0,0.0027475357055664062,0.0027475357055664062,0.004077434539794922,0
2.049712657928467,0.04806862771511078,-0.02471045032143593,-0.6110152006149292,-0.026286099837006537,0.6886246769368715,-0.008512710947458145,-0.021103073631856505,7.129616751171841e-05,0.0,0.0,-0.6,0.0,0.001956939697265625,0.001956939697265625,0.002717733383178711,0
2.0604450702667236,0.048336055129766464,-0.024925310164690018,-0.6117560267448425,-0.026280457570955446,0.6891734010145129,-0.008246573936026552,-0.020913614006596807,6.70129045774535e-05,0.0,0.0,-0.6,0.0,0.0018966197967529297,0.0018966197967529297,0.0031838417053222656,0
2.069678783416748,0.048820506781339645,-0.025317752733826637,-0.6130114793777466,-0.02628293876350109,0.6897187511497315,-0.007879432708514615,-0.020656755550462334,6.251859020969215e-05,0.0,0.0,-0.6,0.0,0.0020775794982910156,0.0020775794982910156,0.002722501754760742,0
2.0799057483673096,0.049036841839551926,-0.025496240705251694,-0.6135294437408447,-0.026287712088958307,0.6902624322110051,-0.0075140923786142805,-0.02032870747740371,5.7697383580986886e-05,0.0,0.0,-0.6,0.0,0.002893209457397461,0.002893209457397461,0.00431060791015625,0
2.0896408557891846,0.049236901104450226,-0.02566125988960266,-0.6139768362045288,-0.02630187399821915,0.6908022933215519,-0.007243269494602853,-0.019929467945855414,5.412424316399741e-05,0.0,0.0,-0.6,0.0,0.002775907516479492,0.002775907516479492,0.003589153289794922,0
2.0998737812042236,0.04941997304558754,-0.025812305510044098,-0.6143556833267212,-0.02630960071331002,0.6913367771672222,-0.007004849952149859,-0.01946318303043042,5.1086534533998734e-05,0.0,0.0,-0.6,0.0,0.0020084381103515625,0.0020084381103515625,0.002892732620239258,0
2.110502004623413,0.04974398761987686,-0.026081550866365433,-0.6149777770042419,-0.026316381009713015,0.6918648169423808,-0.006689175105194529,-0.018963255027581075,4.788571944435189e-05,0.0,0.0,-0.6,0.0,0.00258636474609375,0.00258636474609375,0.0034470558166503906,0
2.120384693145752,0.0498851053416729,-0.02620108798146248,-0.6151943206787109,-0.026346904389312534,0.6923885978715894,-0.006362195577410761,-0.018439396867132276,4.4131436295213426e-05,0.0,0.0,-0.6,0.0,0.002760171890258789,0.002760171890258789,0.004820585250854492,0
2.1301429271698,0.05001301318407059,-0.026310868561267853,-0.6153491735458374,-0.026364580702095086,0.6929067146954353,-0.0060427299275209925,-0.017887562171761327,4.0773387005150485e-05,0.0,0.0,-0.6,0.0,0.0023915767669677734,0.0023915767669677734,0.0032541751861572266,0
2.140084743499756,0.050128065049648285,-0.02641136199235916,-0.6154443621635437,-0.026404522411599046,0.693418162985645,-0.00572247853508746,-0.01733355826701904,3.7568445365866883e-05,0.0,0.0,-0.6,0.0,0.002319812774658203,0.002319812774658203,0.003388643264770508,0
2.1498866081237793,0.05032068118453026,-0.02658563293516636,-0.6154592037200928,-0.02642665803732624,0.6939223949900556,-0.00533047063894554,-0.016808159385309197,3.429471811346779e-05,0.0,0.0,-0.6,0.0,0.002111673355102539,0.002111673355102539,0.003079652786254883,0
2.1599438190460205,0.05039902776479721,-0.026661498472094536,-0.6153826713562012,-0.026423799598668835,0.6944225927192544,-0.004970355771851814,-0.01626426271448631,3.1164458416610005e-05,0.0,0.0,-0.6,0.0,0.0019578933715820312,0.0019578933715820312,0.002802610397338867,0
2.17002534866333,0.05046609044075012,-0.026728447526693344,-0.6152517199516296,-0.026439027731806876,0.6949174576455823,-0.004672196868790698,-0.015711295645708417,2.832248765324189e-05,0.0,0.0,-0.6,0.0,0.0021088123321533203,0.0021088123321533203,0.002946138381958008,0
2.180044174194336,0.05052138492465019,-0.026787087321281433,-0.6151002049446106,-0.026452597935592143,0.6954063720327396,-0.0043933666732429415,-0.015208743026550132,2.615429389235668e-05,0.0,0.0,-0.6,0.0,0.002238035202026367,0.002238035202026367,0.003106832504272461,0
2.1897075176239014,0.05059870332479477,-0.02688026614487171,-0.6146407723426819,-0.0264913999908598,0.6958886426848703,-0.0042142968827211845,-0.014724791748315078,2.4548193374721993e-05,0.0,0.0,-0.6,0.0,0.0030541419982910156,0.0030541419982910156,0.003989696502685547,0
