time,x,y,z,yaw,throttle,roll_rate,pitch_rate,yaw_rate,x_ref,y_ref,z_ref,yaw_ref,pred_time,nr_time,metadata
9.5367431640625e-07,0.021555941551923752,-0.10768497735261917,-0.003433018922805786,0.15961476612362205,-0.7393193646868151,0.15014640904880924,-0.4302244741731442,-0.059855440645026264,0.7368486466509158,0.3115350252037705,-1.25,0.0,0.19190740585327148,0.19204950332641602,Sim
0.19309782981872559,0.021555941551923752,-0.10768497735261917,-0.003433018922805786,0.15961476612362205,-0.7651617527086674,0.3074462428930549,-0.541157131921201,-0.10175435561272542,0.7033854967525044,0.3811152620379205,-1.25,0.0,0.000453948974609375,0.0005307197570800781,Jax
0.19953417778015137,0.02468692883849144,-0.1086394414305687,-0.006431601010262966,0.1597701440902617,-0.7853686571971472,0.42086340287242974,-0.6188099923448407,-0.13114184680412708,0.7021553612962546,0.3833769014989377,-1.25,0.0,0.0003535747528076172,0.0004184246063232422,1stOrderHold
0.20981192588806152,0.02479374408721924,-0.10859058052301407,-0.006431934889405966,0.15977462886148278,-0.8018289158161824,0.4983737385101674,-0.6731669946413885,-0.15171477219848406,0.7001759731071268,0.38698011148312017,-1.25,0.0,0.0005619525909423828,0.0006580352783203125,QuatYawError
0.21975493431091309,0.025006556883454323,-0.10847160965204239,-0.006388716399669647,0.1597845427447562,-0.8155158178593911,0.5481648351389192,-0.711216896248972,-0.16611954243287924,0.6982434550723844,0.3904562426810194,-1.25,0.0,0.0006754398345947266,0.0008118152618408203,0
0.22992324829101562,0.025111135095357895,-0.10840076953172684,-0.0063597760163247585,0.1597856978083743,-0.8269817448210645,0.5777883852071264,-0.7378518273742805,-0.176203311256125,0.6962492984823336,0.39400116035724864,-1.25,0.0,0.0007636547088623047,0.0008800029754638672,0
0.23973608016967773,0.025214742869138718,-0.10832265019416809,-0.0063254074193537235,0.15976860356842093,-0.8366029439393348,0.5933297833022348,-0.7564962791619964,-0.1832555451124848,0.6943077923059562,0.39741249293804204,-1.25,0.0,0.0004918575286865234,0.0005817413330078125,0
0.2496812343597412,0.025318164378404617,-0.10823875665664673,-0.006284304428845644,0.15977487375653102,-0.8446451264961012,0.5995161107980265,-0.7695473954133975,-0.1881944557255552,0.6923230522991296,0.40086006443049016,-1.25,0.0,0.00042629241943359375,0.0005033016204833984,0
0.25951433181762695,0.025522232055664062,-0.10805323719978333,-0.0061873504891991615,0.1597575604234545,-0.85133306256169,0.599635711067558,-0.7786831767893783,-0.1916452090111806,0.690343844643085,0.4042590458646587,-1.25,0.0,0.0004951953887939453,0.0005860328674316406,0
0.2699155807495117,0.02562359720468521,-0.10795131325721741,-0.006131836213171482,0.15973927273517163,-0.8568606507158159,0.5964467500410072,-0.7850782237525648,-0.1940538965262979,0.6882321189660863,0.40784378188646064,-1.25,0.0,0.0008873939514160156,0.001172780990600586,0
0.27974820137023926,0.025724725797772408,-0.10784459114074707,-0.006064926274120808,0.15973810121746393,-0.861407281238379,0.5915989811023573,-0.7895547566267953,-0.19573953394732305,0.6862187231481144,0.4112224021146849,-1.25,0.0,0.0006463527679443359,0.0007719993591308594,0
0.29021143913269043,0.025824740529060364,-0.10773272812366486,-0.0059925648383796215,0.1597486100719359,-0.865129256891592,0.5863621105061161,-0.7926883296387567,-0.1969233879584159,0.6840579832529601,0.4148067930348937,-1.25,0.0,0.0008003711700439453,0.0009534358978271484,0
0.29956483840942383,0.02602112852036953,-0.10749883204698563,-0.005835762247443199,0.15976424214136942,-0.868168260942322,0.5812962710120658,-0.7948818307471297,-0.1977579611303242,0.6821105828653704,0.41800137887698985,-1.25,0.0,0.0006821155548095703,0.0008149147033691406,0
0.3098418712615967,0.026118647307157516,-0.10737690329551697,-0.005749502219259739,0.15977599547034615,-0.8706441015087575,0.5769248010598962,-0.7964172815229908,-0.19834657298326716,0.6799536800423887,0.421500881371336,-1.25,0.0,0.0007832050323486328,0.0009152889251708984,0
0.3197765350341797,0.026216408237814903,-0.10725255310535431,-0.005658235866576433,0.15979845277501095,-0.8726598542913322,0.5734055691117133,-0.7974920970660936,-0.19876701448420317,0.677851565181956,0.4248732229505321,-1.25,0.0,0.0007448196411132812,0.0008909702301025391,0
0.32984352111816406,0.026313822716474533,-0.1071239560842514,-0.005560733377933502,0.1598140041919287,-0.8743051285795667,0.5708236993908913,-0.7982444679462655,-0.19906715350289136,0.6757043907779018,0.4282797873860785,-1.25,0.0,0.0007793903350830078,0.00093841552734375,0
0.3397374153137207,0.026511194184422493,-0.1068515032529831,-0.00534954946488142,0.1598271760878485,-0.8756558203225251,0.5690930554555502,-0.7987711275623859,-0.19928220020920498,0.6735774539695738,0.4316172071452513,-1.25,0.0,0.0006985664367675781,0.0008144378662109375,0
0.3500022888183594,0.026512593030929565,-0.10706177353858948,-0.005711694248020649,0.15982053244165442,-0.8767390768116189,0.568389104446567,-0.7991397892936701,-0.1994302366659339,0.6713533440404623,0.4350686008501288,-1.25,0.0,0.001032114028930664,0.0012259483337402344,0
0.359621524810791,0.026516485959291458,-0.10744818300008774,-0.006393185816705227,0.15982642440381611,-0.8775929554845793,0.5685406370274984,-0.7993978525055692,-0.199536076171996,0.6692530733351406,0.4382925094402926,-1.25,0.0,0.0007066726684570312,0.0008392333984375,0
0.37002134323120117,0.026516485959291458,-0.10744818300008774,-0.006393185816705227,0.15982642440381611,-0.8782931664511354,0.5694493435707845,-0.7995784967538985,-0.19961015775528354,0.6669649543840173,0.44176662348294915,-1.25,0.0,0.0010483264923095703,0.0014789104461669922,0
0.3797328472137451,0.026526974514126778,-0.10779143124818802,-0.007023102603852749,0.15982345655254118,-0.8788453254021461,0.5710239771258007,-0.7997049477277289,-0.19966091227012428,0.6648119907084535,0.44500001911265485,-1.25,0.0,0.0008170604705810547,0.0009520053863525391,0
0.3897993564605713,0.026536209508776665,-0.10794741660356522,-0.00731905922293663,0.1598186264055228,-0.8792964102846524,0.5732001914383303,-0.7997934634094103,-0.19969462383354908,0.6625637807218038,0.4483405362842284,-1.25,0.0,0.0006427764892578125,0.0007750988006591797,0
0.3999466896057129,0.02654661424458027,-0.10809464007616043,-0.0075982315465807915,0.15980323639976945,-0.8796671419688269,0.5758685420196059,-0.7998554243865872,-0.19971245006699972,0.6602805322183363,0.4516963789687391,-1.25,0.0,0.0008296966552734375,0.000978708267211914,0
0.40975522994995117,0.0265584047883749,-0.10823210328817368,-0.007865655235946178,0.15979004681242007,-0.8799782170660595,0.5787837509358945,-0.7998987970706111,-0.19971998463287333,0.6580573595467082,0.45492912804789115,-1.25,0.0,0.0007586479187011719,0.0008957386016845703,0
0.4199025630950928,0.026584332808852196,-0.10847491025924683,-0.008365822955965996,0.15981615576441688,-0.880227338777806,0.5819572123438057,-0.7999291579494278,-0.19973505162652924,0.6557407408710988,0.45826202195013127,-1.25,0.0,0.0008132457733154297,0.0009663105010986328,0
0.4297971725463867,0.026599572971463203,-0.10858074575662613,-0.008602598682045937,0.1598128424492027,-0.8804355953879521,0.5853620591132564,-0.7999504105645995,-0.19974436213523256,0.653465563371622,0.46150054982351724,-1.25,0.0,0.0009341239929199219,0.0014286041259765625,0
0.4398641586303711,0.02661645971238613,-0.10867739468812943,-0.008830370381474495,0.15984053917348387,-0.8806166787935525,0.5889594906872031,-0.7999652873952197,-0.19976126024911214,0.6511343352729669,0.4647839040119952,-1.25,0.0,0.0006575584411621094,0.0007848739624023438,0
0.4500424861907959,0.026634646579623222,-0.10876437276601791,-0.009048526175320148,0.1598438227734056,-0.8807762855075456,0.5926825369128393,-0.7999757011766537,-0.1997743130047243,0.6487605520360411,0.4680916001402837,-1.25,0.0,0.0009617805480957031,0.0011374950408935547,0
0.4597446918487549,0.02667061798274517,-0.10891079902648926,-0.009491494856774807,0.15983210246263926,-0.8809200334414105,0.5965204583677344,-0.7999829908236576,-0.1997790568750368,0.6464821667662393,0.47123328411014054,-1.25,0.0,0.0006477832794189453,0.0007627010345458984,0
0.46985554695129395,0.026688680052757263,-0.1089712604880333,-0.009695432148873806,0.15981576525099797,-0.8810521232902023,0.6004967373294212,-0.7999880935765604,-0.19977625233903323,0.6440916300189719,0.47449549222253307,-1.25,0.0,0.0008070468902587891,0.0009598731994628906,0
0.47973108291625977,0.026707500219345093,-0.10902395099401474,-0.009890328161418438,0.15981558245772942,-0.8811770592178788,0.6045118947621614,-0.7999916655035924,-0.19977422082153587,0.6417408389293786,0.4776700698706351,-1.25,0.0,0.0008115768432617188,0.0009596347808837891,0
0.4899458885192871,0.026728110387921333,-0.10906825959682465,-0.010075046680867672,0.15982406817732844,-0.8813016372064983,0.6086054635987044,-0.7999941658525147,-0.19977598201024885,0.6392928260154629,0.48094145444655023,-1.25,0.0,0.0006401538848876953,0.0007486343383789062,0
0.499647855758667,0.026768755167722702,-0.10913611203432083,-0.010414655320346355,0.1597956717959408,-0.8814161271991903,0.612704846641398,-0.7999959160967604,-0.1997665636601509,0.6369522741300072,0.4840369825546518,-1.25,0.0,0.0006797313690185547,0.0008082389831542969,0
0.5095806121826172,0.026789415627717972,-0.1091596707701683,-0.01057073101401329,0.15981629680738085,-0.8815318430201977,0.6168011883155159,-0.7999971412677322,-0.1997677054712524,0.6345405181181641,0.4871943460943814,-1.25,0.0,0.0008287429809570312,0.0010182857513427734,0
0.5197031497955322,0.026811443269252777,-0.10917671024799347,-0.010742885991930962,0.15983709057779574,-0.8816526790081176,0.6208721208525377,-0.7999979988874126,-0.19977630626820744,0.6320665797813582,0.4903996724341239,-1.25,0.0,0.0006802082061767578,0.0008020401000976562,0
0.5298948287963867,0.026833834126591682,-0.10918577760457993,-0.010904794558882713,0.1598620671087512,-0.8817734549977347,0.6249194034327573,-0.7999985992211889,-0.19979169219871945,0.6295593859729997,0.49361420110578236,-1.25,0.0,0.000766754150390625,0.0009036064147949219,0
0.539597749710083,0.026877738535404205,-0.1091885194182396,-0.01119903102517128,0.15986343863820654,-0.8818903170696731,0.629063607933801,-0.7999990194548322,-0.19980297354467777,0.6271572367386842,0.49666266258527847,-1.25,0.0,0.0005292892456054688,0.0006368160247802734,0
0.5500257015228271,0.02690056897699833,-0.10918162763118744,-0.011332268826663494,0.1598579975058965,-0.8820100145412586,0.6332335425966652,-0.7999993136183825,-0.19980882977954997,0.6245591365293265,0.49992587948389133,-1.25,0.0,0.0008921623229980469,0.0010843276977539062,0
0.5599396228790283,0.02692420780658722,-0.10916800796985626,-0.011456837877631187,0.15985160581187352,-0.8821337558649601,0.6373100333756055,-0.7999995195328677,-0.1998105326669927,0.6220733606022749,0.503015639944716,-1.25,0.0,0.0008285045623779297,0.0010030269622802734,0
0.5696432590484619,0.026976948603987694,-0.10912207514047623,-0.011682271957397461,0.1598477242575325,-0.8822695698379788,0.6413415081892397,-0.7999996636730075,-0.1998102625950075,0.6196255079663539,0.5060278943669391,-1.25,0.0,0.0013318061828613281,0.0016160011291503906,0
0.5796747207641602,0.02700488455593586,-0.10908903181552887,-0.011782921850681305,0.15986514804498267,-0.8824116019191484,0.6453074257877075,-0.7999997645711052,-0.19981661062162923,0.6170796247683166,0.5091293909172734,-1.25,0.0,0.0006153583526611328,0.0007174015045166016,0
0.5902607440948486,0.02703450433909893,-0.10904861241579056,-0.011874552816152573,0.1598752194880453,-0.882555943774293,0.6492500734444577,-0.7999998351997737,-0.19982483291857311,0.6143761655233263,0.5123884534577788,-1.25,0.0,0.001058340072631836,0.0011775493621826172,0
0.5996122360229492,0.027064908295869827,-0.1090003177523613,-0.011957821436226368,0.15987729712919954,-0.8827026940958291,0.652994441799777,-0.7999998846398416,-0.19983137014272798,0.6119736600917246,0.5152555088050378,-1.25,0.0,0.0007035732269287109,0.0008230209350585938,0
0.6097433567047119,0.027122637256979942,-0.10888171195983887,-0.01209940668195486,0.15987743621582087,-0.8828470709305755,0.6566433101555661,-0.7999999192478892,-0.19983599695208726,0.609355761808041,0.5183488743610255,-1.25,0.0,0.0010204315185546875,0.001169443130493164,0
0.6198289394378662,0.027151066809892654,-0.10881384462118149,-0.012159413658082485,0.15988493264123016,-0.8829873332336383,0.6603634126148852,-0.7999999434735224,-0.19984204570554503,0.6067340997937707,0.521415124586392,-1.25,0.0,0.0009746551513671875,0.0011749267578125,0
0.6299269199371338,0.02717815339565277,-0.10874059796333313,-0.012212038971483707,0.1598882095593777,-0.8831305074146606,0.6640529221418694,-0.7999999604314657,-0.19984750798488005,0.6040937575907771,0.5244718601029569,-1.25,0.0,0.0009324550628662109,0.0011088848114013672,0
0.640164852142334,0.02720504440367222,-0.10866141319274902,-0.012245801277458668,0.15988823034672908,-0.8832765249907989,0.667742300218759,-0.799999972302026,-0.1998513384898522,0.6014011008793221,0.5275573104991906,-1.25,0.0,0.0009441375732421875,0.001123666763305664,0
0.6499006748199463,0.02723192609846592,-0.10857683420181274,-0.012272166088223457,0.15989674807665136,-0.8834276724336045,0.6713767494019254,-0.7999999806114182,-0.19985722138173131,0.5988258832533868,0.5304786155405335,-1.25,0.0,0.0008919239044189453,0.001062154769897461,0
0.6596577167510986,0.027290409430861473,-0.1083884909749031,-0.012302390299737453,0.1599072302228779,-0.8835851766314377,0.6748292227365973,-0.7999999864279927,-0.1998652718825635,0.5962308164672547,0.5333936759043838,-1.25,0.0,0.0006723403930664062,0.0007905960083007812,0
0.6698431968688965,0.027321653440594673,-0.10828457027673721,-0.012307415716350079,0.15991248313680131,-0.8837428950032638,0.6783040754778525,-0.7999999904995949,-0.19987287550923108,0.5935066609641364,0.5364231943076303,-1.25,0.0,0.0008299350738525391,0.000990152359008789,0
0.6797330379486084,0.027354396879673004,-0.10817408561706543,-0.012305915355682373,0.1599166422748939,-0.8839026300571851,0.6817530987557388,-0.7999999933497165,-0.19987975418202453,0.5908468454341311,0.5393514672646548,-1.25,0.0,0.0010352134704589844,0.0012254714965820312,0
0.6903030872344971,0.027387747541069984,-0.10805769264698029,-0.012297673150897026,0.1599197058598929,-0.884063028345039,0.6852741900617068,-0.7999999953448016,-0.19988571754768494,0.5879881213122934,0.5424665604400328,-1.25,0.0,0.0008332729339599609,0.0009567737579345703,0
0.6998610496520996,0.0274534709751606,-0.10780913382768631,-0.012231774628162384,0.1599289048837174,-0.884232571409987,0.6886808068995963,-0.7999999967413611,-0.19989334283976995,0.5853889792634791,0.5452703393334927,-1.25,0.0,0.0008883476257324219,0.0010669231414794922,0
0.7098815441131592,0.02748718112707138,-0.1076774075627327,-0.01219011377543211,0.15992335190266996,-0.8844035650229563,0.692051541049499,-0.7999999977189528,-0.1998965915304974,0.5826497041150301,0.5481964267437975,-1.25,0.0,0.0008976459503173828,0.0010602474212646484,0
0.7197709083557129,0.027522491291165352,-0.10754185169935226,-0.01214295532554388,0.15991446875628615,-0.8845723011813549,0.6954453588780322,-0.799999998403267,-0.1998955383562857,0.5799319352470886,0.5510707309235056,-1.25,0.0,0.0007467269897460938,0.0008821487426757812,0
0.7298424243927002,0.027559995651245117,-0.1074027419090271,-0.01209195889532566,0.15989774303428053,-0.8847397655854704,0.6988927519316672,-0.7999999988822869,-0.19988853821483538,0.5771495349332927,0.5539841282259664,-1.25,0.0,0.0008385181427001953,0.001001119613647461,0
0.7397139072418213,0.027638668194413185,-0.10711104422807693,-0.011975599452853203,0.1599017710062294,-0.8849082744070783,0.702335793841979,-0.7999999992176009,-0.19988513645555658,0.5744081935126449,0.5568260295869257,-1.25,0.0,0.0008397102355957031,0.0010263919830322266,0
0.7500643730163574,0.02767818421125412,-0.10695920139551163,-0.0119107561185956,0.15991192037628135,-0.8850750641760351,0.7057636739187034,-0.7999999994523206,-0.19988656571969257,0.5715188098149547,0.5597912557620899,-1.25,0.0,0.0009558200836181641,0.001149892807006836,0
0.7599561214447021,0.027639023959636688,-0.10713750869035721,-0.012157534249126911,0.15990827508057603,-0.885228460952337,0.7092700599843494,-0.7999999996166244,-0.19988620317748126,0.5687431738269008,0.5626110576813289,-1.25,0.0,0.0008327960968017578,0.0009982585906982422,0
0.770082950592041,0.02760070189833641,-0.1073051244020462,-0.012392567470669746,0.15992591430353037,-0.8853749688986629,0.7129190926711709,-0.799999999731637,-0.1998925582383499,0.5658871622201299,0.5654836157082258,-1.25,0.0,0.0009105205535888672,0.00125885009765625,0
0.7797572612762451,0.027531571686267853,-0.1076059564948082,-0.012827722355723381,0.15991248618222031,-0.8855116078461116,0.7165109476081466,-0.799999999812146,-0.1998919677867401,0.5631452204731207,0.5682142735432473,-1.25,0.0,0.0006728172302246094,0.0008015632629394531,0
0.7899727821350098,0.027499623596668243,-0.10773808509111404,-0.013026934117078781,0.15990695403896485,-0.8856518913567781,0.7201937056501808,-0.7999999998685022,-0.19988948345770238,0.5602355847182418,0.5710832597926591,-1.25,0.0,0.0012500286102294922,0.001407623291015625,0
0.7999765872955322,0.027470668777823448,-0.10786017030477524,-0.01321436371654272,0.15993027562995746,-0.8857913511285243,0.7238923994159542,-0.7999999999079516,-0.19989649330427098,0.5573720855380037,0.5738783479649815,-1.25,0.0,0.000732421875,0.0008664131164550781,0
0.8098006248474121,0.02744465321302414,-0.10797101259231567,-0.013392012566328049,0.15992490209828983,-0.8859309614795261,0.7276018966728632,-0.7999999999355661,-0.19989938522446285,0.5545464715500069,0.5766092358707389,-1.25,0.0,0.000659942626953125,0.0007724761962890625,0
0.8197767734527588,0.027393968775868416,-0.10816887021064758,-0.013755141757428646,0.15992925031719477,-0.8860602500190216,0.731480745236478,-0.7999999999548963,-0.1999030384332519,0.5516634149755446,0.5793681701453058,-1.25,0.0,0.0009567737579345703,0.001142263412475586,0
0.8297436237335205,0.027369869872927666,-0.10825517773628235,-0.013921423815190792,0.15994758070942108,-0.8861966454274081,0.7352739696840708,-0.7999999999684274,-0.1999124669368235,0.5487693388858518,0.5821101379453765,-1.25,0.0,0.0008051395416259766,0.0009543895721435547,0
0.8396604061126709,0.02734793722629547,-0.1083323135972023,-0.014077138155698776,0.15996617185326859,-0.8863387282924439,0.7390020538231495,-0.7999999999778992,-0.19992603604549322,0.5458762750237738,0.5848239840893749,-1.25,0.0,0.0006368160247802734,0.0007627010345458984,0
0.8499786853790283,0.027328375726938248,-0.10840009897947311,-0.014222618192434311,0.15997105532934897,-0.8864836015707045,0.74274510075552,-0.7999999999845294,-0.19993737007766924,0.5428518351112698,0.5876324404900796,-1.25,0.0,0.0006740093231201172,0.0007948875427246094,0
0.85953688621521,0.027289746329188347,-0.10850546509027481,-0.014486011117696762,0.15999403971459206,-0.8866222085948323,0.746245679260927,-0.7999999999891706,-0.1999539214997818,0.5400372920575123,0.5902200633553465,-1.25,0.0,0.0004734992980957031,0.0005614757537841797,0
0.8695335388183594,0.02725660428404808,-0.10857339203357697,-0.01476006954908371,0.16001014093704338,-0.8867552366177133,0.7497509049132934,-0.7999999999924194,-0.19997154993485816,0.5370804459414535,0.5929119619195834,-1.25,0.0,0.0005538463592529297,0.0006508827209472656,0
0.879866361618042,0.02725660428404808,-0.10857339203357697,-0.01476006954908371,0.16001014093704338,-0.8868957645185634,0.7533043419307558,-0.7999999999946936,-0.19998388689663507,0.5340100646416562,0.5956788151860147,-1.25,0.0,0.0006394386291503906,0.0007555484771728516,0
0.8900952339172363,0.027223708108067513,-0.10860633105039597,-0.01504332572221756,0.15997956843423936,-0.887032601165462,0.7567537561463902,-0.7999999999962856,-0.19998106399833035,0.5309565324999562,0.5984021729536274,-1.25,0.0,0.0005991458892822266,0.0007119178771972656,0
0.8997893333435059,0.027209457010030746,-0.10860943049192429,-0.015170099213719368,0.15996140001428774,-0.8871783549604071,0.7601662321892154,-0.7995244852531525,-0.19997227449871594,0.5280498216712507,0.6009687062010471,-1.25,0.0,0.0006513595581054688,0.0007736682891845703,0
0.9097657203674316,0.027196748182177544,-0.1086045429110527,-0.015285867266356945,0.15994988514288114,-0.8873230595018032,0.7635708242908865,-0.7981832581937972,-0.199961802582953,0.5250455164278865,0.6035952333136619,-1.25,0.0,0.0006017684936523438,0.0007054805755615234,0
0.9197399616241455,0.027186427265405655,-0.10859270393848419,-0.015392772853374481,0.15994706209001766,-0.8874575650198199,0.766944899292831,-0.7961236209551426,-0.19995341102771702,0.5220287973789235,0.6062061816800575,-1.25,0.0,0.0007014274597167969,0.0008296966552734375,0
0.9302597045898438,0.027170049026608467,-0.10854695737361908,-0.015591832809150219,0.1599571524347312,-0.8875763027020487,0.7703002591043379,-0.7935094346146926,-0.1999513230662954,0.5188330242013287,0.6089435876976648,-1.25,0.0,0.0007586479187011719,0.0009160041809082031,0
0.9397544860839844,0.027162926271557808,-0.10851239413022995,-0.015683017671108246,0.1599700406754592,-0.8876813627821561,0.773559122476276,-0.7906466485407626,-0.19995469478353442,0.5159362952611674,0.6113998194571058,-1.25,0.0,0.0008740425109863281,0.0010759830474853516,0
0.949793815612793,0.027157513424754143,-0.10847154259681702,-0.01576547510921955,0.159958587417288,-0.8877676217333111,0.776824819429885,-0.7875350371513605,-0.19995276093731407,0.5128607860002073,0.6139819331081735,-1.25,0.0,0.0007939338684082031,0.0009403228759765625,0
0.9600536823272705,0.02715376950800419,-0.1084246039390564,-0.015840748324990273,0.15994342885625137,-0.8878374962837574,0.7801177756197821,-0.7842072671715005,-0.19994571572823697,0.5097043651525576,0.6166047843995603,-1.25,0.0,0.0009310245513916016,0.0011088848114013672,0
0.9698059558868408,0.027152126654982567,-0.10831227153539658,-0.01596912369132042,0.1599710618028161,-0.8878946638640155,0.7832796562270803,-0.7806464202180116,-0.19995114692047034,0.5066916682650409,0.6190828323502355,-1.25,0.0,0.0008003711700439453,0.0009641647338867188,0
0.9800353050231934,0.02715446427464485,-0.10824552178382874,-0.016021765768527985,0.15996075505858023,-0.8879426011389528,0.7864730576760776,-0.777001697630198,-0.19995108952639704,0.5035186473660777,0.6216662864870796,-1.25,0.0,0.0008549690246582031,0.0010061264038085938,0
0.9902582168579102,0.027162307873368263,-0.10809431225061417,-0.01610889658331871,0.159956704682257,-0.8879814818998135,0.7897159929870958,-0.7733079288387795,-0.1999495302047583,0.5003344636874137,0.6242318675353159,-1.25,0.0,0.000743865966796875,0.0008757114410400391,0
0.9999058246612549,0.027162307873368263,-0.10809431225061417,-0.01610889658331871,0.159956704682257,-0.8880105580018144,0.7928011950909671,-0.7696753193009571,-0.19994843624731734,0.49731748209604004,0.6266381108755316,-1.25,0.0,0.0007205009460449219,0.0008528232574462891,0
1.0096189975738525,0.0271768756210804,-0.1079191118478775,-0.016170574352145195,0.15995122442022794,-0.8880324729703427,0.794960836563677,-0.7660299939360957,-0.1999456205027618,0.4942683069363047,0.6290459766649167,-1.25,0.0,0.0005245208740234375,0.0006098747253417969,0
1.0195953845977783,0.027185816317796707,-0.10782203078269958,-0.01619119755923748,0.15994189778770743,-0.8880362613741801,0.7964725855945739,-0.7624242665795463,-0.19994014629995133,0.4911243676915996,0.6315036464340698,-1.25,0.0,0.0006227493286132812,0.0007572174072265625,0
1.029914379119873,0.02719522826373577,-0.10771983861923218,-0.016204960644245148,0.1599430599422276,-0.8880212754343921,0.7975308099162017,-0.7587723701446591,-0.1999367514709185,0.4878596038614159,0.6340291845965629,-1.25,0.0,0.0006756782531738281,0.0007936954498291016,0
1.039862871170044,0.027206506580114365,-0.10761083662509918,-0.0162118598818779,0.15995712712012303,-0.8879887224568904,0.7982715669413413,-0.7550798628651096,-0.1999396440902431,0.48469976414323945,0.6364480643693468,-1.25,0.0,0.0005552768707275391,0.0006668567657470703,0
1.049760341644287,0.02723035030066967,-0.1073746383190155,-0.016215737909078598,0.15998861185029892,-0.8879361778490276,0.7987900968589389,-0.7514971076748183,-0.19995348589367562,0.4815442289043806,0.6388389120966925,-1.25,0.0,0.0006995201110839844,0.0008358955383300781,0
1.0596885681152344,0.027242526412010193,-0.10724842548370361,-0.016212115064263344,0.1599899825648328,-0.8878702400633253,0.7991530678012573,-0.7478949261895559,-0.19996368931373404,0.4783670400346761,0.6412214711068732,-1.25,0.0,0.0008757114410400391,0.0010120868682861328,0
1.069706678390503,0.027256332337856293,-0.10711609572172165,-0.016200710088014603,0.15997642011228422,-0.8877924801619482,0.7994071474608802,-0.7442212585451575,-0.19996574028109032,0.4751491385084801,0.6436095836566211,-1.25,0.0,0.0008137226104736328,0.0009555816650390625,0
1.0797219276428223,0.027272049337625504,-0.10697786509990692,-0.016181886196136475,0.1599703051901973,-0.8877062495986993,0.7995850032226162,-0.7405266429260793,-0.19996487974675925,0.4719202392979134,0.6459808725813794,-1.25,0.0,0.0005781650543212891,0.0006816387176513672,0
1.0896575450897217,0.027308043092489243,-0.10668309032917023,-0.01611863076686859,0.15999749598071691,-0.8876215793430148,0.7997095022558314,-0.7368147455324462,-0.19997447733098947,0.4687053198066129,0.6483173013154753,-1.25,0.0,0.0004711151123046875,0.0005667209625244141,0
1.0997059345245361,0.027328263968229294,-0.10652650892734528,-0.016076283529400826,0.1599854639135121,-0.8875215742828586,0.799796651579082,-0.7330624136389119,-0.19997668703307117,0.4654421455075526,0.6506639756320665,-1.25,0.0,0.0006558895111083984,0.0007836818695068359,0
1.1097018718719482,0.02734946832060814,-0.10636517405509949,-0.01602868363261223,0.15996594082930773,-0.8874115463310265,0.7998576561053574,-0.7293498108408897,-0.19997090761292852,0.4621843475908489,0.6529821045342832,-1.25,0.0,0.0004582405090332031,0.0005412101745605469,0
1.1196043491363525,0.027392622083425522,-0.10602538287639618,-0.01593967340886593,0.15995409989721246,-0.8873025121177494,0.7999003592737502,-0.7256884403347896,-0.19996242733878636,0.45894562541985695,0.6552624763466748,-1.25,0.0,0.0006804466247558594,0.0007872581481933594,0
1.1295654773712158,0.027414320036768913,-0.1058494970202446,-0.015886349603533745,0.1599607699762056,-0.8871841985992471,0.7999302514916252,-0.7219969602327008,-0.1999589982869155,0.4556763698402045,0.6575401478003098,-1.25,0.0,0.000518798828125,0.0006132125854492188,0
1.1397080421447754,0.02743677794933319,-0.1056690439581871,-0.015827281400561333,0.15995356660117133,-0.8870618540048721,0.7999511760441377,-0.718266375745586,-0.19995388992010094,0.4523359528548313,0.6598425461842483,-1.25,0.0,0.0005214214324951172,0.0006146430969238281,0
1.149902105331421,0.027460215613245964,-0.10548326373100281,-0.01576218008995056,0.15995592371907844,-0.8869337711173719,0.7999658232308964,-0.7145007519399761,-0.1999511869366539,0.4489668533424821,0.6621395355963502,-1.25,0.0,0.0007474422454833984,0.0009000301361083984,0
1.1597809791564941,0.02737783081829548,-0.10566502809524536,-0.015914350748062134,0.1599646035804219,-0.8867900516374069,0.7999760762616275,-0.710823538189798,-0.19995255989560676,0.44569079323462985,0.6643490925905495,-1.25,0.0,0.0007219314575195312,0.0008637905120849609,0
1.1698064804077148,0.027222435921430588,-0.10599386692047119,-0.01617770828306675,0.15994799490407918,-0.8866369934018592,0.7999832533831392,-0.7073286219507796,-0.19994728852714683,0.44235499127826544,0.6665748732822186,-1.25,0.0,0.0007393360137939453,0.0008642673492431641,0
1.1797478199005127,0.027147958055138588,-0.10614035278558731,-0.01629127934575081,0.1599472725545177,-0.8864761910033152,0.7999882773681974,-0.7038322156226993,-0.19994333008271284,0.4390362166214472,0.6687654300984208,-1.25,0.0,0.0006711483001708984,0.0008013248443603516,0
1.2179834842681885,0.027077095583081245,-0.10627486556768417,-0.01639578491449356,0.15994334146311243,-0.8863100316579995,0.7999917941577382,-0.6970020409842476,-0.19993908583821238,0.42617142060609625,0.6770361292121579,-1.25,0.0,0.00047898292541503906,0.0005631446838378906,0
1.2194769382476807,0.02683180198073387,-0.10669948160648346,-0.01672256365418434,0.15996345293146796,-0.8861072483001137,0.7999942559104168,-0.6920793676730166,-0.19994365436266534,0.4256657406855222,0.6773541741265391,-1.25,0.0,0.0003304481506347656,0.00039577484130859375,0
1.2298188209533691,0.02677941881120205,-0.10677994042634964,-0.016781402751803398,0.1599715623080338,-0.8858990322496191,0.7999959791372918,-0.6874918685547146,-0.1999498958758068,0.4221575067372846,0.6795462011558593,-1.25,0.0,0.0005011558532714844,0.0006067752838134766,0
1.239563226699829,0.026730533689260483,-0.10685020685195923,-0.016852257773280144,0.15998932315639827,-0.8856909156699454,0.7999971853961043,-0.6832213050679217,-0.19996093236553245,0.41884162222897586,0.6815949643949843,-1.25,0.0,0.0004355907440185547,0.0005133152008056641,0
1.249640941619873,0.026640931144356728,-0.10696059465408325,-0.016966866329312325,0.16000291894741484,-0.8854822795346328,0.7999980297772731,-0.6791653150126208,-0.1999737539076418,0.4154018596905997,0.6836967858382774,-1.25,0.0,0.0004394054412841797,0.0005185604095458984,0
1.259714126586914,0.026599161326885223,-0.10700056701898575,-0.017011091113090515,0.1599980858825243,-0.8852793573933075,0.7999986208440911,-0.6752197530336458,-0.1999809236422229,0.411953103363575,0.6857803151367935,-1.25,0.0,0.0005395412445068359,0.000637054443359375,0
1.2697091102600098,0.026559367775917053,-0.10703039914369583,-0.017047427594661713,0.15999652314800475,-0.8850778425774631,0.7999990345908639,-0.6714049108004057,-0.19998534568902043,0.40852079186444307,0.6878304752004293,-1.25,0.0,0.0005383491516113281,0.0006468296051025391,0
1.2798798084259033,0.026521027088165283,-0.10704760253429413,-0.017094360664486885,0.15998319997212843,-0.8847813396614429,0.7999993242136048,-0.6672186207996165,-0.19998345207292664,0.4050176665435434,0.6898990431850325,-1.25,0.0,0.0006356239318847656,0.0007550716400146484,0
1.2897539138793945,0.026476338505744934,-0.10697323828935623,-0.017542148008942604,0.15993187022106992,-0.8837805984500038,0.7999995269495234,-0.6588428744058147,-0.1999628736430385,0.40160667638862213,0.691890220685395,-1.25,0.0,0.000606536865234375,0.0007138252258300781,0
1.2999756336212158,0.026479793712496758,-0.10686110705137253,-0.0180808212608099,0.15988856596199089,-0.8824129660478551,0.7999996688646663,-0.6487945895768622,-0.19993222880641653,0.39806529266899204,0.6939337308218629,-1.25,0.0,0.0007390975952148438,0.0008761882781982422,0
1.3098793029785156,0.02650003507733345,-0.10669981688261032,-0.018882526084780693,0.15977601259458776,-0.8807131693783757,0.7999997682052664,-0.6369859784707521,-0.19986856039056916,0.39462418119596887,0.6958963684453391,-1.25,0.0,0.0007452964782714844,0.0008957386016845703,0
1.3198976516723633,0.026534786447882652,-0.10649484395980835,-0.019965041428804398,0.15959254733224107,-0.8787253319942374,0.7999998377436865,-0.6232880877714039,-0.19975520131045213,0.3911333786261933,0.697864370866187,-1.25,0.0,0.0008437633514404297,0.0010137557983398438,0
1.3296549320220947,0.026646248996257782,-0.10596984624862671,-0.023007294163107872,0.15891878702110443,-0.8760997744496695,0.7940538909995972,-0.600365238647839,-0.19942318386507263,0.38772410827657716,0.699764257347525,-1.25,0.0,0.0006270408630371094,0.000766754150390625,0
1.3395867347717285,0.026722969487309456,-0.10565295070409775,-0.024969477206468582,0.15840171259487534,-0.8733024356743371,0.7829380431680368,-0.576588972856956,-0.19899686921211854,0.3842443816084983,0.7016810209791218,-1.25,0.0,0.0005986690521240234,0.0007159709930419922,0
1.3496606349945068,0.02681584283709526,-0.1052999496459961,-0.027224648743867874,0.15779136221195444,-0.8703359126543486,0.7675512085551651,-0.5513171931185475,-0.19846956085262893,0.38070518996040964,0.7036075314670875,-1.25,0.0,0.0005638599395751953,0.0006849765777587891,0
1.3597230911254883,0.026926495134830475,-0.10490835458040237,-0.029771124944090843,0.15704329560587763,-0.867195038855538,0.7485591306380884,-0.5244604554558089,-0.19781992457411376,0.3771603765020721,0.7055140327426629,-1.25,0.0,0.0006232261657714844,0.0007343292236328125,0
1.3696131706237793,0.027211012318730354,-0.1039910688996315,-0.03572831302881241,0.15517361431303667,-0.8636331682618222,0.7142476698652485,-0.48547054973884396,-0.19666404707140062,0.3736669843645938,0.7073704720978043,-1.25,0.0,0.0005834102630615234,0.0006995201110839844,0
1.3797192573547363,0.0273898933082819,-0.10345712304115295,-0.03913000598549843,0.15407360745652657,-0.8597401497416738,0.6807401023605524,-0.4479474894553385,-0.1954424332539493,0.37008785544889894,0.7092495888255663,-1.25,0.0,0.0006458759307861328,0.0007655620574951172,0
1.3899078369140625,0.027595628052949905,-0.10286696255207062,-0.04280683398246765,0.1529005592369377,-0.8556108626341858,0.6478808240237851,-0.41158505401069234,-0.19414740639138683,0.366469945934664,0.7111257123228245,-1.25,0.0,0.0006704330444335938,0.0007879734039306641,0
1.3998937606811523,0.028099557384848595,-0.10149102658033371,-0.05096393823623657,0.1502435545891301,-0.8511111456413883,0.6017568756669671,-0.36510183996716505,-0.19224449471784852,0.36291476913363363,0.7129466111460812,-1.25,0.0,0.0005359649658203125,0.0006301403045654297,0
1.409635066986084,0.028404582291841507,-0.10069233179092407,-0.05544009059667587,0.14879928545667398,-0.8463134196852027,0.5595464118347425,-0.32277910271797483,-0.19037087263533561,0.35943796245180915,0.7147057794284946,-1.25,0.0,0.0006182193756103516,0.0007317066192626953,0
1.4196598529815674,0.02874654158949852,-0.09981315582990646,-0.06016477569937706,0.1472431485914412,-0.8413718003589461,0.5204868250481895,-0.283673291074982,-0.18847579173837178,0.3558510759429838,0.716498438065444,-1.25,0.0,0.00054168701171875,0.0006496906280517578,0
1.429762840270996,0.02912764996290207,-0.09884876757860184,-0.06513164937496185,0.14562905501476409,-0.8363879354603508,0.4837671996366312,-0.24698601901256295,-0.18654395062045445,0.35222716380870894,0.718286868232514,-1.25,0.0,0.0006091594696044922,0.0007176399230957031,0
1.4406383037567139,0.030027132481336594,-0.09663880616426468,-0.07576435059309006,0.14225408491864777,-0.831220092727323,0.4339183694728765,-0.200941902166773,-0.18392603995989576,0.3483161242767236,0.7201915561632489,-1.25,0.0,0.000568389892578125,0.0006706714630126953,0
1.449587345123291,0.030551206320524216,-0.09538567066192627,-0.08141740411520004,0.1404538692412223,-0.8259306499210951,0.3892185793169256,-0.15982425535883127,-0.1814184344134444,0.3450901361447487,0.7217428890786517,-1.25,0.0,0.0005323886871337891,0.0006389617919921875,0
1.4599733352661133,0.031125765293836594,-0.09403005242347717,-0.08728498220443726,0.13868103933852652,-0.8206506542756928,0.34868697121201414,-0.12242811344046332,-0.17899829510497633,0.3413374926779313,0.723525200730661,-1.25,0.0,0.000885009765625,0.00104522705078125,0
1.4699091911315918,0.03175360709428787,-0.09256815165281296,-0.0933590978384018,0.1369169020280092,-0.815459185359865,0.31122942123986097,-0.08780350645046767,-0.1766426515723422,0.3377388742598457,0.7252120054257873,-1.25,0.0,0.0009441375732421875,0.0011272430419921875,0
1.479574203491211,0.03318121284246445,-0.08931353688240051,-0.10611691325902939,0.13329189698522395,-0.810152822784453,0.26131370465989817,-0.04565909390703517,-0.17363431548735567,0.3342303527825838,0.7268356563067264,-1.25,0.0,0.0006203651428222656,0.00074005126953125,0
1.4904122352600098,0.033982787281274796,-0.08751683682203293,-0.11277154088020325,0.13145911524754286,-0.8048631714084874,0.21779525117564322,-0.008359650964348979,-0.17084119018731386,0.33028673064531633,0.7286361750281332,-1.25,0.0,0.0009260177612304688,0.0010952949523925781,0
1.499800443649292,0.03484520688652992,-0.08560366928577423,-0.11959884315729141,0.12962284834814697,-0.7997011858575072,0.17893721941237353,0.025096408652282028,-0.16819739655475358,0.32686281021688673,0.73017854206839,-1.25,0.0,0.0007255077362060547,0.0009019374847412109,0
1.5097453594207764,0.035770200192928314,-0.08357048034667969,-0.12658917903900146,0.1278268124243065,-0.7947254630778084,0.14351028798075632,0.05588311498946179,-0.16567323769917477,0.3232280022411012,0.7317948199920704,-1.25,0.0,0.0007071495056152344,0.0008227825164794922,0
1.5197722911834717,0.03781234845519066,-0.07913027703762054,-0.14102593064308167,0.12424019832710645,-0.7896665025762276,0.09666432247524029,0.09244218477532157,-0.16256134356681057,0.3195551271145658,0.7334061090110948,-1.25,0.0,0.000720977783203125,0.0008566379547119141,0
1.5296101570129395,0.03893032297492027,-0.07672055810689926,-0.14847885072231293,0.12247306684357563,-0.7847334859845686,0.056206471517430294,0.12446649598368353,-0.15972034026390797,0.3159437002588384,0.7349691002122153,-1.25,0.0,0.0006451606750488281,0.0007603168487548828,0
1.539759635925293,0.040114305913448334,-0.0741834044456482,-0.15606239438056946,0.12075285450474761,-0.7799998750075948,0.020464020684192834,0.15332414354065166,-0.157086556244003,0.31220987133845846,0.7365629614899349,-1.25,0.0,0.0006136894226074219,0.0007314682006835938,0
1.5497868061065674,0.041365090757608414,-0.07151717692613602,-0.1637684851884842,0.119066162520886,-0.7754931402836359,-0.01188888290728047,0.1798244449637148,-0.15461040233353476,0.30851314187589834,0.7381189885715324,-1.25,0.0,0.0006997585296630859,0.0008320808410644531,0
1.5595686435699463,0.04305150732398033,-0.06816183775663376,-0.17914097011089325,0.11583246522760529,-0.7708844803158895,-0.052373733026660124,0.20942511124387303,-0.1516644549143984,0.30489938630394997,0.7396190669739895,-1.25,0.0,0.0005617141723632812,0.0006566047668457031,0
1.5697309970855713,0.04401012510061264,-0.06625610589981079,-0.18698535859584808,0.11429528553873006,-0.7664958469241795,-0.08639521909730782,0.235252666635048,-0.14902585284814826,0.30113733127049436,0.7411587601285468,-1.25,0.0,0.0006778240203857422,0.0007984638214111328,0
1.5796637535095215,0.04504431411623955,-0.06419700384140015,-0.19492360949516296,0.11281486752542703,-0.762358535200683,-0.11585614544758746,0.25810775674693975,-0.146623676225428,0.29745275792863113,0.7426451755721916,-1.25,0.0,0.0008499622344970703,0.0010066032409667969,0
1.5898313522338867,0.04615093022584915,-0.061985570937395096,-0.20295055210590363,0.1113889974478133,-0.7584686448052373,-0.14201843794951186,0.27878451661544895,-0.14440744803815486,0.29367347129414956,0.7441477623819375,-1.25,0.0,0.0007364749908447266,0.0008616447448730469,0
1.59958815574646,0.04858234152197838,-0.057114094495773315,-0.21926851570606232,0.10872106945168827,-0.7544869996857904,-0.17571077658360784,0.301406316983812,-0.1418556108307532,0.29003973941074995,0.7455715589817951,-1.25,0.0,0.0005130767822265625,0.0006082057952880859,0
1.6096906661987305,0.049905337393283844,-0.054456617683172226,-0.22753308713436127,0.10747718374308082,-0.7507475503538485,-0.2039739692670865,0.32126632958708917,-0.1396028669841649,0.28626998299218104,0.7470271058252549,-1.25,0.0,0.0006127357482910156,0.0007243156433105469,0
1.6197662353515625,0.05129822716116905,-0.0516536645591259,-0.235860213637352,0.10629187241702567,-0.747253346379057,-0.2283687946952051,0.33891928346225875,-0.13758145626935595,0.28250300462442873,0.748459786747538,-1.25,0.0,0.0006690025329589844,0.0008039474487304688,0
1.6296477317810059,0.05275858938694,-0.04870658367872238,-0.24424415826797485,0.1051536322241218,-0.7439928341035942,-0.250148746777775,0.3548020710234876,-0.1357396317061067,0.27880162023194843,0.7498464219798882,-1.25,0.0,0.000606536865234375,0.0007319450378417969,0
1.6396269798278809,0.055876027792692184,-0.042383745312690735,-0.2611628770828247,0.10297044391397872,-0.740621945188892,-0.2780031238555999,0.3711878134940178,-0.13363166408966903,0.27505671347181176,0.7512281972703672,-1.25,0.0,0.0004684925079345703,0.0005557537078857422,0
1.6497118473052979,0.057530250400304794,-0.039012230932712555,-0.2697006165981293,0.10194706372931808,-0.7374831999119094,-0.30137469537159295,0.38553299382384953,-0.13177231032360492,0.2712652143092832,0.7526055962492829,-1.25,0.0,0.0005414485931396484,0.0006721019744873047,0
1.6595697402954102,0.06102333962917328,-0.031857024878263474,-0.2868850827217102,0.10007308605028545,-0.7342526073370742,-0.3285974627501756,0.3992126193935798,-0.1297680230189535,0.2675523814922275,0.7539335004878333,-1.25,0.0,0.000476837158203125,0.0005660057067871094,0
1.669729232788086,0.06102333962917328,-0.031857024878263474,-0.2868850827217102,0.10007308605028545,-0.7315824043824227,-0.3441088811157221,0.41048820898691146,-0.1283650211469099,0.2637191551640737,0.7552828656864574,-1.25,0.0,0.0006442070007324219,0.000762939453125,0
1.6797285079956055,0.06475689262151718,-0.02417205274105072,-0.3041800558567047,0.09835082995318903,-0.7288006774564129,-0.36487249102914193,0.4212637244218623,-0.12673707587152352,0.2599397342741941,0.7565919207508506,-1.25,0.0,0.0005283355712890625,0.0006268024444580078,0
1.6899518966674805,0.06670854985713959,-0.02013777382671833,-0.3128563165664673,0.09755789495970314,-0.7262362981895331,-0.38239821442247685,0.43081008102795093,-0.12530016704016564,0.2560688884509776,0.7579107627996061,-1.25,0.0,0.0006210803985595703,0.000713348388671875,0
1.699568510055542,0.06871363520622253,-0.015977362170815468,-0.3215474784374237,0.0967941447942249,-0.7238673987071909,-0.39764625147340416,0.4391589514388953,-0.1240079203902241,0.25242167497243895,0.7591332544449021,-1.25,0.0,0.000499725341796875,0.0005867481231689453,0
1.7096827030181885,0.0707697942852974,-0.011694243177771568,-0.3302495777606964,0.09606543290409532,-0.7216729231974492,-0.4110800513987172,0.4466067133766417,-0.12283008447463367,0.24857945348833999,0.7604000626666454,-1.25,0.0,0.0005514621734619141,0.0006957054138183594,0
1.719595193862915,0.07502678781747818,-0.002773178741335869,-0.3476572334766388,0.09471142485842089,-0.7193677747770191,-0.42758092474422293,0.4521405230656367,-0.12149783895847155,0.24480768649555223,0.7616227390465016,-1.25,0.0,0.0005338191986083984,0.0006337165832519531,0
1.7296454906463623,0.07722455263137817,0.0018590453546494246,-0.35636603832244873,0.09409272360970558,-0.7172505522090691,-0.4410131474479161,0.45699830807345754,-0.12033326103866152,0.24097734437149063,0.7628433125483005,-1.25,0.0,0.0004754066467285156,0.0005748271942138672,0
1.739748477935791,0.07946603000164032,0.0066018905490636826,-0.36507198214530945,0.09348151885160874,-0.7153069435977293,-0.4522525258346203,0.46129359340521475,-0.1192888520111295,0.23712078804111952,0.764050869954847,-1.25,0.0,0.0006737709045410156,0.0007917881011962891,0
1.7495782375335693,0.08174977451562881,0.011454084888100624,-0.37377068400382996,0.09288248149732882,-0.7135169084276148,-0.46194767661809827,0.46496272896245083,-0.11833312551972637,0.23336272102930933,0.7652070572294775,-1.25,0.0,0.0004734992980957031,0.0005588531494140625,0
1.759594440460205,0.0864277258515358,0.021474717184901237,-0.3911373019218445,0.09177820462637533,-0.7116534170013686,-0.47332540647482707,0.4655618859329111,-0.11725001511867565,0.22952757597721557,0.7663661604390056,-1.25,0.0,0.0006556510925292969,0.0007786750793457031,0
1.7696595191955566,0.08881766349077225,0.02663692831993103,-0.3997951149940491,0.09127154825676366,-0.7099499566692195,-0.48237087327991485,0.4660290888558549,-0.11630184182658371,0.2256679178309498,0.7675115574776994,-1.25,0.0,0.0009377002716064453,0.0010895729064941406,0
1.7798221111297607,0.09123954176902771,0.03189731016755104,-0.40843647718429565,0.09075820226246313,-0.7083837602992148,-0.4896458097271084,0.46638990062679403,-0.11544561488237276,0.22176506791384543,0.768648329636621,-1.25,0.0,0.0006248950958251953,0.00075531005859375,0
1.7898838520050049,0.09369306266307831,0.03725207597017288,-0.4170595705509186,0.0902177850724757,-0.7069355564553661,-0.4955092983956593,0.4665124246571354,-0.11464359693612004,0.21789530767425402,0.7697542691622712,-1.25,0.0,0.0007920265197753906,0.0009365081787109375,0
1.8000528812408447,0.09868323802947998,0.04822969809174538,-0.4342407286167145,0.08922980848282272,-0.7054460679610759,-0.5016671142778092,0.46302255983746304,-0.1137116952489705,0.21397868116387994,0.7708522063322948,-1.25,0.0,0.0009799003601074219,0.001150369644165039,0
1.8097693920135498,0.10121460258960724,0.05384648218750954,-0.44279277324676514,0.08874868995771859,-0.7040831696859908,-0.5061246909365875,0.4598269168922355,-0.11287894498238116,0.2102311737858388,0.7718826682654745,-1.25,0.0,0.0008337497711181641,0.0009479522705078125,0
1.8196907043457031,0.10376795381307602,0.05954628810286522,-0.45131757855415344,0.08826691948670476,-0.7028274797995028,-0.5092530381660331,0.45682313060506646,-0.1121153528890772,0.20639955828168027,0.7729160512896128,-1.25,0.0,0.0006201267242431641,0.0007512569427490234,0
1.8300130367279053,0.10634168982505798,0.06532468646764755,-0.4598146080970764,0.08776427270031054,-0.7016644333348965,-0.5112222835752283,0.45378871898413004,-0.11139234586376848,0.20240767880733146,0.7739710146767953,-1.25,0.0,0.0009515285491943359,0.001117706298828125,0
1.840320348739624,0.11153334379196167,0.07710400968790054,-0.4767758548259735,0.08675582072340073,-0.7004834177195793,-0.5126269462364474,0.44642910521500484,-0.11050807127712028,0.19841622811101942,0.7750038712304578,-1.25,0.0,0.0008461475372314453,0.001001119613647461,0
1.849808931350708,0.11414819210767746,0.08309914916753769,-0.4852063059806824,0.08628025104696603,-0.6993851690120867,-0.5129915166977972,0.4396232118755349,-0.1097107456203409,0.19473716477441128,0.7759364900915693,-1.25,0.0,0.0007877349853515625,0.0009365081787109375,0
1.8598601818084717,0.11677172780036926,0.08916060626506805,-0.4936036169528961,0.08580766897838846,-0.6983619948238894,-0.5124032329587169,0.43317699304572405,-0.10897539611026855,0.1908351559646972,0.7769053631221308,-1.25,0.0,0.0007693767547607422,0.00090789794921875,0
1.8698420524597168,0.11940132081508636,0.09528432041406631,-0.5019658207893372,0.08533274139945338,-0.6974098731671604,-0.511029608850928,0.42687498660318407,-0.10828255596414867,0.18695531084779982,0.7778481289723609,-1.25,0.0,0.0007367134094238281,0.0008819103240966797,0
1.880000114440918,0.12466942518949509,0.10771147906780243,-0.5185816884040833,0.08434245820706401,-0.6964476681747171,-0.5084820044001349,0.4158037358655076,-0.1074262080585079,0.18300220168418152,0.7787876438277268,-1.25,0.0,0.0007047653198242188,0.0008273124694824219,0
1.8896496295928955,0.12730488181114197,0.1140078604221344,-0.5268408060073853,0.08382490908578813,-0.6955410681906016,-0.505239446539137,0.4058125504738689,-0.10663268767823499,0.17924262469276525,0.7796615172581295,-1.25,0.0,0.0006403923034667969,0.0007476806640625,0
1.9000091552734375,0.12993815541267395,0.12035483121871948,-0.5350606441497803,0.08326917012530036,-0.6946843913914537,-0.501341561697651,0.3966845958553421,-0.10586882031567255,0.17520177646694157,0.7805794882795909,-1.25,0.0,0.0010781288146972656,0.0012974739074707031,0
1.9099454879760742,0.13256783783435822,0.1267492175102234,-0.5432406067848206,0.08269293174873507,-0.6938795783449598,-0.4968729677127744,0.3880554199721194,-0.10511801990996815,0.1713215814521868,0.7814402828935311,-1.25,0.0,0.0008075237274169922,0.0009300708770751953,0
1.9196686744689941,0.13780513405799866,0.13966898620128632,-0.5594724416732788,0.08152677586942161,-0.6931033504915863,-0.4905416937018352,0.3743546591745404,-0.10415515702062486,0.16752052701905318,0.7822639407688806,-1.25,0.0,0.0006074905395507812,0.0007224082946777344,0
1.9301388263702393,0.14040866494178772,0.1461881548166275,-0.5675243139266968,0.0809377497232744,-0.6923517498231948,-0.483892221046954,0.3622317219351096,-0.1032602646099106,0.16342303905101058,0.7831302000991482,-1.25,0.0,0.0009138584136962891,0.0010936260223388672,0
1.9400019645690918,0.14299985766410828,0.1527414172887802,-0.5755323767662048,0.08029892447222611,-0.6916362005526409,-0.47692048945625404,0.35116192488838716,-0.10239427871339159,0.1595590067591454,0.7839266058516161,-1.25,0.0,0.0007269382476806641,0.0008730888366699219,0
1.9497864246368408,0.1456173211336136,0.15914024412631989,-0.5837856531143188,0.07966007339012496,-0.6909524873494538,-0.46965041361589555,0.34077245125043026,-0.10154852424856392,0.1557219633399618,0.7846978209053136,-1.25,0.0,0.0008957386016845703,0.0010704994201660156,0
1.9596924781799316,0.15080125629901886,0.17203295230865479,-0.600158154964447,0.07831581156847303,-0.6902932367250351,-0.45957997058810907,0.32550547654668194,-0.10045239879976842,0.15183343979824485,0.7854594875351834,-1.25,0.0,0.0006594657897949219,0.0007748603820800781,0
1.969921350479126,0.15336225926876068,0.17851930856704712,-0.608264148235321,0.07763525098710324,-0.6896332986150537,-0.4496685222798037,0.3119252422841147,-0.09942989728355629,0.14781428913032316,0.7862257537939706,-1.25,0.0,0.0009179115295410156,0.0011043548583984375,0
1.9799935817718506,0.1584138423204422,0.19155672192573547,-0.6243168115615845,0.0761967882303767,-0.6889971223509773,-0.4371337505551956,0.29415244600273927,-0.09817472322984667,0.14385290758416303,0.786960190212683,-1.25,0.0,0.0007905960083007812,0.0009310245513916016,0
1.9903037548065186,0.1584138423204422,0.19155672192573547,-0.6243168115615845,0.0761967882303767,-0.6883303901867426,-0.4279564786741432,0.28429616761263926,-0.09729610174690455,0.1397941662509877,0.7876913044347965,-1.25,0.0,0.0010478496551513672,0.0012671947479248047,0
1.9999282360076904,0.16335518658161163,0.20465993881225586,-0.6401526927947998,0.07470180415251651,-0.6877303405965502,-0.41564387574407247,0.2688978537002349,-0.0961204478241872,0.13600200215539024,0.7883549044749613,-1.25,0.0,0.0007500648498535156,0.0008881092071533203,0
2.0097124576568604,0.165780708193779,0.2112276554107666,-0.647973358631134,0.07392447613476551,-0.6871370775405163,-0.4036433986590994,0.25514045821481335,-0.09500599040674867,0.13214367052962647,0.7890108049570409,-1.25,0.0,0.0005624294281005859,0.0006737709045410156,0
2.019890069961548,0.16817498207092285,0.21780307590961456,-0.6557378768920898,0.07316197575889506,-0.6865555529946432,-0.39198920462678577,0.24272581856111103,-0.09393993254442304,0.12812685383118752,0.7896730395089613,-1.25,0.0,0.0008497238159179688,0.0010218620300292969,0
2.0297937393188477,0.1705375611782074,0.22438445687294006,-0.663446843624115,0.07240146447184628,-0.6859949966734722,-0.3805131450307181,0.23128800948252964,-0.09290850293576322,0.12421496859525559,0.7902978182792103,-1.25,0.0,0.0007207393646240234,0.000865936279296875,0
2.039613962173462,0.17286720871925354,0.2309684008359909,-0.6710995435714722,0.07161449558961433,-0.6854625810572353,-0.36914600630471067,0.2204797597508236,-0.09189138629836993,0.12033303648075638,0.7908981984625587,-1.25,0.0,0.00048661231994628906,0.0005850791931152344,0
2.0497539043426514,0.17741769552230835,0.24413388967514038,-0.686235249042511,0.06999081206696568,-0.6850003679839952,-0.3546500901598965,0.20474110603737794,-0.09057052364981609,0.11632167610881156,0.7914981160225442,-1.25,0.0,0.0005164146423339844,0.0006275177001953125,0
2.059685707092285,0.1796344667673111,0.25071102380752563,-0.6937159299850464,0.06917864769498763,-0.6845291728240608,-0.3411433219072198,0.19084338897062478,-0.0893413594610935,0.11238975642716509,0.7920659963981805,-1.25,0.0,0.0005707740783691406,0.0006818771362304688,0
2.0696535110473633,0.18181051313877106,0.25728243589401245,-0.7011353373527527,0.0683479138023311,-0.6840685826626456,-0.32833331466221516,0.17845309974516435,-0.0881694188906816,0.10844079764649367,0.7926162964548434,-1.25,0.0,0.0004999637603759766,0.0005826950073242188,0
2.0796961784362793,0.18603907525539398,0.2703916132450104,-0.7158639430999756,0.06668831861157122,-0.6836770741250544,-0.31248377551788187,0.1620723735366114,-0.08672671248334314,0.10445945635642846,0.7931508191874478,-1.25,0.0,0.00046706199645996094,0.0005502700805664062,0
2.0896832942962646,0.18808908760547638,0.27692288160324097,-0.7231380343437195,0.06585022050129144,-0.6832565057455345,-0.29781060306624846,0.14798554658199775,-0.08540253264895535,0.10049752587577272,0.7936625525327804,-1.25,0.0,0.00044608116149902344,0.0005257129669189453,0
2.099666118621826,0.19009502232074738,0.2834383249282837,-0.7303502559661865,0.0650093769141258,-0.682838326289642,-0.2840766460086318,0.13563742619379276,-0.08416028826776094,0.09653479350258298,0.7941542883114173,-1.25,0.0,0.0005471706390380859,0.0006594657897949219,0
2.1095662117004395,0.19396691024303436,0.29640820622444153,-0.7445825934410095,0.0633494525418288,-0.6825027250716983,-0.2678236118251149,0.11964973920384982,-0.08266824470552564,0.09260252617825343,0.7946224085346486,-1.25,0.0,0.0004515647888183594,0.0005297660827636719,0
2.119502544403076,0.1958305984735489,0.30285948514938354,-0.7516024708747864,0.0625409910855004,-0.6821473856809613,-0.25293786261917955,0.10594622247337407,-0.08132064147632617,0.08865358326982781,0.7950726647127417,-1.25,0.0,0.0004336833953857422,0.0005173683166503906,0
2.1298341751098633,0.1976458728313446,0.3092848062515259,-0.7585861086845398,0.06172673806836418,-0.6817911321509392,-0.23901311459149885,0.09409376269332023,-0.080071976560683,0.08454522007203648,0.795520022226324,-1.25,0.0,0.0004820823669433594,0.0005788803100585938,0
2.139688730239868,0.1994120180606842,0.31568196415901184,-0.7655041813850403,0.06091625529209235,-0.6814491389637637,-0.2258397927963352,0.08357500281321009,-0.07889397758284392,0.08062446167957589,0.7959269414832486,-1.25,0.0,0.00044035911560058594,0.0005207061767578125,0
2.149635076522827,0.20278950035572052,0.3283859193325043,-0.7791414856910706,0.059251335898940626,-0.6811984010774544,-0.21011495994428744,0.06942675658641932,-0.07744503541041635,0.07666519848970643,0.7963180566460452,-1.25,0.0,0.00043892860412597656,0.0005168914794921875,0
2.1596856117248535,0.20439910888671875,0.3346870243549347,-0.7858617305755615,0.05842280516246869,-0.6809239184880855,-0.19570896061118376,0.05737054350296834,-0.07612007708421818,0.07266253597912005,0.796693263348626,-1.25,0.0,0.0005185604095458984,0.000598907470703125,0
2.1696856021881104,0.20595607161521912,0.3409509062767029,-0.7925166487693787,0.05764735315980321,-0.6806499710383374,-0.18220432135315642,0.04680200356665931,-0.07490180972892099,0.06867818178093944,0.7970466155421929,-1.25,0.0,0.00043582916259765625,0.0005147457122802734,0
2.1797657012939453,0.20745821297168732,0.3471764624118805,-0.7991055846214294,0.0568672234247354,-0.6803891589835923,-0.16952687985696574,0.03743063514183585,-0.0737564747058951,0.06466017206680257,0.7973826322088358,-1.25,0.0,0.0005092620849609375,0.0005936622619628906,0
2.1896495819091797,0.21029877662658691,0.3595093786716461,-0.8120855093002319,0.055289051331870696,-0.6802151540459676,-0.15465365678372653,0.02493543868700719,-0.07236292989280736,0.06071878114743309,0.7976924404906757,-1.25,0.0,0.00048279762268066406,0.0005640983581542969,0
2.1996753215789795,0.21163585782051086,0.3656140863895416,-0.8184773921966553,0.0545236130171143,-0.680019955982672,-0.14116118417779264,0.014363552489856664,-0.07110040587859653,0.05671930662680015,0.7979867920309052,-1.25,0.0,0.00045013427734375,0.0005304813385009766,0
2.2098493576049805,0.2129184752702713,0.3716762065887451,-0.8248024582862854,0.0538014768726083,-0.6798257760292483,-0.12878057015968958,0.0054891445570197355,-0.0699458375714505,0.052659217066988596,0.7982649978909835,-1.25,0.0,0.0005562305450439453,0.0006670951843261719,0
2.219552755355835,0.21414698660373688,0.37769487500190735,-0.8310597538948059,0.05305771076627532,-0.6796428123008342,-0.11734890732267321,-0.0021478502176991727,-0.06885873120623073,0.04878567109762802,0.7985110883986234,-1.25,0.0,0.0004191398620605469,0.0004961490631103516,0
2.229719638824463,0.21532125771045685,0.38366883993148804,-0.8372495174407959,0.05230401559490996,-0.6794776075798324,-0.10662230162885697,-0.008736737145709043,-0.06781512078917648,0.044725873644843886,0.7987487691550488,-1.25,0.0,0.0006053447723388672,0.0007309913635253906,0
2.239570379257202,0.21750417351722717,0.3954801857471466,-0.8494274616241455,0.050860705324452554,-0.6793890791796562,-0.09422884761568374,-0.018121154584092018,-0.0665433524775789,0.04079121364593645,0.7989593712381698,-1.25,0.0,0.0006439685821533203,0.0007877349853515625,0
2.249643087387085,0.21851219236850739,0.4013134241104126,-0.8554483652114868,0.05015059845689354,-0.6792893722644324,-0.08289742577713047,-0.025844409208101365,-0.06538682062446417,0.036766871048892924,0.7991546766385556,-1.25,0.0,0.00048041343688964844,0.0005691051483154297,0
2.2598328590393066,0.21946404874324799,0.40709683299064636,-0.8614009022712708,0.04943149450489084,-0.6791924950655891,-0.07254270100836895,-0.03230172249867957,-0.0643075847842893,0.03269480963536442,0.799331626687514,-1.25,0.0,0.0005176067352294922,0.0006208419799804688,0
2.2696990966796875,0.2203592211008072,0.41283050179481506,-0.8672851324081421,0.048757910386054065,-0.6791065532281989,-0.06290341902604725,-0.0377794030070412,-0.06329952456273308,0.028751229913447498,0.799483187301937,-1.25,0.0,0.0004949569702148438,0.0005843639373779297,0
2.279916763305664,0.22197434306144714,0.4241408407688141,-0.8788497447967529,0.04745152798606369,-0.6790924319483002,-0.05176009050994935,-0.04595377084872151,-0.06210399131143199,0.02466644613504719,0.7996196386001703,-1.25,0.0,0.0006418228149414062,0.0007638931274414062,0
2.2900888919830322,0.22269344329833984,0.4297168254852295,-0.8845313787460327,0.046807845047350825,-0.6790608434472429,-0.04172765942722545,-0.05254708886857544,-0.0610257362718202,0.020599227704748577,0.7997347509130561,-1.25,0.0,0.0007452964782714844,0.0009009838104248047,0
2.29964542388916,0.22335468232631683,0.43523940443992615,-0.8901463150978088,0.04616915085607356,-0.6790284944687133,-0.03259920285663418,-0.05803139242828738,-0.060031448571014306,0.01677766175580472,0.7998240494421307,-1.25,0.0,0.0006401538848876953,0.0007622241973876953,0
2.309793472290039,0.22395920753479004,0.4407079815864563,-0.8956938982009888,0.045542392087328375,-0.679003136256835,-0.024220499431030038,-0.06244495101681279,-0.05910041163100127,0.012719136610869652,0.7998988833370592,-1.25,0.0,0.0007045269012451172,0.0008401870727539062,0
2.319641590118408,0.22500081360340118,0.4514825940132141,-0.9066553115844727,0.0443060360435539,-0.6790361845470732,-0.014889492597698289,-0.06884424369876628,-0.05798505114985963,0.008780249104580884,0.7999518155649512,-1.25,0.0,0.0006542205810546875,0.0007874965667724609,0
2.32966685295105,0.22543814778327942,0.45678824186325073,-0.9120351672172546,0.04371330475750514,-0.6790597175605394,-0.006671544526140015,-0.0737816943863997,-0.05698202582708499,0.0047702919864865845,0.7999857775700538,-1.25,0.0,0.00045180320739746094,0.0005335807800292969,0
2.339761734008789,0.2258199006319046,0.4620392918586731,-0.917346715927124,0.04314344556149432,-0.6790852978719377,0.0006827191954173212,-0.07750363322402033,-0.05606620833894049,0.0007323677301062392,0.7999996647733723,-1.25,0.0,0.0006587505340576172,0.0007979869842529297,0
2.349710702896118,0.22634339332580566,0.4672922194004059,-0.9230010509490967,0.04259712031861998,-0.6790979217591192,0.007391649355170794,-0.08015229606725867,-0.05522026435223858,-0.0032472108058444575,0.7999934097365943,-1.25,0.0,0.0006775856018066406,0.0008232593536376953,0
2.35975980758667,0.2272123098373413,0.4776260554790497,-0.9340813755989075,0.0415269745376057,-0.6791461350830624,0.014722793009682104,-0.08441648863259679,-0.05422680004473702,-0.007266761666043881,0.7999669956785023,-1.25,0.0,0.0007169246673583984,0.0008444786071777344,0
