time,x,y,z,yaw,throttle,roll_rate,pitch_rate,yaw_rate,x_ref,y_ref,z_ref,yaw_ref,pred_time,nr_time,metadata
9.5367431640625e-07,0.012295609340071678,-0.01469297893345356,-0.0019400684395805001,-0.003215330405384981,-0.7169349642358597,0.13917448761134005,-0.2932873853121535,0.12686960484841936,0.5557046850856209,0.22625716115493655,-0.8131285805774682,0.33510361585707477,0.0004189014434814453,0.0007262229919433594,Sim
0.00981283187866211,0.012310048565268517,-0.014716959558427334,-0.0020366543903946877,-0.003224693168620488,-0.7341700102767068,0.2182716632126263,-0.4453011697185075,0.21722308550267344,0.554625461947199,0.22888992323790955,-0.8144449616189547,0.3392136057883668,0.0001513957977294922,0.0003046989440917969,Nonlinear
0.01987171173095703,0.012323577888309956,-0.014741520397365093,-0.0021293985191732645,-0.0032222905675652605,-0.7479357037680902,0.2633766479395779,-0.5517108188029552,0.2820496661376467,0.5535061228407586,0.23158361768007468,-0.8157918088400373,0.34342705952800845,0.00015115737915039062,0.00029730796813964844,0OrderHold
0.029887914657592773,0.012336545623838902,-0.014767852611839771,-0.002218989422544837,-0.003205117576133091,-0.7593074668777164,0.2881033824191179,-0.6261975731620687,0.328995174186918,0.5523785332770107,0.2342604447505775,-0.8171302223752888,0.3476226367988329,0.0001518726348876953,0.0003211498260498047,QuatYawError
0.03988027572631836,0.012361978180706501,-0.014821984805166721,-0.0023863031528890133,-0.0031796671028213896,-0.7688457713111692,0.30055307958393285,-0.6783383012134481,0.36341708230020475,0.551240728519049,0.23692542966466906,-0.8184627148323345,0.35180822721556954,0.00012564659118652344,0.0002639293670654297,NoPyJoules
0.04977583885192871,0.012375635094940662,-0.014848856255412102,-0.002465867204591632,-0.0031787973815984812,-0.7768961068679683,0.3057359573388206,-0.7148368108494136,0.3890664832549832,0.550101274736727,0.23955915247184362,-0.8197795762359218,0.35595327100470975,0.0001342296600341797,0.00028324127197265625,0
0.06007504463195801,0.012389713898301125,-0.014875330962240696,-0.0025420933961868286,-0.003163942637436746,-0.783697310217198,0.3067992386713373,-0.7403857675945895,0.40863328885536265,0.5489019789872395,0.2422944850051114,-0.8211472425025557,0.36026739223355636,0.00015926361083984375,0.00031685829162597656,0
0.0697774887084961,0.012404637411236763,-0.014903734438121319,-0.0026334552094340324,-0.0031554958108590404,-0.7894209467303969,0.30571412948006516,-0.7582700373162127,0.4238509415670303,0.5477597310793658,0.2448658347092562,-0.8224329173546281,0.3643315425045854,0.00014138221740722656,0.0002956390380859375,0
0.07998919486999512,0.01246971357613802,-0.014965941198170185,-0.002909402595832944,-0.0031083707428060815,-0.7939688310762639,0.3034418940174214,-0.7707890261213489,0.43608967761764483,0.5465445188648409,0.247566332320854,-0.8237831661604269,0.3686090119789298,0.0001494884490966797,0.0003097057342529297,0
0.0899810791015625,0.012536796741187572,-0.014994424767792225,-0.003170522628352046,-0.0030712219438100534,-0.7975634170988998,0.30042184930239285,-0.7795523182849442,0.4462123835582393,0.5453425789083867,0.2502028609539669,-0.8251014304769834,0.3727944026585847,0.00014543533325195312,0.0003101825714111328,0
0.0998842716217041,0.012635840103030205,-0.015016831457614899,-0.0035511741880327463,-0.002990511034125851,-0.8003217649276284,0.2969232188961666,-0.785686622799461,0.4548236009689434,0.5441387580653344,0.2528102291662968,-0.8264051145831484,0.376942642241033,0.00014162063598632812,0.00030159950256347656,0
0.10985279083251953,0.012950041331350803,-0.015038643963634968,-0.00474033085629344,-0.002722958312492671,-0.802060581155567,0.2916867227511262,-0.7836507757077994,0.4623169722217664,0.5429144064756041,0.25542894753970724,-0.8277144737698536,0.38111824580368187,0.00015807151794433594,0.00032138824462890625,0
0.11973762512207031,0.01316539105027914,-0.015038568526506424,-0.005574727430939674,-0.0025262107622126178,-0.8031855514414784,0.2864371262331227,-0.7740679456133743,0.46904125790664714,0.5416878886581767,0.2580198273021798,-0.8290099136510899,0.3852587955084826,0.00013828277587890625,0.0002951622009277344,0
0.1297924518585205,0.013416278176009655,-0.015034431591629982,-0.006569553166627884,-0.0022447234308989096,-0.803746208012704,0.2810996343284522,-0.7589745697555537,0.4752221086273324,0.540427593411337,0.2606492207539294,-0.8303246103769646,0.38947055148292925,0.00014209747314453125,0.00030541419982910156,0
0.14004230499267578,0.01370260864496231,-0.015028285793960094,-0.007726494688540697,-0.0018829311085853298,-0.8038049476902214,0.2755976552750668,-0.7397773318539851,0.4810230751761962,0.5391297163862505,0.26332327832776387,-0.8316616391638819,0.3937639999238141,0.0001614093780517578,0.0003285408020019531,0
0.14973068237304688,0.01438060961663723,-0.015009542927145958,-0.01053034607321024,-0.0009334920425429999,-0.8032028304937483,0.26669219183743675,-0.7085217020145114,0.486249558870885,0.5378907712009378,0.2658449139194887,-0.8329224569597443,0.39782225795093135,0.00014591217041015625,0.0003120899200439453,0
0.16007685661315918,0.014769196510314941,-0.014994662255048752,-0.012175120413303375,-0.0002823199891746143,-0.8021959451123782,0.25769615162704895,-0.676803302699947,0.4912890811863941,0.5365546854019625,0.26853131953871046,-0.8342656597693552,0.40215605328233095,0.0001480579376220703,0.0003116130828857422,0
0.16993379592895508,0.015189123339951038,-0.014970571734011173,-0.0139783238992095,0.000568755688544588,-0.800875745500826,0.24830981161534163,-0.6445038207116843,0.4960459178351772,0.5352692979471324,0.27108444934223713,-0.8355422246711185,0.4062849183678489,0.00018095970153808594,0.0003495216369628906,0
0.17981362342834473,0.015640389174222946,-0.014933714643120766,-0.01593986712396145,0.0016218354427852968,-0.7993098370496742,0.23833200940126098,-0.6113777532380419,0.5005327182560593,0.5339687347805889,0.27363733348506575,-0.8368186667425328,0.41042337083329117,0.00014591217041015625,0.0003104209899902344,0
0.18990492820739746,0.016644194722175598,-0.014815970323979855,-0.02035638689994812,0.004347301706897348,-0.797394560189315,0.22315871995314204,-0.5650838030589868,0.5042365671495345,0.5326277641237853,0.2762384203627318,-0.8381192101813658,0.4146504066944922,0.00017213821411132812,0.0003426074981689453,0
0.19989252090454102,0.017202559858560562,-0.014733640477061272,-0.02280460111796856,0.0059812525017276215,-0.7952118790604554,0.20896701226879472,-0.5209224209799832,0.5077853772192262,0.5312880992614464,0.27880630477655893,-0.8394031523882794,0.4188339997404113,0.00013971328735351562,0.00029850006103515625,0
0.20979762077331543,0.017804516479372978,-0.014632374048233032,-0.025410117581486702,0.00781437559058438,-0.792848172661177,0.1955934313945018,-0.4782224001968377,0.5111380125587274,0.5299472721815853,0.28134656334722974,-0.8406732816736149,0.4229830382711866,0.00014901161193847656,0.00031375885009765625,0
0.22008085250854492,0.018452221527695656,-0.014509244821965694,-0.028170958161354065,0.00982849293858828,-0.7903651213078586,0.1830108911840049,-0.43663813491042697,0.514344849554536,0.528542408758094,0.28397697467258126,-0.8419884873362906,0.4272904683077944,0.0001614093780517578,0.0003314018249511719,0
0.229766845703125,0.01914978213608265,-0.014363285154104233,-0.031082727015018463,0.011996575227645032,-0.7878130872407667,0.17092526392297538,-0.39582718914422205,0.5172980768464098,0.527207196971504,0.286448200311068,-0.843224100155534,0.43134772764950285,0.0001552104949951172,0.0003249645233154297,0
0.24004030227661133,0.02071058191359043,-0.013991591520607471,-0.03734360635280609,0.016741523696506094,-0.7850833330044008,0.15465590793354694,-0.34209162474882565,0.5191997310597575,0.525778377485966,0.2890624461396274,-0.8445312230698137,0.43565106307593465,0.00015354156494140625,0.000324249267578125,0
0.24982261657714844,0.02157912403345108,-0.013760361820459366,-0.04068422690033913,0.019301008078746653,-0.7822254668803598,0.14030556012942144,-0.29293720801500706,0.5211076847028443,0.5244058166261493,0.29154508997522394,-0.8457725449876119,0.4397486693081578,0.00015997886657714844,0.0003352165222167969,0
0.26000380516052246,0.02213382162153721,-0.013409526087343693,-0.04392534866929054,0.02199302238386036,-0.7793308355445835,0.1273301553708631,-0.24750151536182868,0.5230330042515443,0.5229648406838051,0.294122041691136,-0.847061020845568,0.44401335560926986,0.00015044212341308594,0.0003151893615722656,0
0.26989006996154785,0.022765686735510826,-0.013024232350289822,-0.04730160906910896,0.024810881166442905,-0.7764581704172082,0.11538717234207856,-0.20477400651630787,0.5248769617356437,0.5215534876871945,0.29661753063722235,-0.8483087653186111,0.4481545045253158,0.00015997886657714844,0.00033283233642578125,0
0.2797393798828125,0.024267107248306274,-0.01215085294097662,-0.054439667612314224,0.030792818827944442,-0.7734667068488195,0.10043070861418416,-0.15142995342926807,0.5254716313360389,0.5201355690657106,0.29909695717724943,-0.8495484785886247,0.45228017381752567,0.0001475811004638672,0.0003104209899902344,0
0.28975343704223633,0.025142265483736992,-0.011660484597086906,-0.05819414183497429,0.033917076363004554,-0.770457773320257,0.087859694666492,-0.10364906972295054,0.5262893079009169,0.5186818491107711,0.3016109073011638,-0.8508054536505818,0.4564748522714822,0.00016188621520996094,0.0003421306610107422,0
0.29998064041137695,0.026105009019374847,-0.011129411868751049,-0.06206613406538963,0.037157115952070836,-0.7675049986992045,0.0769795829221561,-0.06008083985988737,0.5272531519989765,0.51718464625326,0.3041710730491812,-0.8520855365245905,0.46075881320098366,0.00015854835510253906,0.00035309791564941406,0
0.3098466396331787,0.02829824760556221,-0.009941378608345985,-0.07014235109090805,0.04390150574093308,-0.7644435650557417,0.06381935520457904,-0.007947774509194296,0.5269484442305838,0.5157283460944532,0.30663377673485326,-0.8533168883674266,0.464891473291055,0.00014710426330566406,0.0003120899200439453,0
0.31994080543518066,0.02952912263572216,-0.009282682090997696,-0.07433769851922989,0.04738639108357701,-0.7614371481471316,0.05320073265348252,0.03760767390644659,0.5270139046455963,0.5142262303741134,0.30914621782455814,-0.854573108912279,0.4691197075747466,0.00015354156494140625,0.00038814544677734375,0
0.3298184871673584,0.030852362513542175,-0.008579133078455925,-0.07865435630083084,0.05093887190911332,-0.7585442230409011,0.04439876093467066,0.07855247979013355,0.5272791292447486,0.5127444807897783,0.31159765310351834,-0.8557988265517591,0.47325726122332096,0.00016450881958007812,0.0003573894500732422,0
0.33995604515075684,0.03227368742227554,-0.00782778114080429,-0.08306422084569931,0.05457104079811153,-0.7557834283135623,0.03700752315054304,0.11603928269174502,0.5276951270150821,0.5112115958082305,0.31410619909706083,-0.8570530995485304,0.4775036715814523,0.0001633167266845703,0.0003306865692138672,0
0.3499329090118408,0.03540661558508873,-0.006187108810991049,-0.09214608371257782,0.06204010975369881,-0.7529314324597145,0.028048670277437408,0.16114292988695533,0.5267525867065583,0.5096910265356569,0.3165676191100857,-0.8582838095550428,0.4816827705430319,0.00016999244689941406,0.0003409385681152344,0
0.3598599433898926,0.037120137363672256,-0.005296910181641579,-0.09680850803852081,0.06586706725893476,-0.7502078146322511,0.021209020767055463,0.2005165998163369,0.5262170343398326,0.5081662889977087,0.31900943987019764,-0.8595047199350988,0.48584099697956795,0.00016307830810546875,0.0003509521484375,0
0.36987853050231934,0.03893120586872101,-0.004358681850135326,-0.10154537111520767,0.0697390025703624,-0.7476355319530464,0.015956603767259506,0.23567752030542932,0.5259638879249191,0.506615629100849,0.3214663347082411,-0.8607331673541205,0.4900375729358012,0.0001556873321533203,0.0003273487091064453,0
0.3800618648529053,0.0408414788544178,-0.0033722377847880125,-0.10635211318731308,0.07366017236982025,-0.7452184858111945,0.012000672898308246,0.267673406198517,0.5259158411789291,0.5050272969482593,0.3239559064705176,-0.8619779532352587,0.4943031580537811,0.00016117095947265625,0.0003342628479003906,0
0.38990211486816406,0.04495904594659805,-0.0012531609972938895,-0.11615733057260513,0.0816916848214607,-0.74270855839884,0.006866579712002602,0.3052968233486154,0.5244160941452433,0.5034808538649534,0.32635414780789485,-0.8631770739039474,0.49842503234143765,0.00015020370483398438,0.00032901763916015625,0
0.40001440048217773,0.047166608273983,-0.00012193023576401174,-0.12113893777132034,0.08574903563680607,-0.7403605895466167,0.003402157960574809,0.33797161011635246,0.5234331987756937,0.5018797942710352,0.328810997538804,-0.864405498769402,0.5026608566342359,0.0001609325408935547,0.0003619194030761719,0
0.40984630584716797,0.049473755061626434,0.0010590285528451204,-0.12617485225200653,0.08986069238004765,-0.738170224442046,0.001103232907352153,0.3669475900067642,0.5227476928215791,0.5003116317692984,0.33119219664168104,-0.8655960983208405,0.5067792355229617,0.0001595020294189453,0.00033020973205566406,0
0.419813871383667,0.051878590136766434,0.002289778320118785,-0.13126254081726074,0.09399193978431614,-0.7361292265780017,-0.00034735706651275186,0.3929959599182984,0.5222843224102928,0.4987102994474983,0.3335986169410577,-0.8667993084705288,0.510954439611447,0.0001671314239501953,0.00033783912658691406,0
0.42992138862609863,0.0569726787507534,0.0049002342857420444,-0.14157579839229584,0.10237860862738297,-0.7339879001740501,-0.002855744759705605,0.422760960752704,0.5204026474019475,0.4970746641434307,0.3360309186171646,-0.8680154593085823,0.5151882665334278,0.00015354156494140625,0.00033354759216308594,0
0.43989992141723633,0.05965977907180786,0.006279686000198126,-0.14679354429244995,0.10658189441113457,-0.7320113407282258,-0.004087126900700747,0.44819738292856626,0.5190766669927367,0.4954482648387849,0.3384243148301215,-0.8692121574150606,0.5193680645747936,0.00014591217041015625,0.0003097057342529297,0
0.44977450370788574,0.062438659369945526,0.007706591859459877,-0.15204963088035583,0.11083720941564315,-0.7301896761989934,-0.004393709516987881,0.47044362328534944,0.5181038333386766,0.4938274637115697,0.34078502913742886,-0.8703925145687144,0.5235043199323365,0.00015425682067871094,0.0003235340118408203,0
0.46016716957092285,0.06530890613794327,0.009182191453874111,-0.1573377251625061,0.11511813008151126,-0.7285189076162094,-0.003930820566953335,0.49017758841930503,0.5174499806674512,0.49210947675716993,0.3432612166933287,-0.8716306083466643,0.5278575896292073,0.0001983642578125,0.0003762245178222656,0
0.46987080574035645,0.0713157057762146,0.012278550304472446,-0.1679917871952057,0.12373873891130084,-0.7267427124630111,-0.004432190172613592,0.5117391646125944,0.5152837990915529,0.49049418211756857,0.34556541682989267,-0.8727827084149463,0.5319222392429407,0.00014925003051757812,0.0003116130828857422,0
0.48003602027893066,0.07445158809423447,0.013899903744459152,-0.17335458099842072,0.12807956329879525,-0.725126943010989,-0.003985692020217242,0.5299399486709464,0.513736411008992,0.4887904815947861,0.3479710693467735,-0.8739855346733867,0.5361802343518138,0.0001552104949951172,0.0003275871276855469,0
0.48984813690185547,0.07767204940319061,0.015567880123853683,-0.17873957753181458,0.13241999456333248,-0.7236524853702692,-0.0028629275953598616,0.5454785780027087,0.5125668613019135,0.4871347692942261,0.3502851931564637,-0.8751425965782318,0.5402903241516468,0.00016236305236816406,0.00034332275390625,0
0.49988245964050293,0.08097437024116516,0.017282335087656975,-0.18414472043514252,0.1367460314881029,-0.7222995490040366,-0.0012679644829061574,0.5589193525269485,0.5117021003901315,0.4854302310317105,0.35264357473304425,-0.8763217873665221,0.544493491431578,0.00015735626220703125,0.000347137451171875,0
0.5098354816436768,0.08781515061855316,0.020847206935286522,-0.19500447809696198,0.14542815923267277,-0.7208555728436947,-0.0004102616588343741,0.5724465370207388,0.5094043868879294,0.48372822406119104,0.35497465437212006,-0.8774873271860599,0.5486626035390697,0.0001704692840576172,0.0003502368927001953,0
0.5197739601135254,0.09134950488805771,0.02269478142261505,-0.2004539668560028,0.14978254297556634,-0.7195534681205873,0.0011174312931858297,0.5834065473262047,0.5077242260803262,0.4820175346427976,0.3572941313496199,-0.8786470656748099,0.552825623665568,0.0001385211944580078,0.0003008842468261719,0
0.529944658279419,0.0949573665857315,0.024586880579590797,-0.20591329038143158,0.15414997901974536,-0.7183758341475649,0.0030544615942780205,0.5924005101399148,0.5065079345304224,0.48025535942305186,0.3596592689552644,-0.8798296344776322,0.5570859157508814,0.0001671314239501953,0.00035119056701660156,0
0.5400314331054688,0.09863464534282684,0.02652355097234249,-0.2113807052373886,0.15852411685016965,-0.7173014803811888,0.0052714667560493315,0.5996125666877592,0.5056006556436727,0.4784962628678039,0.36199630719324405,-0.880998153596622,0.5613110541098058,0.00015807151794433594,0.000347137451171875,0
0.5498931407928467,0.10618598759174347,0.03052857518196106,-0.22234106063842773,0.16725177210171735,-0.7161527551084228,0.006454823738874777,0.6054722125963407,0.503241763124765,0.4767654222113472,0.36427288148259923,-0.8821364407412996,0.5654419165661413,0.00015163421630859375,0.0003216266632080078,0
0.5601410865783691,0.11005662381649017,0.03259575739502907,-0.2278260439634323,0.17159156721892843,-0.7151162222593022,0.008276116480549451,0.6096934938124007,0.5015728587522511,0.47495531702677707,0.36662984988676744,-0.8833149249433837,0.5697345660586991,0.00019502639770507812,0.00037741661071777344,0
0.5697610378265381,0.113987997174263,0.03470325097441673,-0.2333124577999115,0.17589720417162577,-0.7141737666204855,0.010461620713342766,0.61249978960716,0.5003011102426689,0.47324553155457705,0.36883419969361003,-0.8844170998468049,0.5737641618145843,0.0001442432403564453,0.00030922889709472656,0
0.5799751281738281,0.1179758682847023,0.036849163472652435,-0.238799050450325,0.18024825469611486,-0.7133117392908299,0.01288088955832298,0.613946172252189,0.49938366789918986,0.4714189506491631,0.3711659641842741,-0.885582982092137,0.5780426299743375,0.00016617774963378906,0.0003542900085449219,0
0.5899209976196289,0.12610970437526703,0.04126293212175369,-0.24976889789104462,0.18892546266634921,-0.7123846893462479,0.014003171734412973,0.6128646256651329,0.49704979878918787,0.46962929486482885,0.373427804809395,-0.8867139024046975,0.582208746025603,0.0001876354217529297,0.00035834312438964844,0
0.5997843742370605,0.13025163114070892,0.04352770745754242,-0.25519245862960815,0.1932402909230845,-0.711540955759976,0.01556597514625643,0.6109092197038022,0.4953473653919232,0.46784376525663696,0.375662363446876,-0.8878311817234379,0.5863403075617246,0.00017499923706054688,0.0003516674041748047,0
0.6097249984741211,0.13443927466869354,0.04582894220948219,-0.2606137692928314,0.1975470422301646,-0.7107651602263481,0.017410507075053958,0.6081040809762653,0.4941020998774448,0.46603349445503595,0.3779057846157266,-0.8889528923078632,0.5905042265050908,0.000148773193359375,0.00032711029052734375,0
0.6198689937591553,0.1386677324771881,0.048165470361709595,-0.2660318911075592,0.2018500870481612,-0.7100520256895565,0.019401288322375906,0.604377864544968,0.4932101872638365,0.46417509836893617,0.38018610975966544,-0.8900930548798327,0.5947533333138258,0.0002090930938720703,0.0004150867462158203,0
0.6297292709350586,0.1472158432006836,0.05294300615787506,-0.2768520712852478,0.21042561058822853,-0.7092979692143344,0.019842509549525426,0.5970693571212625,0.49091887582369564,0.46235798559683794,0.3823938979048099,-0.8911969489524049,0.5988835965589161,0.00014638900756835938,0.0003135204315185547,0
0.6400980949401855,0.15154165029525757,0.05538167431950569,-0.282252699136734,0.21471385405928742,-0.7085980207539666,0.020887341554140043,0.589723464978526,0.4893355975799929,0.4604358281362344,0.3847061842088063,-0.8923530921044032,0.6032268794016991,0.00026869773864746094,0.0006029605865478516,0
0.6499917507171631,0.15589852631092072,0.05785234645009041,-0.2876453995704651,0.21899683448977336,-0.7079477406476478,0.02218807416337218,0.5821364428292896,0.48817527696327323,0.4585909749384028,0.386903499215302,-0.893451749607651,0.6073711242425123,0.0002617835998535156,0.0005838871002197266,0
0.6603074073791504,0.15904642641544342,0.059613969177007675,-0.2927723526954651,0.22326873440333164,-0.7073610094479575,0.023835669852120597,0.5730169485691969,0.4873814696232975,0.4566562661175422,0.38918511612802525,-0.8945925580640126,0.6116921364006794,0.00026988983154296875,0.0006084442138671875,0
0.6701080799102783,0.16547690331935883,0.06327206641435623,-0.30298465490341187,0.2317548943505329,-0.7067759802703226,0.024042698055267805,0.5576989101587284,0.4851829805463169,0.45480762654480267,0.3913438677642506,-0.8956719338821253,0.6157974325105502,0.00017786026000976562,0.00036263465881347656,0
0.679755687713623,0.16875290870666504,0.0651639997959137,-0.3080846071243286,0.2359898731261743,-0.7062158576080058,0.024680011447597596,0.5426166148822162,0.4835713638415496,0.45297789125697174,0.39346032840985007,-0.896730164204925,0.6198386130171774,0.00014543533325195312,0.0003418922424316406,0
0.6898853778839111,0.1720641404390335,0.06709442287683487,-0.3131781816482544,0.2402117035311613,-0.7056840072001864,0.025685383893416455,0.5275903886568083,0.4824512137574477,0.4510461270163153,0.39567333913669483,-0.8978366695683474,0.6240817277134597,0.0001804828643798828,0.00035309791564941406,0
0.7000610828399658,0.1754051297903061,0.06906521320343018,-0.31826379895210266,0.24441425927133978,-0.7051851074223247,0.026781231490913514,0.5124344899237941,0.48168954629276106,0.4490947024132652,0.39788685359576875,-0.8989434267978843,0.6283441170381315,0.0002117156982421875,0.00041365623474121094,0
0.7098898887634277,0.18216374516487122,0.07312095910310745,-0.32840627431869507,0.252715783501413,-0.704695410154136,0.025951867471179085,0.49157771724900157,0.47958721270533966,0.4471994895730674,0.40001577034610525,-0.9000078851730526,0.6324611976358259,0.00015401840209960938,0.00032401084899902344,0
0.7200064659118652,0.1855764538049698,0.0752047747373581,-0.3334628641605377,0.25684379394474516,-0.7042044345700911,0.025549483088428433,0.4722049361504151,0.47815668350034474,0.4452382489770765,0.4021975903058432,-0.9010987951529216,0.63669881956236,0.0001652240753173828,0.0003502368927001953,0
0.7297251224517822,0.18900708854198456,0.07732301205396652,-0.3385091722011566,0.2609653101857416,-0.7037160821869097,0.025469264556873077,0.4537129934650264,0.4771363474659025,0.44334412544250446,0.4042845364784818,-0.9021422682392408,0.6407697608941687,0.00015854835510253906,0.00034427642822265625,0
0.7398777008056641,0.19245226681232452,0.07947506010532379,-0.34354013204574585,0.2650779784119724,-0.7032349632010787,0.02540777977736379,0.43589831423485825,0.4764746249355427,0.4413549862893917,0.4064551341507337,-0.9032275670753668,0.6450224629703754,0.00016188621520996094,0.00036334991455078125,0
0.7498800754547119,0.19936902821063995,0.08387944102287292,-0.3535673916339874,0.2732759736232536,-0.7027757412009705,0.02340242384240254,0.4128071549160742,0.4745083402958476,0.4393848831126258,0.40858404825947886,-0.9042920241297394,0.649212247865829,0.00016832351684570312,0.0003478527069091797,0
0.7601234912872314,0.20283742249011993,0.08612678945064545,-0.3585594892501831,0.2773485549844073,-0.7023095222958851,0.022049917414387506,0.3916906685257146,0.47321375503396523,0.4373566609263863,0.4107543683800842,-0.9053771841900421,0.6535029998561102,0.0002586841583251953,0.0005807876586914062,0
0.7699184417724609,0.20631305873394012,0.088401660323143,-0.3635384738445282,0.28140665950211774,-0.7018428973874538,0.021013536393394813,0.37192494623399736,0.47232434338085727,0.4354072089889595,0.41282025430015484,-0.9064101271500774,0.6576058991209998,0.00015664100646972656,0.00032711029052734375,0
0.7799756526947021,0.209787517786026,0.0907038077712059,-0.3685039281845093,0.28544087646063854,-0.7013930920136299,0.02007987584376777,0.3531836638300626,0.4717687068616819,0.4333954070826992,0.4149318270747876,-0.9074659135373937,0.6618186537808552,0.00020194053649902344,0.00041103363037109375,0
0.7898974418640137,0.21672044694423676,0.09538713842630386,-0.3783889412879944,0.2935348323885669,-0.700962909423884,0.01688862169245612,0.3295453770330339,0.469903038823526,0.43140065978813674,0.41700536055830295,-0.9085026802791514,0.665974683109492,0.000156402587890625,0.0003273487091064453,0
0.8002512454986572,0.22017249464988708,0.09776724129915237,-0.3833071291446686,0.2975514856866944,-0.7005239458346102,0.014297536398450201,0.30809289869584716,0.4687171978818004,0.42930848010744066,0.41915895422600624,-0.909579477113003,0.6703116742341997,0.00016307830810546875,0.0003523826599121094,0
0.8099563121795654,0.2236109972000122,0.10017235577106476,-0.3881991505622864,0.30154425406049923,-0.7000895384192819,0.012007411785844708,0.28843501059427484,0.46791428939176577,0.42733762736409436,0.4211680807454744,-0.9105840403727372,0.6743769230591784,0.0002880096435546875,0.0006473064422607422,0
0.8199930191040039,0.22703462839126587,0.10260140895843506,-0.3930742144584656,0.3055483380199589,-0.6996692368321207,0.00996511912715259,0.27002973125436863,0.46742728420093954,0.42528953755063587,0.4232361152477022,-0.9116180576238511,0.6785810890245184,0.0002601146697998047,0.0005817413330078125,0
0.8300390243530273,0.23382657766342163,0.10752374678850174,-0.4027673900127411,0.3135370338668216,-0.6992748480194996,0.005666503350596812,0.24747176683593525,0.46566864243918416,0.42322952860772445,0.42529609228687176,-0.9126480461434359,0.6827891498629526,0.0001671314239501953,0.00035262107849121094,0
0.8399171829223633,0.23718880116939545,0.11001767963171005,-0.4075850546360016,0.3175107598008412,-0.6988756977248103,0.0020541608223515846,0.2272825755240503,0.4644991035003429,0.42119420848908873,0.4273118752565274,-0.9136559376282637,0.6869269032486087,0.00015544891357421875,0.00032830238342285156,0
0.849998950958252,0.24052612483501434,0.11253144592046738,-0.41238224506378174,0.3214586111048439,-0.6984875883823708,-0.0010102438517235325,0.2088402733712741,0.4637836224239898,0.4191070368452031,0.42935916394882445,-0.9146795819744122,0.6911499443681746,0.00015616416931152344,0.00032711029052734375,0
0.8601095676422119,0.24383588135242462,0.11506402492523193,-0.41715821623802185,0.32541950510635925,-0.6981190048743291,-0.003872283370977679,0.19169813685204976,0.463385622374848,0.4170038990359636,0.43140207253651885,-0.9157010362682594,0.6953850695811867,0.00018715858459472656,0.00036835670471191406,0
0.8698608875274658,0.24711450934410095,0.11761526763439178,-0.4219132959842682,0.3293598924349394,-0.6977696210760975,-0.006668522105517983,0.17540749375228584,0.4631611108379556,0.4149660656197048,0.433362624581427,-0.9166813122907135,0.6994696929030958,0.00015020370483398438,0.00031876564025878906,0
0.8800666332244873,0.2535768747329712,0.12276895344257355,-0.4313715696334839,0.3371999590641735,-0.6974363826074411,-0.011640301253449292,0.1556252662683118,0.46166704256145397,0.4128233951348147,0.4354042310650697,-0.9177021155325348,0.7037446656639182,0.000156402587890625,0.0003273487091064453,0
0.8898663520812988,0.2567574679851532,0.12536944448947906,-0.43607354164123535,0.34108025804132264,-0.6971048571783904,-0.015868900205493627,0.13802670386591417,0.4607054188898957,0.4107565153252608,0.4373546445595939,-0.9186773222797969,0.7078495622996255,0.00015401840209960938,0.0003254413604736328,0
0.9000163078308105,0.25990134477615356,0.12798553705215454,-0.44075170159339905,0.344961495979739,-0.6967827123859566,-0.01955800253456416,0.12216346531462455,0.4601711694137313,0.4086060522440499,0.4393644205776485,-0.9196822102888242,0.7121011658218824,0.00015497207641601562,0.0003247261047363281,0
0.9099302291870117,0.2630077600479126,0.130616694688797,-0.4454071819782257,0.34884045185097673,-0.6964724315008416,-0.02290090663503666,0.10760136420628869,0.4598998614537472,0.40649610411086157,0.4413172524870193,-0.9206586262435096,0.7162538994886702,0.00016117095947265625,0.0003337860107421875,0
0.9198596477508545,0.2691038250923157,0.13591335713863373,-0.4546467959880829,0.35651588697611186,-0.6961750856999747,-0.028286303504240273,0.09035000188753989,0.45839136713056333,0.40437350292433416,0.4432629807830827,-0.9216314903915412,0.7204131246106151,0.0001537799835205078,0.0003209114074707031,0
0.9299659729003906,0.2720915675163269,0.13857828080654144,-0.45922908186912537,0.3603074508796865,-0.6958783465081122,-0.03262257815779689,0.0753536048758101,0.45750108248272203,0.40220352125633263,0.44523289129286797,-0.922616445646434,0.7246464521898914,0.00026154518127441406,0.0005967617034912109,0
0.9400026798248291,0.2750380337238312,0.1412537842988968,-0.4637865722179413,0.3640824754973523,-0.6955984748717644,-0.036318448901825645,0.062018362732114835,0.45703881123461054,0.40003899017484285,0.44717871856774666,-0.9235893592838733,0.7288506181552314,0.00029277801513671875,0.0006260871887207031,0
0.9499609470367432,0.27794063091278076,0.1439393162727356,-0.46831709146499634,0.3678638585129145,-0.6953399026527011,-0.03959131844574557,0.04994304661138688,0.456861443685868,0.397882071827088,0.44909893889719216,-0.9245494694485961,0.7330219273706226,0.00026154518127441406,0.0005877017974853516,0
0.9600515365600586,0.28361111879348755,0.14934192597866058,-0.47733208537101746,0.3754216610300421,-0.6950845788763353,-0.04502192989685243,0.03584102918198371,0.45548813655366854,0.39568709163503124,0.45103406247578504,-0.9255170312378924,0.7372486636262009,0.00016260147094726562,0.0003299713134765625,0
0.9698226451873779,0.2863737642765045,0.15205784142017365,-0.48179900646209717,0.37918070304029877,-0.694840742556856,-0.04955672899705255,0.023599921467711536,0.4546520229613328,0.39355263756858055,0.45289769425645504,-0.9264488471282275,0.7413415760370028,0.00015091896057128906,0.00031948089599609375,0
0.9801046848297119,0.2890877425670624,0.15478326380252838,-0.48623785376548767,0.382932404051661,-0.694615827185417,-0.05344199614374274,0.012858854543270223,0.45427495457765554,0.39129709606756047,0.45484786754374734,-0.9274239337718736,0.7456485067309062,0.0002582073211669922,0.0005712509155273438,0
0.9900014400482178,0.29435959458351135,0.1602661907672882,-0.4950235188007355,0.3904494099782999,-0.6944097910402651,-0.05941237466013911,0.0005844405872477941,0.45274670816102947,0.3891169454602945,0.4567143557582246,-0.9283571778791122,0.7497940498627509,0.00016188621520996094,0.0003376007080078125,0
0.9997580051422119,0.296916663646698,0.16302090883255005,-0.49936988949775696,0.39417377648557783,-0.6942196867580638,-0.06435517526294024,-0.009875160048839093,0.4518128558903396,0.38695896226899545,0.45854417619211135,-0.9292720880960557,0.7538808702925592,0.0002067089080810547,0.00044274330139160156,0
1.0097904205322266,0.2994216978549957,0.16578412055969238,-0.503684401512146,0.397905592955355,-0.6940519345139734,-0.06847029746310875,-0.01880268411886512,0.45133561624905466,0.38473099327670907,0.4604150983757123,-0.9302075491878561,0.7580832386241634,0.00015878677368164062,0.00032973289489746094,0
1.020024061203003,0.3018742799758911,0.16855467855930328,-0.5079656839370728,0.40164566002423086,-0.693910322455243,-0.07196934446813051,-0.026736336144895373,0.45120651986685434,0.38244901750210375,0.46231239331395335,-0.9311561966569766,0.7623698960042685,0.00017261505126953125,0.0003943443298339844,0
1.0298736095428467,0.3066180348396301,0.1741154044866562,-0.5164817571640015,0.40904406174397223,-0.6937746268801008,-0.0773065990655264,-0.03564880167989025,0.449888915189692,0.38024385274023725,0.46412779754423317,-0.9320638987721166,0.7664956651650192,0.0002574920654296875,0.0005943775177001953,0
1.039989948272705,0.30890947580337524,0.17690393328666687,-0.5206908583641052,0.4127138182466153,-0.6936523907436271,-0.08154668167744249,-0.04308685941616876,0.449179503998934,0.37796998762542344,0.46598142501009326,-0.9329907125050466,0.7707331872230124,0.0002624988555908203,0.0006051063537597656,0
1.0499117374420166,0.31114792823791504,0.17969700694084167,-0.5248674750328064,0.4163947157341836,-0.693545662192524,-0.08502903308977344,-0.04929726941093018,0.44886109060580376,0.37573107436630737,0.4677885844647562,-0.9338942922323781,0.7748892165516492,0.00015997886657714844,0.0003275871276855469,0
1.0599830150604248,0.31436681747436523,0.18294604122638702,-0.5291872620582581,0.42007226193297836,-0.6934470321719983,-0.08777773947078518,-0.05361911772110918,0.4488411139949769,0.3734495918153013,0.469611970006073,-0.9348059850030365,0.7791078634554165,0.00019431114196777344,0.000400543212890625,0
1.0699825286865234,0.31751272082328796,0.18619054555892944,-0.5334699153900146,0.42361037005884894,-0.6933595307888417,-0.08996035266425223,-0.05657806881965214,0.44907105974755757,0.3711756118691754,0.47141135450214094,-0.9357056772510705,0.7832964499283795,0.0002713203430175781,0.0006203651428222656,0
1.0799438953399658,0.3205872178077698,0.1894298791885376,-0.5377160310745239,0.4271223686195504,-0.6932790506952343,-0.09167586198658563,-0.05838772716127212,0.44947975012900926,0.36890168656519684,0.4731929264574369,-0.9365964632287184,0.787469057434802,0.0002586841583251953,0.0006222724914550781,0
1.089867353439331,0.3265226483345032,0.19589075446128845,-0.5461025834083557,0.4341119271820121,-0.693182984115708,-0.09470243468132934,-0.05969282897908441,0.44870352208826203,0.366627912424242,0.47495681259609523,-0.9374784062980476,0.791625785843225,0.00016999244689941406,0.00035881996154785156,0
1.1000375747680664,0.3293856382369995,0.19911184906959534,-0.5502536296844482,0.4375799703849685,-0.6931030532219732,-0.09676759201546675,-0.060077736071588304,0.4484571808892167,0.36428884657424093,0.4767532236509881,-0.938376611825494,0.7958858781914566,0.00017070770263671875,0.0003483295440673828,0
1.1100246906280518,0.33490845561027527,0.2055363804101944,-0.5584477186203003,0.44451251527042485,-0.6930061754952889,-0.09966516785356493,-0.05950173490312761,0.44725381020865385,0.3619833274507584,0.47850608214282603,-0.9392530410714129,0.8000692715002939,0.0002586841583251953,0.0005810260772705078,0
1.120039939880371,0.33756953477859497,0.2087394893169403,-0.5624921321868896,0.44798497108367835,-0.6929281662590547,-0.10153671139444662,-0.058346408816921144,0.44668247147604495,0.3596628439889557,0.480252682089102,-0.940126341044551,0.8042644492969548,0.00032806396484375,0.0005984306335449219,0
1.1298863887786865,0.34016215801239014,0.21193857491016388,-0.5665007829666138,0.4514549401665236,-0.6928662780536851,-0.10276850251119156,-0.05674759501148532,0.4465279725332881,0.3573732549357311,0.4819588744453628,-0.9409794372226814,0.8083889201666742,0.0001621246337890625,0.0003478527069091797,0
1.1399669647216797,0.34268808364868164,0.21513214707374573,-0.5704733729362488,0.4549157467649934,-0.6928213776184474,-0.10342680118480746,-0.054716914292784045,0.44670547396525734,0.3550208400957398,0.4836943281636814,-0.9418471640818407,0.8126114619435357,0.00016379356384277344,0.0003323554992675781,0
1.1499028205871582,0.34754401445388794,0.2215012013912201,-0.5783128142356873,0.461800233282723,-0.6927652092736644,-0.1051402504169188,-0.05200736298434805,0.44580876311319156,0.352693950190319,0.4853936314983425,-0.9426968157491712,0.8167733835160843,0.00026917457580566406,0.0006070137023925781,0
1.1601753234863281,0.3498762547969818,0.2246786504983902,-0.5821794867515564,0.4652224200938664,-0.6927282320836389,-0.1061657008449657,-0.04896485806840368,0.4455113464446667,0.35027966955152995,0.48713874111886335,-0.9435693705594317,0.8210763194683526,0.0002658367156982422,0.0005986690521240234,0
1.169856309890747,0.3521462678909302,0.22785316407680511,-0.5860388278961182,0.4686500144859481,-0.6927093534228217,-0.10675605179207709,-0.04568835422410581,0.4455384926680496,0.3479965051373118,0.48877237279966723,-0.9443861863998335,0.8251314815707026,0.0001499652862548828,0.0003132820129394531,0
1.179969310760498,0.3543536365032196,0.23102323710918427,-0.5898610353469849,0.4720798927137942,-0.692704561597666,-0.10690246923681275,-0.04244122231119665,0.44585983715088295,0.3456033188361005,0.4904674770150133,-0.9452337385075066,0.8293676054691236,0.0001614093780517578,0.0003502368927001953,0
1.1898994445800781,0.35649821162223816,0.23418648540973663,-0.5936462879180908,0.4755030604931342,-0.6927134368162737,-0.10661004609577812,-0.03912497775359963,0.44636091214445134,0.34324537251877796,0.4921205281680956,-0.9460602640840478,0.833527130196691,0.00015234947204589844,0.00031948089599609375,0
1.2001714706420898,0.3585817813873291,0.237343892455101,-0.5973947644233704,0.4789087893757923,-0.6927309743391953,-0.10596290609784854,-0.035678248236193616,0.44704804238964724,0.3407979237364965,0.49381856503871246,-0.9469092825193561,0.8378298664118775,0.00015807151794433594,0.0003311634063720703,0
1.2098417282104492,0.36256644129753113,0.2436428666114807,-0.6047833561897278,0.48582863017144146,-0.6927424759091515,-0.10604011060240898,-0.03167941967573697,0.4464530937696711,0.3384861770353034,0.49540600314895783,-0.9477030015744788,0.841880534429888,0.000156402587890625,0.0003209114074707031,0
1.22011137008667,0.3644704520702362,0.24678122997283936,-0.6084235906600952,0.48931805790968524,-0.6927671444948049,-0.1054782644728598,-0.027784784225712535,0.4463412459075126,0.33602304838948954,0.49707998446028256,-0.9485399922301412,0.8461822719596658,0.000278472900390625,0.0006244182586669922,0
1.2298564910888672,0.3681057393550873,0.25303879380226135,-0.615594208240509,0.4963163477177915,-0.69279390745848,-0.1056930291008602,-0.023542759184362293,0.4451693537533889,0.3336780677561149,0.498657143835868,-0.949328571917934,0.8502642986995119,0.0001709461212158203,0.0003783702850341797,0
1.2398276329040527,0.3698371648788452,0.2561587691307068,-0.6191306710243225,0.49983162979778045,-0.6928343198968135,-0.10536438865988795,-0.019518803581199097,0.4445970617592386,0.33127103791830737,0.5002594321314965,-0.9501297160657483,0.8544410008161105,0.00016617774963378906,0.00034880638122558594,0
1.2498555183410645,0.37151283025741577,0.25927361845970154,-0.6226316094398499,0.5033358358367122,-0.6928837112007937,-0.10462205889529143,-0.01571752816042292,0.44445755665973535,0.328842550617426,0.5018591205741165,-0.9509295602870582,0.8586414716454379,0.0001647472381591797,0.00034356117248535156,0
1.260152816772461,0.3731320798397064,0.2623816728591919,-0.6260964870452881,0.5068615172769583,-0.692946133222375,-0.10345794057844139,-0.01213546520654181,0.44465526840518926,0.32634078044362147,0.5034895182816103,-0.951744759140805,0.8629547939259575,0.00016260147094726562,0.00033855438232421875,0
1.269845962524414,0.3762040436267853,0.26858019828796387,-0.6329185962677002,0.5139115712031533,-0.693006351880942,-0.10319622743830428,-0.008247177775735732,0.4436724921789106,0.3239784046360696,0.5050128645187835,-0.9525064322593917,0.8670150493238923,0.0002701282501220703,0.0006036758422851562,0
1.2801568508148193,0.37765946984291077,0.2716696560382843,-0.6362769603729248,0.5174139773475096,-0.6930767176748435,-0.10221415635630361,-0.004570777089098734,0.4432907770616374,0.32145767124669106,0.5066211262833936,-0.9533105631416967,0.8713340641112419,0.00018334388732910156,0.00036144256591796875,0
1.2897541522979736,0.3790636658668518,0.2747507393360138,-0.6395994424819946,0.5208797033528575,-0.693157301683858,-0.10082231436100435,-0.0012067643133039257,0.4432314698192286,0.31910421547620293,0.5081067797868053,-0.9540533898934026,0.8753541723557439,0.0001614093780517578,0.000335693359375,0
1.299917221069336,0.3804151117801666,0.2778218686580658,-0.6428869366645813,0.5243551299476902,-0.6932432614589782,-0.09898376063876786,0.0018246531145580283,0.4434830808859818,0.31660453796360116,0.509668094489791,-0.9548340472448955,0.8796112686477491,0.0001723766326904297,0.00036144256591796875,0
1.3098702430725098,0.3829648792743683,0.28393617272377014,-0.6493722200393677,0.5313494364711399,-0.6933306159982063,-0.09769543859233366,0.004967728260216579,0.442599760726726,0.3141491186581482,0.5111852220539134,-0.9555926110269566,0.8837803807552409,0.00016689300537109375,0.00034737586975097656,0
1.3197839260101318,0.38416504859924316,0.28697890043258667,-0.6525695323944092,0.5348399308408974,-0.693425160186286,-0.09601931271579853,0.007768642897622792,0.44222973890093,0.31169617757882945,0.512684593958846,-0.956342296979423,0.8879330145534878,0.00015997886657714844,0.0003712177276611328,0
1.3300905227661133,0.38531604409217834,0.2900123596191406,-0.6557324528694153,0.5383594097804342,-0.6935215542550172,-0.09398830002631604,0.010421237926307416,0.4422698754531513,0.3091384315775089,0.5142309112857743,-0.9571154556428871,0.8922502317071017,0.0002646446228027344,0.0005946159362792969,0
1.3400099277496338,0.38641753792762756,0.29303425550460815,-0.6588624715805054,0.5418797487468305,-0.6936203079384822,-0.09168986214178551,0.01291014482941303,0.44253598041851416,0.30666952841782613,0.515707087734877,-0.9578535438674385,0.8964052623503297,0.00031495094299316406,0.0005679130554199219,0
1.3497662544250488,0.38848114013671875,0.299048513174057,-0.6650181412696838,0.548798027216618,-0.693728618994632,-0.09001220734237651,0.015348004086510247,0.441660419678578,0.3042343386330413,0.5171474327467129,-0.9585737163733564,0.9004919829115972,0.0001518726348876953,0.00031876564025878906,0
1.360196828842163,0.38944506645202637,0.3020413815975189,-0.6680437326431274,0.552265508432703,-0.6938452071756273,-0.08792206658360155,0.017523519436688718,0.44138565250266665,0.3016233750754327,0.5186745989617236,-0.9593372994808618,0.9048611317064675,0.00019431114196777344,0.0003757476806640625,0
1.3697268962860107,0.39036327600479126,0.30502235889434814,-0.6710419058799744,0.5557058683631444,-0.6939655789374365,-0.08561179367539644,0.019328871851113115,0.441400159999103,0.29923112162509063,0.5200583965777211,-0.9600291982888605,0.9088530770224418,0.000148773193359375,0.0003192424774169922,0
1.3798892498016357,0.3912363648414612,0.30799177289009094,-0.6740070581436157,0.5591611419067385,-0.6940844442861274,-0.08313875586861906,0.020979958682025887,0.44171088642515405,0.29667315763715624,0.521521847612925,-0.9607609238064625,0.9131098737088245,0.00017547607421875,0.0003554821014404297,0
1.3898651599884033,0.39284905791282654,0.31389686465263367,-0.679838240146637,0.5660664715886385,-0.6942124775569211,-0.08130377287963525,0.022203520424707808,0.4409059086004705,0.29415516152064775,0.5229462122922028,-0.9614731061461014,0.9172885731962405,0.00016641616821289062,0.0003409385681152344,0
1.3998336791992188,0.3935892581939697,0.31683212518692017,-0.6827042102813721,0.5695525251198508,-0.6943352052613637,-0.07917465897669004,0.023241551458827857,0.4406010053849649,0.29163220013858554,0.524357377980255,-0.9621786889901274,0.9214641767588894,0.00015306472778320312,0.0003266334533691406,0
1.4098801612854004,0.3942826986312866,0.31975850462913513,-0.6855403184890747,0.573031183913885,-0.6944530682154023,-0.07677333293299764,0.024136568217452362,0.4406611738021705,0.28908265774387026,0.5257672650438979,-0.962883632521949,0.9256724373344053,0.00015997886657714844,0.0003371238708496094,0
1.4200475215911865,0.39493459463119507,0.3226718008518219,-0.6883453726768494,0.5765002815373447,-0.6945723798791568,-0.07415589275905525,0.02485632172919347,0.44099946530756967,0.2864955003779558,0.5271814946137475,-0.9635907473068737,0.9299313312601464,0.000164031982421875,0.0003466606140136719,0
1.4297730922698975,0.395544171333313,0.3255714774131775,-0.6911190152168274,0.5799988566185313,-0.6946916498016176,-0.07146430064801311,0.02540280781035696,0.44145199277571434,0.2840142846689854,0.5285223610254958,-0.9642611805127479,0.9340051687796407,0.00015354156494140625,0.0003345012664794922,0
1.4399254322052002,0.39664071798324585,0.3313312828540802,-0.696624219417572,0.5869923671514621,-0.6948090234419623,-0.0693943232084042,0.025319922587873682,0.44074092138144244,0.2814174966926945,0.5299096079098937,-0.9649548039549468,0.9382577709873064,0.00017023086547851562,0.0003695487976074219,0
1.4497344493865967,0.39712655544281006,0.3341887295246124,-0.6993315815925598,0.5904828553963788,-0.694925525558984,-0.06712486299353122,0.025103249887641583,0.4404750351294121,0.27890208800637817,0.5312378236775714,-0.9656189118387857,0.942366562496108,0.00015664100646972656,0.000331878662109375,0
1.4600417613983154,0.3982847332954407,0.3372125029563904,-0.7024620175361633,0.593968784548107,-0.6950226540435743,-0.06437428087571559,0.025464328752424412,0.4406007601058041,0.27625214400250386,0.5326206463647648,-0.9663103231823824,0.9466840792553444,0.00016498565673828125,0.0003333091735839844,0
1.4700191020965576,0.4004439115524292,0.34320858120918274,-0.7086037397384644,0.6008229787388977,-0.6950918822701148,-0.061831103542306885,0.026072998608650207,0.43968568177970385,0.2736805025879348,0.533946610161742,-0.966973305080871,0.9508633779540058,0.00017189979553222656,0.0005648136138916016,0
1.4797627925872803,0.401445209980011,0.3461853265762329,-0.711615264415741,0.6042786140883333,-0.6951547126309107,-0.05903557474668116,0.02680858715619384,0.43927979901864567,0.27116294122295687,0.5352295388964581,-0.967614769448229,0.9549448054826066,0.000148773193359375,0.0003161430358886719,0
1.4899163246154785,0.4023953378200531,0.34914302825927734,-0.7145885825157166,0.6078196768334515,-0.6952105252655921,-0.05605209831011466,0.027588286184412576,0.43926269563787396,0.2685330878400588,0.5365538004106235,-0.9682769002053118,0.9591979070329768,0.00026917457580566406,0.0005993843078613281,0
1.4999966621398926,0.4032956063747406,0.35208261013031006,-0.7175244688987732,0.6113620837723943,-0.6952618865476091,-0.052936870956923086,0.02851823017944997,0.43950573638485024,0.26591579506159346,0.5378557333865287,-0.9689278666932644,0.9634203489412975,0.00027751922607421875,0.0006921291351318359,0
1.5098612308502197,0.4049500823020935,0.35790538787841797,-0.7232920527458191,0.6184075713755716,-0.6952868374772587,-0.05025973407964085,0.028971528999310513,0.4385833298861031,0.2633484140179804,0.5391174388147858,-0.9695587194073929,0.9675524098201236,0.00014829635620117188,0.0003159046173095703,0
1.5200495719909668,0.40570658445358276,0.3607861399650574,-0.7261232137680054,0.6219486397618355,-0.6953187248421755,-0.04723184394307683,0.02953573437172229,0.4382101255761377,0.26069048344622753,0.5404076903973261,-0.970203845198663,0.9718200921774619,0.00015974044799804688,0.0003325939178466797,0
1.529817819595337,0.4064182937145233,0.363646924495697,-0.7289168238639832,0.6254979639186886,-0.6953592375577592,-0.04399701727937622,0.030120953215638794,0.43815227874595236,0.2581362102060341,0.5416324371568474,-0.9708162185784237,0.9759118061657732,0.00016260147094726562,0.00035071372985839844,0
1.539893627166748,0.4070846438407898,0.3664880692958832,-0.7316741347312927,0.629035104164409,-0.6953997997464287,-0.04073811190633892,0.030753753392794247,0.43836806252494454,0.2554954861588113,0.5428830965801685,-0.9714415482900842,0.9801323505718172,0.00016427040100097656,0.000339508056640625,0
1.5498902797698975,0.40828150510787964,0.3721141219139099,-0.7370864152908325,0.6361491663881029,-0.6954370152016104,-0.038090183882301315,0.030945590496517565,0.43742160835526905,0.2528695193426146,0.5441112075554363,-0.9720556037777182,0.9843197386222897,0.00016617774963378906,0.00034236907958984375,0
1.5598886013031006,0.4088135063648224,0.37489721179008484,-0.7397409677505493,0.6396912628928912,-0.6954745763568712,-0.03526602145855825,0.031205148109818462,0.43700133692106596,0.2502372095800963,0.5453268184690414,-0.9726634092345207,0.9885078257525483,0.00015115737915039062,0.0003197193145751953,0
1.5699031352996826,0.4093030095100403,0.37765979766845703,-0.742362916469574,0.6432364263621024,-0.6955146041090876,-0.03237824590804984,0.031364927102183686,0.4369507899378028,0.24759477372077668,0.5465316349729056,-0.9732658174864528,0.9927027039435866,0.00015592575073242188,0.00032901763916015625,0
1.5800716876983643,0.40974920988082886,0.3804023265838623,-0.7449831962585449,0.6467686740310663,-0.6955596032605624,-0.029529372470344786,0.03146853171838862,0.43718808664932385,0.2449057637451491,0.5477418797977796,-0.9738709398988897,0.9969620972120321,0.00016880035400390625,0.00034356117248535156,0
1.5898950099945068,0.4105122685432434,0.38582944869995117,-0.7501211166381836,0.653870402632762,-0.6956029640127025,-0.02754504835916754,0.030860977918627942,0.43623408997972424,0.24230242937872198,0.5488984721395838,-0.9744492360697918,1.0010768808332862,0.000156402587890625,0.00032782554626464844,0
1.5999457836151123,0.410832017660141,0.38851332664489746,-0.7526419758796692,0.6574366221751201,-0.6956474687955544,-0.02538340790809956,0.03039112504461337,0.4358077318110773,0.2396331642135362,0.5500690380388705,-0.9750345190194352,1.005286939042538,0.0001804828643798828,0.0003612041473388672,0
1.6098742485046387,0.4111100435256958,0.3911774456501007,-0.7551303505897522,0.6609879346007734,-0.6956958749995822,-0.023169715863360762,0.029880637035006853,0.4357370985513339,0.23699082930638116,0.5512126148997986,-0.9756063074498993,1.0094457646903194,0.00016641616821289062,0.0003457069396972656,0
1.6198303699493408,0.41134703159332275,0.39382097125053406,-0.7575858235359192,0.6645220975478483,-0.695750666244765,-0.02091085373907981,0.029375384857771136,0.43592624806380637,0.23433565401579998,0.5523466314344528,-0.9761733157172263,1.0136161750888426,0.0001544952392578125,0.0003247261047363281,0
1.6298677921295166,0.4116981029510498,0.3990503251552582,-0.7623975276947021,0.6716325070636205,-0.6958128515825405,-0.019665275811660075,0.0280611394970056,0.43496892374323465,0.23165330420323202,0.5534769612655298,-0.9767384806327648,1.0178206406598052,0.0001671314239501953,0.00036072731018066406,0
1.639782190322876,0.41181281208992004,0.401633620262146,-0.7647568583488464,0.6752074106645197,-0.6958714193647917,-0.01818645426128646,0.026843891359807654,0.4345155578949605,0.22899847827766556,0.5545806496322365,-0.9772903248161182,1.0219735740636748,0.00015592575073242188,0.00034356117248535156,0
1.6499149799346924,0.4118872880935669,0.4041946828365326,-0.767068088054657,0.6787687172449287,-0.6959356234723223,-0.016564706815569333,0.025594212953237987,0.43445436670374654,0.22627973987843955,0.5556954915423965,-0.9778477457711983,1.0262179870509884,0.0001633167266845703,0.00033783912658691406,0
1.6600925922393799,0.41192248463630676,0.40673378109931946,-0.7693484425544739,0.682361905695137,-0.6960008979741618,-0.014834125528276697,0.02448520039701159,0.43466278280344117,0.2235435118919592,0.5568018483186001,-0.9784009241593,1.0304811753239873,0.00016760826110839844,0.0003592967987060547,0
1.669825792312622,0.41187700629234314,0.41175076365470886,-0.7738174796104431,0.6895154026307915,-0.6960783353238416,-0.014352715479712987,0.02257248200676247,0.43365500021468717,0.22092170224251761,0.5578472922568222,-0.978923646128411,1.0345582086367897,0.0001552104949951172,0.0003254413604736328,0
1.679948329925537,0.4117961525917053,0.4142286479473114,-0.7760062217712402,0.6931087681874759,-0.6961586385965265,-0.01359243145739074,0.020909310282406546,0.4331920848087952,0.21818983217906016,0.5589214588237542,-0.9794607294118771,1.0387983272768457,0.0001678466796875,0.00034618377685546875,0
1.6899666786193848,0.4116772711277008,0.41668587923049927,-0.7781645655632019,0.6966632103814966,-0.6962398605392034,-0.012578702617224186,0.019355331535306455,0.43310880673479724,0.21548093816703887,0.5599713968468861,-0.979985698423443,1.042994803364538,0.00015616416931152344,0.0003247261047363281,0
1.700011968612671,0.4115194082260132,0.4191221594810486,-0.7802937030792236,0.7002272148919282,-0.696322875075518,-0.01132986164296266,0.017913330914250295,0.4332919208538859,0.21275968695271494,0.5610109763701444,-0.9805054881850721,1.0472025645973497,0.00015282630920410156,0.0003223419189453125,0
1.7099266052246094,0.41132548451423645,0.42153728008270264,-0.7823926210403442,0.7037814457191662,-0.696409962299558,-0.010010203437080428,0.01653570220159306,0.43364465165420224,0.2100689114749379,0.5620240674844225,-0.9810120337422112,1.0513555978697602,0.00016546249389648438,0.0003421306610107422,0
1.71980619430542,0.41082558035850525,0.4263021945953369,-0.7865182161331177,0.7108746379237034,-0.6965040028909546,-0.010029236114975085,0.014035567638225098,0.43278349836155167,0.2073828493898363,0.563020740096626,-0.981510370048313,1.0554939504666614,0.0001537799835205078,0.00031685829162597656,0
1.7298932075500488,0.4105179011821747,0.42865416407585144,-0.7885457873344421,0.7144112513416117,-0.6965951456168947,-0.009801139963110259,0.011869088494283841,0.4324389253602796,0.20463551482891204,0.5640250934760848,-0.9820125467380423,1.0597191886941266,0.00017309188842773438,0.0003635883331298828,0
1.7400321960449219,0.4101742208003998,0.43098515272140503,-0.7905445098876953,0.7179603547091185,-0.6966866066366959,-0.009270343470887203,0.009910322872801202,0.43245943908508944,0.2018691227313967,0.5650211122494949,-0.9825105561247474,1.0639661982635034,0.00016164779663085938,0.00033926963806152344,0
1.7497565746307373,0.40938106179237366,0.43558353185653687,-0.7944582104682922,0.7250444110940056,-0.6967896004057905,-0.009983386528090927,0.007204181380892493,0.4313447793644525,0.19921130047754168,0.5659636540998428,-0.9829818270499213,1.068039536440293,0.00015878677368164062,0.00033593177795410156,0
1.7600929737091064,0.4089314043521881,0.4378514289855957,-0.7963723540306091,0.7285570520682718,-0.6968893846125856,-0.010225144022062456,0.004850465140332418,0.4308709149650709,0.1963813802282167,0.5669518087982969,-0.9834759043991483,1.0723692371615168,0.0001919269561767578,0.0003743171691894531,0
1.769831895828247,0.40845227241516113,0.440097451210022,-0.7982589602470398,0.7320906760228149,-0.6969891621916667,-0.010110324607524668,0.0027050908144914724,0.43074388721173174,0.1937105526640244,0.5678698986445735,-0.9839349493222866,1.0764486673193001,0.00016689300537109375,0.00034618377685546875,0
1.7799129486083984,0.40793830156326294,0.44232210516929626,-0.8001173734664917,0.7355856315551588,-0.6970898168408957,-0.00983573475767247,0.000786959456611199,0.43092788752749883,0.19094137833245664,0.5688069883892968,-0.9844034941946483,1.0806714088332434,0.00016164779663085938,0.0003368854522705078,0
1.7899484634399414,0.4073907136917114,0.44452783465385437,-0.8019493222236633,0.7390704827748995,-0.6971844744764457,-0.009436912232247735,-0.000849841134178962,0.4313262435246161,0.1881802104525877,0.5697264329430571,-0.9848632164715285,1.084875075455879,0.00016760826110839844,0.00034880638122558594,0
1.7997987270355225,0.4061923623085022,0.44887980818748474,-0.8056067228317261,0.7460038901213638,-0.6972854056142715,-0.010535659318269133,-0.0033970688978250873,0.43055234075506527,0.18546570680947383,0.5706158704397051,-0.9853079352198525,1.0890011442222522,0.0001506805419921875,0.00032019615173339844,0
1.8098297119140625,0.4055418074131012,0.45102545619010925,-0.807395339012146,0.7495024796455827,-0.697380636931202,-0.011144904619132857,-0.005650760738871451,0.4302743011649238,0.18269708087673525,0.5715083347066074,-0.9857541673533037,1.093202913342611,0.00016498565673828125,0.00033783912658691406,0
1.820030927658081,0.404857337474823,0.45314887166023254,-0.8091580271720886,0.7529651240188252,-0.6974747802615976,-0.011387031923757408,-0.007751762221902273,0.43038358503382096,0.1798770661270734,0.5724021672578786,-0.9862010836289392,1.097475988601157,0.00017333030700683594,0.0003845691680908203,0
1.8297667503356934,0.40338730812072754,0.457328200340271,-0.8126039505004883,0.7599174749323083,-0.6975814097345644,-0.012793813647707318,-0.01064571080197723,0.429382251599498,0.1771816251997984,0.573242245208392,-0.9866211226041959,1.101554120467909,0.0001678466796875,0.0003628730773925781,0
1.8398809432983398,0.4026024043560028,0.45938563346862793,-0.8142872452735901,0.7633681456529327,-0.6976881954664806,-0.013627518023135244,-0.013154936900204046,0.4289760503906871,0.1743772754036187,0.5741015291939314,-0.9870507645969657,1.1057907437090342,0.0001761913299560547,0.00036454200744628906,0
1.8498034477233887,0.40178391337394714,0.4614214301109314,-0.8159437775611877,0.7667869744419332,-0.6977954936823652,-0.01417374976019811,-0.01536853295978963,0.42896827209899113,0.17162202514398114,0.5749311963056786,-0.9874655981528393,1.1099470726432936,0.00015664100646972656,0.00033164024353027344,0
1.8600544929504395,0.4013831317424774,0.4638347923755646,-0.8178049325942993,0.7702174822339355,-0.6978940637873351,-0.014313015476508074,-0.01685720525170414,0.42928661729164885,0.16877140203566074,0.5757744470319236,-0.9878872235159617,1.1142410204268829,0.00019693374633789062,0.0003979206085205078,0
1.8700459003448486,0.400942862033844,0.4662185609340668,-0.8196650147438049,0.7735852108200797,-0.6979802802182976,-0.014204733706793878,-0.017837327004261244,0.4298160073101698,0.16598899190372707,0.576582738699993,-0.9882913693499964,1.118426211369456,0.00016450881958007812,0.00034236907958984375,0
1.8798892498016357,0.39994484186172485,0.47089728713035583,-0.8232977390289307,0.7802863455618948,-0.6980580761389035,-0.015167351863299386,-0.01898335396161628,0.42921984451194634,0.16324402745578448,0.5773659043449094,-0.9886829521724547,1.122549383948144,0.00015616416931152344,0.0003273487091064453,0
1.889880895614624,0.3993881344795227,0.47319209575653076,-0.8250706195831299,0.7836538974594499,-0.6981274686022299,-0.015614102199013916,-0.01974639258476261,0.4291091826457936,0.16045392992767682,0.5781475039907759,-0.9890737519953878,1.126734674759258,0.00016260147094726562,0.00033855438232421875,0
1.9000563621520996,0.3987916111946106,0.4754583239555359,-0.8268156051635742,0.7870073914585023,-0.6981933276092797,-0.015812308001649327,-0.020274607371376232,0.42937251763589496,0.15760865631802784,0.578929625648598,-0.9894648128242989,1.130996964215389,0.00016617774963378906,0.0003414154052734375,0
1.9099032878875732,0.39747926592826843,0.4799070358276367,-0.8302171230316162,0.7937306589620529,-0.6982718469045613,-0.017379560764090998,-0.02100791697425346,0.42858237829267865,0.15485161945973644,0.5796731630416375,-0.9898365815208188,1.13512163482219,0.0001544952392578125,0.0003273487091064453,0
1.9200515747070312,0.3967672288417816,0.48209044337272644,-0.8318738341331482,0.797058288862387,-0.6983492880232309,-0.018265667738150745,-0.021408557783051025,0.42837550870573377,0.1520065352073833,0.5804257172578129,-0.9902128586289064,1.139372539264661,0.00016379356384277344,0.00033664703369140625,0
1.9297585487365723,0.3960188329219818,0.4842466711997986,-0.8335021734237671,0.8004081832008048,-0.6984267867218498,-0.018858032897480417,-0.021533680429342672,0.42849925753295265,0.1492817507170702,0.5811324796488719,-0.9905662398244359,1.1434385870379666,0.00016164779663085938,0.0003478527069091797,0
1.9399375915527344,0.39523258805274963,0.48637664318084717,-0.8351091146469116,0.8037540304831134,-0.6985011552960575,-0.01914436555676077,-0.02152662203322438,0.42893010928772796,0.14642092634713358,0.5818598734469042,-0.9909299367234521,1.1477023745222108,0.00015687942504882812,0.0003275871276855469,0
1.949845552444458,0.3935503363609314,0.4905579686164856,-0.838248610496521,0.8104229630065657,-0.698571176854512,-0.02071874843974776,-0.021896212695026222,0.4282871946772518,0.1436328854290916,0.5825543701864345,-0.9912771850932172,1.1518526114754766,0.0001621246337890625,0.0003371238708496094,0
