time,x,y,z,yaw,throttle,roll_rate,pitch_rate,yaw_rate,x_ref,y_ref,z_ref,yaw_ref,pred_time,nr_time,ctrl_callback_time,metadata
1.1920928955078125e-06,-0.31206944584846497,-0.1792934387922287,0.5167354941368103,0.17425605731212243,0.7361428215400174,0.8,-0.8,-0.15842119661471538,0.0,0.0,-0.6,0.0,0.0027391910552978516,0.0027391910552978516,0.004035234451293945,Sim
0.010290145874023438,-0.31156012415885925,-0.17919372022151947,0.515571653842926,0.17427197634657768,0.7649490774533663,0.8,-0.8,-0.08321160235407053,0.0,0.0,-0.6,0.0,0.0035703182220458984,0.0035703182220458984,0.004930019378662109,flat wardi normal
0.020462751388549805,-0.3110942244529724,-0.17911674082279205,0.514451265335083,0.1742925132082527,0.7846566519734298,0.5847544188762228,-0.8,-0.04703757210050919,0.0,0.0,-0.6,0.0,0.0024423599243164062,0.0024423599243164062,0.003830432891845703,1x Speed
0.029918432235717773,-0.3106692433357239,-0.17906004190444946,0.5133723020553589,0.17429815766266263,0.7982380614896987,0.3622899617883944,-0.8,-0.027807238255822393,0.0,0.0,-0.6,0.0,0.0018610954284667969,0.0018610954284667969,0.002718210220336914,circle_horz_ref_func
0.04005694389343262,-0.31029027700424194,-0.17902185022830963,0.512333333492279,0.174304076534107,0.8076465346826739,0.2268225886530363,-0.7493026126242136,-0.017037259812855386,0.0,0.0,-0.6,0.0,0.0019207000732421875,0.0019207000732421875,0.0028591156005859375,0
0.05007219314575195,-0.3096525967121124,-0.17901092767715454,0.5103722214698792,0.17435725349781417,0.8141455541340894,0.14441956414769583,-0.5875499655884562,-0.010784893271347077,0.0,0.0,-0.6,0.0,0.0020639896392822266,0.0020639896392822266,0.0030431747436523438,0
0.05997157096862793,-0.3093907833099365,-0.17903633415699005,0.5094471573829651,0.17438674358030878,0.8186599110687666,0.08911027696346252,-0.46473571889567133,-0.0068187271442627624,0.0,0.0,-0.6,0.0,0.001749277114868164,0.001749277114868164,0.0024819374084472656,0
0.06997156143188477,-0.30916401743888855,-0.17907942831516266,0.5085566639900208,0.17443217585644835,0.8217962453863877,0.05276313516904106,-0.36948880745183604,-0.004292379032664988,0.0,0.0,-0.6,0.0,0.0023217201232910156,0.0023217201232910156,0.003519773483276367,0
0.0800924301147461,-0.3088149130344391,-0.1792209893465042,0.5069745779037476,0.1744927979972137,0.8239472630595638,0.03380826203330549,-0.29406807682021974,-0.0029078505435342523,0.0,0.0,-0.6,0.0,0.0024149417877197266,0.0024149417877197266,0.003457307815551758,0
0.09036540985107422,-0.30869123339653015,-0.17931976914405823,0.5062780976295471,0.17452805937695273,0.8254362532431326,0.019853066227510752,-0.23668780236529788,-0.001914771015508849,0.0,0.0,-0.6,0.0,0.0021893978118896484,0.0021893978118896484,0.0032067298889160156,0
0.10008716583251953,-0.3086016774177551,-0.1794360727071762,0.5056105852127075,0.17455543964904205,0.8264636284667014,0.011342277905158767,-0.19004307185855707,-0.0012825298907699408,0.0,0.0,-0.6,0.0,0.002957582473754883,0.002957582473754883,0.004110574722290039,0
0.11006975173950195,-0.3085442781448364,-0.1795678734779358,0.5049718618392944,0.1745743426674605,0.8271700058190747,0.00673715624305149,-0.15276916881380048,-0.000900909867498758,0.0,0.0,-0.6,0.0,0.00222015380859375,0.00222015380859375,0.003371000289916992,0
0.12010312080383301,-0.30851805210113525,-0.17971689999103546,0.5043609738349915,0.17459134446560615,0.8276469091771889,0.0040632080595217135,-0.12323441302077415,-0.0006499988307469591,0.0,0.0,-0.6,0.0,0.0025091171264648438,0.0025091171264648438,0.003629922866821289,0
0.12999963760375977,-0.3085245192050934,-0.17988203465938568,0.503777265548706,0.17462606430024522,0.827965367476735,0.0017744760445319216,-0.10034232750775399,-0.00044951461565801305,0.0,0.0,-0.6,0.0,0.0023674964904785156,0.0023674964904785156,0.003357410430908203,0
0.140427827835083,-0.3086327910423279,-0.1802540272474289,0.5026904344558716,0.1746684067094069,0.8281572412873646,0.002584996821394555,-0.08253725600921474,-0.0004254239137235837,0.0,0.0,-0.6,0.0,0.0021486282348632812,0.0021486282348632812,0.0033817291259765625,0
0.14992880821228027,-0.3087339997291565,-0.18046337366104126,0.502185583114624,0.17468312990703458,0.8282772417884976,0.0050414074952638286,-0.06889562867490445,-0.0004992582692361367,0.0,0.0,-0.6,0.0,0.0028967857360839844,0.0028967857360839844,0.0039708614349365234,0
0.16001009941101074,-0.3090251684188843,-0.1809348165988922,0.5014422535896301,0.17472161759579052,0.8283345321791019,0.008053509285235022,-0.05853948601265404,-0.0006132535817610796,0.0,0.0,-0.6,0.0,0.0022094249725341797,0.0022094249725341797,0.0032529830932617188,0
0.16996169090270996,-0.3092145025730133,-0.18119366466999054,0.5011018514633179,0.17472593091096053,0.8283658559696943,0.007843889177616784,-0.049495976894699,-0.000567757765002284,0.0,0.0,-0.6,0.0,0.002273082733154297,0.002273082733154297,0.00350189208984375,0
0.17985272407531738,-0.30944037437438965,-0.18146318197250366,0.5007804036140442,0.1747507643564695,0.8283731372607672,0.006769747663947072,-0.04273000150691018,-0.00048705818837268644,0.0,0.0,-0.6,0.0,0.0024116039276123047,0.0024116039276123047,0.003363370895385742,0
0.19054388999938965,-0.3096950650215149,-0.1817466765642166,0.500476598739624,0.17477168349929723,0.828363816909012,0.006772517908386359,-0.03650003787400152,-0.0004636976020244491,0.0,0.0,-0.6,0.0,0.002441883087158203,0.002441883087158203,0.0034677982330322266,0
0.19984126091003418,-0.3102833032608032,-0.1823616921901703,0.4999244213104248,0.17481093817888793,0.8283398030356914,0.01236758457452684,-0.03464276177348001,-0.0007405821808011305,0.0,0.0,-0.6,0.0,0.0027573108673095703,0.0027573108673095703,0.0037174224853515625,0
0.20997381210327148,-0.3106156289577484,-0.1826915293931961,0.4996761381626129,0.17482019461749998,0.8283165215428924,0.011595293229174911,-0.02995780214600092,-0.0006828023632903734,0.0,0.0,-0.6,0.0,0.0025489330291748047,0.0025489330291748047,0.0036003589630126953,0
0.22034859657287598,-0.3109728693962097,-0.18303608894348145,0.499446302652359,0.17482810001883903,0.8282969678883287,0.011678863867009871,-0.026514152578885158,-0.0006737490067999895,0.0,0.0,-0.6,0.0,0.0023818016052246094,0.0023818016052246094,0.003772735595703125,0
0.2300713062286377,-0.3113548457622528,-0.1833955943584442,0.49932849407196045,0.1748360150410437,0.8282784010640392,0.01209967824418562,-0.02462955431712121,-0.0006872916851948178,0.0,0.0,-0.6,0.0,0.002764463424682617,0.002764463424682617,0.004071950912475586,0
0.24008727073669434,-0.31219351291656494,-0.18415884673595428,0.49913251399993896,0.17486284025041574,0.82825873334248,0.01583785680628533,-0.02673850419677442,-0.0008809818041314106,0.0,0.0,-0.6,0.0,0.002286672592163086,0.002286672592163086,0.003362417221069336,0
0.25016045570373535,-0.3126514256000519,-0.18455787003040314,0.49905556440353394,0.17486986518321754,0.8282465481909568,0.013565954977685363,-0.02547258015507592,-0.0007571910145085565,0.0,0.0,-0.6,0.0,0.002561330795288086,0.002561330795288086,0.0038216114044189453,0
0.2597322463989258,-0.3131329119205475,-0.18496952950954437,0.49899235367774963,0.174877388418558,0.8282391731852351,0.01313772596922916,-0.023406527379563006,-0.0007267492734844483,0.0,0.0,-0.6,0.0,0.0015513896942138672,0.0015513896942138672,0.0020678043365478516,0
0.26995277404785156,-0.31363698840141296,-0.18539443612098694,0.49894216656684875,0.17490396195156285,0.8282330253328591,0.012620257758820396,-0.02318022742987175,-0.0006960188390622533,0.0,0.0,-0.6,0.0,0.0025441646575927734,0.0025441646575927734,0.003606081008911133,0
0.28016185760498047,-0.31471553444862366,-0.18628203868865967,0.4988812506198883,0.1748990749975162,0.8282377469678374,0.016112967622583567,-0.02728833778120229,-0.0008784430052022805,0.0,0.0,-0.6,0.0,0.002946615219116211,0.002946615219116211,0.004441499710083008,0
0.2899305820465088,-0.31528908014297485,-0.18674445152282715,0.498869925737381,0.17492452564378108,0.828243681310777,0.015093648241737208,-0.027119935710668435,-0.000821308643201117,0.0,0.0,-0.6,0.0,0.001955270767211914,0.001955270767211914,0.003006458282470703,0
0.2999300956726074,-0.3158850371837616,-0.18721872568130493,0.4989679455757141,0.17496354762435595,0.8282531144924092,0.013655924088261785,-0.025312063547557953,-0.0007408442099387002,0.0,0.0,-0.6,0.0,0.0018880367279052734,0.0018880367279052734,0.002726316452026367,0
0.3099231719970703,-0.3165012001991272,-0.18770496547222137,0.4990747570991516,0.17499648596661918,0.8282676013327467,0.013898013765863474,-0.025175055444549708,-0.0007503372955189912,0.0,0.0,-0.6,0.0,0.0018219947814941406,0.0018219947814941406,0.002795696258544922,0
0.32000255584716797,-0.3178039789199829,-0.18871194124221802,0.4993142783641815,0.17504562721357977,0.8282921798781675,0.017333529957770842,-0.02925654951016498,-0.0009276518847990953,0.0,0.0,-0.6,0.0,0.0023996829986572266,0.0023996829986572266,0.0035288333892822266,0
0.32993197441101074,-0.31848451495170593,-0.18923145532608032,0.49944666028022766,0.1750493266444929,0.8283180511966417,0.015308237057093811,-0.028190077399282885,-0.0008172337998050393,0.0,0.0,-0.6,0.0,0.0020530223846435547,0.0020530223846435547,0.003180265426635742,0
0.33988046646118164,-0.31918662786483765,-0.18975700438022614,0.4995870292186737,0.17503834390829676,0.828343559538107,0.015088350611788589,-0.02783954296476484,-0.0008002356385794503,0.0,0.0,-0.6,0.0,0.001714944839477539,0.001714944839477539,0.0023577213287353516,0
0.35013747215270996,-0.31990841031074524,-0.1902948021888733,0.4997362792491913,0.1750592171909346,0.8283787944709632,0.014854108070393187,-0.02750436484096525,-0.0007831723911586411,0.0,0.0,-0.6,0.0,0.0024166107177734375,0.0024166107177734375,0.0034265518188476562,0
0.3602745532989502,-0.32064875960350037,-0.19084344804286957,0.4998953640460968,0.1750716542319002,0.8284181096058708,0.014426303357161599,-0.02677563337724137,-0.0007566931768640558,0.0,0.0,-0.6,0.0,0.0023832321166992188,0.0023832321166992188,0.003668069839477539,0
0.3699982166290283,-0.3188856542110443,-0.19027772545814514,0.4972701370716095,0.1751440233489007,0.8283332757165587,0.005922391802070261,-0.011368487283664117,-0.0003100795136135962,0.0,0.0,-0.6,0.0,0.0013427734375,0.0013427734375,0.001967191696166992,0
0.37992191314697266,-0.31808337569236755,-0.19003595411777496,0.4960233271121979,0.17517816516985132,0.8282209622164755,0.0033240202853418404,-0.005139213845434556,-0.0001731721504635622,0.0,0.0,-0.6,0.0,0.0030722618103027344,0.0030722618103027344,0.004062175750732422,0
0.3899266719818115,-0.3173360824584961,-0.18981915712356567,0.49481916427612305,0.17521882637175126,0.8280962156980725,0.00177932354989233,-0.00017826345052248985,-9.130775019600518e-05,0.0,0.0,-0.6,0.0,0.001706838607788086,0.001706838607788086,0.0025284290313720703,0
0.3997230529785156,-0.31598761677742004,-0.1894657015800476,0.4925435185432434,0.1752842329881837,0.8279272478052445,0.00025336098415808803,0.00792568332943203,-8.540228160918352e-06,0.0,0.0,-0.6,0.0,0.0020177364349365234,0.0020177364349365234,0.0027437210083007812,0
0.41022300720214844,-0.3153853416442871,-0.18932579457759857,0.49146634340286255,0.17530200018038292,0.8277646039191269,-0.00038406952573066794,0.008995499318349955,2.487926987379652e-05,0.0,0.0,-0.6,0.0,0.003022909164428711,0.003022909164428711,0.004334211349487305,0
0.419952392578125,-0.3148306906223297,-0.18921050429344177,0.490546315908432,0.17530691731412015,0.8276107595743161,-0.0003612242944099516,0.010063136073676971,2.447425848902729e-05,0.0,0.0,-0.6,0.0,0.001863241195678711,0.001863241195678711,0.0026044845581054688,0
0.430117130279541,-0.31432029604911804,-0.18911859393119812,0.48965948820114136,0.17532753795423028,0.8274608467894957,7.477185934005234e-05,0.0117262757677159,3.2047572180260173e-06,0.0,0.0,-0.6,0.0,0.0023870468139648438,0.0023870468139648438,0.0035719871520996094,0
0.4404149055480957,-0.313427597284317,-0.1890067607164383,0.48797914385795593,0.17539370591111986,0.827273859113741,0.0018135769347288827,0.013108040385244343,-8.539307587811136e-05,0.0,0.0,-0.6,0.0,0.0019621849060058594,0.0019621849060058594,0.0033283233642578125,0
0.44999217987060547,-0.31304508447647095,-0.18898433446884155,0.4871847927570343,0.17541315194123844,0.8271071072016632,0.0017701158385661129,0.01242998609510916,-8.405322582425317e-05,0.0,0.0,-0.6,0.0,0.0012860298156738281,0.0012860298156738281,0.002008199691772461,0
0.45986318588256836,-0.31270453333854675,-0.18898124992847443,0.4864204227924347,0.1754248643120517,0.8269560607857617,0.002847019113715863,0.012355233482430372,-0.00013979407096697982,0.0,0.0,-0.6,0.0,0.002492189407348633,0.002492189407348633,0.0035181045532226562,0
0.4698159694671631,-0.31240227818489075,-0.18900062143802643,0.48568490147590637,0.17543925461594576,0.8268178114857287,0.003939603046164754,0.01117255416749637,-0.0001967482989017897,0.0,0.0,-0.6,0.0,0.0013337135314941406,0.0013337135314941406,0.0018954277038574219,0
0.48010993003845215,-0.3119133710861206,-0.18910372257232666,0.4842996299266815,0.17547883735058106,0.8266637354965825,0.005547784305129617,0.011070897293824886,-0.00027983357821408116,0.0,0.0,-0.6,0.0,0.001667022705078125,0.001667022705078125,0.0024302005767822266,0
0.4902067184448242,-0.3117237091064453,-0.18918490409851074,0.4837315082550049,0.17551114564069886,0.8265277575825273,0.004701776360895037,0.009933994258337756,-0.0002376053596305537,0.0,0.0,-0.6,0.0,0.002491474151611328,0.002491474151611328,0.003626108169555664,0
0.49983716011047363,-0.31156957149505615,-0.18928419053554535,0.48318687081336975,0.17552788719406762,0.8264081085405625,0.003986204003147394,0.00890228835784174,-0.00020152840934796503,0.0,0.0,-0.6,0.0,0.001836538314819336,0.001836538314819336,0.002805948257446289,0
0.5100693702697754,-0.3114492893218994,-0.18940241634845734,0.4826655387878418,0.17553875296793026,0.8263016478921498,0.0053368049165492745,0.008037042007715038,-0.00027152995864186035,0.0,0.0,-0.6,0.0,0.0017635822296142578,0.0017635822296142578,0.0026159286499023438,0
0.5201199054718018,-0.3113097548484802,-0.18969766795635223,0.4816947877407074,0.17560266693232526,0.8262023561015782,0.008647500885988924,0.0053054314232556694,-0.00044201358711823727,0.0,0.0,-0.6,0.0,0.0027315616607666016,0.0027315616607666016,0.003865480422973633,0
0.5297927856445312,-0.3112933039665222,-0.18987125158309937,0.4812450110912323,0.1756271231052636,0.8261176032466858,0.007629353290229343,0.005317839812758249,-0.00039024753613563744,0.0,0.0,-0.6,0.0,0.0014553070068359375,0.0014553070068359375,0.002059459686279297,0
0.539994478225708,-0.3113076388835907,-0.19005818665027618,0.48081859946250916,0.17565313714921113,0.8260464975917182,0.006820325624300363,0.004907137724044918,-0.00034922714304293554,0.0,0.0,-0.6,0.0,0.0025129318237304688,0.0025129318237304688,0.003751993179321289,0
0.5498836040496826,-0.3113528788089752,-0.1902623027563095,0.4804140329360962,0.17568522683743742,0.8259825252929063,0.00728721103846851,0.002756771543231712,-0.0003735273212381377,0.0,0.0,-0.6,0.0,0.00147247314453125,0.00147247314453125,0.002163410186767578,0
0.5600619316101074,-0.3114299774169922,-0.1904844045639038,0.48002925515174866,0.1757066580342582,0.8259178593593779,0.007990791782974321,0.0008016029164120632,-0.0004095565094266025,0.0,0.0,-0.6,0.0,0.0022439956665039062,0.0022439956665039062,0.003267526626586914,0
0.5699284076690674,-0.31167736649513245,-0.19098326563835144,0.47948962450027466,0.1757420127693172,0.825842291846626,0.012268681531498925,-0.003104141878546167,-0.0006274337274148593,0.0,0.0,-0.6,0.0,0.002358675003051758,0.002358675003051758,0.003465890884399414,0
0.5799319744110107,-0.31184613704681396,-0.19125959277153015,0.4792426824569702,0.17575331602065095,0.8257771775020207,0.011929914166787424,-0.004919094870203566,-0.0006086698609871748,0.0,0.0,-0.6,0.0,0.001708984375,0.001708984375,0.0023827552795410156,0
0.5903341770172119,-0.31204530596733093,-0.19155211746692657,0.47901085019111633,0.1757654063055836,0.8257192657535828,0.010635397669127513,-0.005943259225256757,-0.000541125783047832,0.0,0.0,-0.6,0.0,0.0023736953735351562,0.0023736953735351562,0.0034453868865966797,0
0.6001644134521484,-0.3125288188457489,-0.1921854019165039,0.4785906970500946,0.17579172977914825,0.8256583217762843,0.015511797977955155,-0.0081551168143228,-0.0007883030429108156,0.0,0.0,-0.6,0.0,0.002110004425048828,0.002110004425048828,0.003345489501953125,0
0.6099462509155273,-0.3128127455711365,-0.19252438843250275,0.47840118408203125,0.17579675749885423,0.8256046816143248,0.013612100991556964,-0.008723341493219025,-0.000689262206701608,0.0,0.0,-0.6,0.0,0.0014028549194335938,0.0014028549194335938,0.0020351409912109375,0
0.6202139854431152,-0.3131231963634491,-0.1928790956735611,0.4782255291938782,0.1758241361146764,0.8255614366150431,0.013470969770794598,-0.009304870326677928,-0.0006802471068491884,0.0,0.0,-0.6,0.0,0.002375364303588867,0.002375364303588867,0.003720521926879883,0
0.6299266815185547,-0.3134583830833435,-0.1932506412267685,0.4780641496181488,0.17581971823950748,0.8255266858385195,0.014220373804268792,-0.009272336059355877,-0.0007173378379159417,0.0,0.0,-0.6,0.0,0.0015919208526611328,0.0015919208526611328,0.002356290817260742,0
0.6399285793304443,-0.31420427560806274,-0.19404423236846924,0.47792935371398926,0.1758456271226011,0.8255068320010484,0.0195243516274618,-0.013490874300508677,-0.000981715249027505,0.0,0.0,-0.6,0.0,0.0014452934265136719,0.0014452934265136719,0.002207040786743164,0
0.6505453586578369,-0.31461301445961,-0.19446508586406708,0.47788122296333313,0.1758590287939525,0.8254946806569922,0.01762408778463611,-0.01288576291580668,-0.0008824465687281158,0.0,0.0,-0.6,0.0,0.0025551319122314453,0.0025551319122314453,0.003942966461181641,0
0.6598107814788818,-0.3150452673435211,-0.19490133225917816,0.47784358263015747,0.17588058520726893,0.8254841997191639,0.0171546823389786,-0.013695575502298418,-0.0008543343492622198,0.0,0.0,-0.6,0.0,0.001596212387084961,0.001596212387084961,0.0022215843200683594,0
0.6701254844665527,-0.3155013620853424,-0.19535300135612488,0.47781598567962646,0.17589191573513266,0.8254751257565884,0.016502807135269432,-0.014582403028271778,-0.0008170289002243378,0.0,0.0,-0.6,0.0,0.0019345283508300781,0.0019345283508300781,0.0029783248901367188,0
0.6799736022949219,-0.3164888918399811,-0.1962936371564865,0.4777870774269104,0.17591912651166014,0.825464477737963,0.0197478136022513,-0.018680119931044813,-0.0009713152558547308,0.0,0.0,-0.6,0.0,0.002227783203125,0.002227783203125,0.0032689571380615234,0
0.6906118392944336,-0.31701570749282837,-0.19678540527820587,0.47778746485710144,0.1759328048800052,0.8254630600194519,0.019266075392502954,-0.019064767711072537,-0.0009418680879921807,0.0,0.0,-0.6,0.0,0.002378225326538086,0.002378225326538086,0.003377199172973633,0
0.6999280452728271,-0.3175655007362366,-0.19729185104370117,0.4777980148792267,0.17595273152612367,0.8254654869990299,0.017804522956838653,-0.019693095140883115,-0.0008620583369183121,0.0,0.0,-0.6,0.0,0.002817392349243164,0.002817392349243164,0.003993034362792969,0
0.70998215675354,-0.3181372880935669,-0.19781160354614258,0.4779120683670044,0.17596964923515865,0.825470684128695,0.016491100780962987,-0.019280794674875985,-0.00079277744091597,0.0,0.0,-0.6,0.0,0.0019674301147460938,0.0019674301147460938,0.002870321273803711,0
0.7199485301971436,-0.3193420171737671,-0.19889137148857117,0.478158175945282,0.17595790086770133,0.825487934600957,0.022465751018355285,-0.02410677140106806,-0.0010798922518519371,0.0,0.0,-0.6,0.0,0.002549886703491211,0.002549886703491211,0.0036809444427490234,0
0.7301425933837891,-0.31997472047805786,-0.19945275783538818,0.4782915711402893,0.17597166016992918,0.8255116992150133,0.02051352133850974,-0.023429240037994205,-0.0009774311174897252,0.0,0.0,-0.6,0.0,0.002453327178955078,0.002453327178955078,0.003703594207763672,0
0.7399778366088867,-0.32062801718711853,-0.2000207155942917,0.47843244671821594,0.17597973955046675,0.8255420424866963,0.018598832122992136,-0.0237824570392385,-0.0008738366555540393,0.0,0.0,-0.6,0.0,0.0018396377563476562,0.0018396377563476562,0.0026671886444091797,0
0.7502584457397461,-0.32130929827690125,-0.20060069859027863,0.4785807430744171,0.17600301725508738,0.825574543283997,0.017449045815671787,-0.023903406386231688,-0.000810364300216397,0.0,0.0,-0.6,0.0,0.0025649070739746094,0.0025649070739746094,0.0035614967346191406,0
0.7602226734161377,-0.32104647159576416,-0.20065215229988098,0.47735273838043213,0.17603728909495067,0.8255460976010547,0.014478321835049386,-0.019312493835719705,-0.0006705044539518294,0.0,0.0,-0.6,0.0,0.00238037109375,0.00238037109375,0.0036466121673583984,0
0.7697970867156982,-0.32013997435569763,-0.20014876127243042,0.47601595520973206,0.17605517275529714,0.8254698592074305,0.007457866968559884,-0.011069723351905566,-0.00034057046823252567,0.0,0.0,-0.6,0.0,0.0012996196746826172,0.0012996196746826172,0.0018787384033203125,0
0.7799859046936035,-0.3192884027957916,-0.19968056678771973,0.47481241822242737,0.17607209817789707,0.8253645059363203,0.0016617442945490706,-0.003504365367673652,-7.203649134830419e-05,0.0,0.0,-0.6,0.0,0.0022780895233154297,0.0022780895233154297,0.0031969547271728516,0
0.789994478225708,-0.3184884488582611,-0.19924689829349518,0.47364863753318787,0.17611110406113223,0.8252391463845226,-0.0003492127253518853,0.002176645903951616,9.869042636015578e-06,0.0,0.0,-0.6,0.0,0.0015823841094970703,0.0015823841094970703,0.0022974014282226562,0
0.799983024597168,-0.31774020195007324,-0.1988474428653717,0.47252345085144043,0.1761538548364851,0.8251056755942415,-0.0028830050977606022,0.005675573594987041,0.00012674357371751367,0.0,0.0,-0.6,0.0,0.0016787052154541016,0.0016787052154541016,0.002376079559326172,0
0.8101291656494141,-0.31639364361763,-0.19814476370811462,0.47038963437080383,0.1761952537683901,0.8249312922379625,-0.006636451046406149,0.012487838385529028,0.00029485896616098206,0.0,0.0,-0.6,0.0,0.0026557445526123047,0.0026557445526123047,0.0037174224853515625,0
0.8204460144042969,-0.31579461693763733,-0.19783739745616913,0.46937838196754456,0.17619341741854963,0.8247690658013229,-0.006194659661762103,0.014888965604884095,0.0002647076934547838,0.0,0.0,-0.6,0.0,0.0023186206817626953,0.0023186206817626953,0.0035309791564941406,0
0.8300116062164307,-0.3152385950088501,-0.19755986332893372,0.4684026539325714,0.17620486081888612,0.8246141687062822,-0.005433509730759187,0.01648237290679554,0.00022157314319788205,0.0,0.0,-0.6,0.0,0.0018324851989746094,0.0018324851989746094,0.00264739990234375,0
0.8401572704315186,-0.3147256374359131,-0.19731242954730988,0.4674617052078247,0.17620794363914288,0.8244720776216159,-0.004054594337924997,0.016474282572189775,0.00015208890407273983,0.0,0.0,-0.6,0.0,0.0018298625946044922,0.0018298625946044922,0.0027909278869628906,0
0.8501617908477783,-0.31382662057876587,-0.19690415263175964,0.4657907783985138,0.1762462814454986,0.8243140458787539,-0.004573800992374905,0.018597721628402133,0.00017286520696306026,0.0,0.0,-0.6,0.0,0.0014481544494628906,0.0014481544494628906,0.002282381057739258,0
0.8604533672332764,-0.31344136595726013,-0.19674202799797058,0.46505558490753174,0.17627685566666287,0.824181929875869,-0.003273038417952855,0.016590069548242416,0.00011353128198055386,0.0,0.0,-0.6,0.0,0.002179384231567383,0.002179384231567383,0.0034067630767822266,0
0.8699946403503418,-0.3130975663661957,-0.19660672545433044,0.46435073018074036,0.17627475825632283,0.8240662151893764,-0.0030336363486317664,0.015147273400843236,0.00010631071367549699,0.0,0.0,-0.6,0.0,0.0017015933990478516,0.0017015933990478516,0.002555370330810547,0
0.8799338340759277,-0.3125288188457489,-0.19641125202178955,0.4630240797996521,0.17631846696336473,0.8239326971100889,-0.0031101086533876143,0.014555952441820069,0.00011218698871129175,0.0,0.0,-0.6,0.0,0.0024030208587646484,0.0024030208587646484,0.0032134056091308594,0
0.8905246257781982,-0.31230705976486206,-0.19634869694709778,0.4623987674713135,0.176337296859001,0.8238123673853838,-0.002171162923170281,0.0131202842258028,6.905886274285681e-05,0.0,0.0,-0.6,0.0,0.0028564929962158203,0.0028564929962158203,0.003955841064453125,0
0.9001107215881348,-0.31212061643600464,-0.1963096410036087,0.4617978036403656,0.1763513836310531,0.8237010088746426,-0.0017734203650728467,0.01192078654632416,5.2997284834526436e-05,0.0,0.0,-0.6,0.0,0.0018627643585205078,0.0018627643585205078,0.0027832984924316406,0
0.9099900722503662,-0.3119697570800781,-0.19629403948783875,0.4612213671207428,0.1763891883279916,0.8236069677600341,-8.387589961462455e-05,0.009878625270833405,-2.669582438101089e-05,0.0,0.0,-0.6,0.0,0.002077817916870117,0.002077817916870117,0.003053426742553711,0
0.9198474884033203,-0.31185489892959595,-0.1963033229112625,0.4606698751449585,0.17640768198611556,0.8235212108445049,0.001749576606022639,0.007407157665375097,-0.00011240230727124249,0.0,0.0,-0.6,0.0,0.0025048255920410156,0.0025048255920410156,0.0036001205444335938,0
0.9299581050872803,-0.3117748200893402,-0.19633635878562927,0.4602251350879669,0.17641707074451085,0.82345012768778,0.0019379029376346657,0.006404032989935263,-0.00011898406202864342,0.0,0.0,-0.6,0.0,0.0015869140625,0.0015869140625,0.002641439437866211,0
0.939969539642334,-0.3117157220840454,-0.19646389782428741,0.4593985676765442,0.17646106314322138,0.8233694380751627,0.0011690615808809751,0.004798075719403599,-7.471837697597943e-05,0.0,0.0,-0.6,0.0,0.0023844242095947266,0.0023844242095947266,0.0034856796264648438,0
0.9500491619110107,-0.311735600233078,-0.19655665755271912,0.4590143859386444,0.17646434245015735,0.8232977190754985,0.000999003944567818,0.0034849037918179048,-6.194846368857225e-05,0.0,0.0,-0.6,0.0,0.0024275779724121094,0.0024275779724121094,0.0035295486450195312,0
0.9598510265350342,-0.31187477707862854,-0.19680115580558777,0.4583030343055725,0.17645541193041417,0.8232296610685846,0.0026809559657281624,0.0012525502508488838,-0.00014041805712734404,0.0,0.0,-0.6,0.0,0.0016849040985107422,0.0016849040985107422,0.002394437789916992,0
0.9703645706176758,-0.31199154257774353,-0.19695232808589935,0.4579754173755646,0.17645688587103045,0.8231689680357829,0.0024498352696477087,0.000945124002563581,-0.0001276722707055358,0.0,0.0,-0.6,0.0,0.002679586410522461,0.002679586410522461,0.003917694091796875,0
0.9798872470855713,-0.31213730573654175,-0.19712291657924652,0.45766469836235046,0.17649540803903996,0.82311241938163,0.003637525074756039,-0.0006158681011058456,-0.00018282775167001593,0.0,0.0,-0.6,0.0,0.0016984939575195312,0.0016984939575195312,0.0023355484008789062,0
0.9905061721801758,-0.31231269240379333,-0.19731329381465912,0.4573703706264496,0.1765230448573576,0.8230635311028097,0.0037305858893989705,-0.0021654891709513365,-0.00018235035741907962,0.0,0.0,-0.6,0.0,0.002661466598510742,0.002661466598510742,0.0037343502044677734,0
0.9997584819793701,-0.3127508759498596,-0.19775046408176422,0.45703691244125366,0.17655154981406873,0.8230221936270178,0.005515309445513374,-0.004956385114463032,-0.00026330577839826677,0.0,0.0,-0.6,0.0,0.0021889209747314453,0.0021889209747314453,0.002874135971069336,0
1.0098555088043213,-0.3130103349685669,-0.19799715280532837,0.4568902850151062,0.17656292244705318,0.8229913517760117,0.0063620228261233695,-0.005513254262687317,-0.0003038201372756501,0.0,0.0,-0.6,0.0,0.0012860298156738281,0.0012860298156738281,0.0018329620361328125,0
1.0201094150543213,-0.3132959008216858,-0.19826175272464752,0.45675602555274963,0.1765554005672431,0.8229580828635299,0.005677236361795823,-0.005422048399072538,-0.00026913822427820146,0.0,0.0,-0.6,0.0,0.002787351608276367,0.002787351608276367,0.004010915756225586,0
1.029984951019287,-0.3136066198348999,-0.1985435038805008,0.45663148164749146,0.17654483559925768,0.8229245389429871,0.006173106792100597,-0.006997495817166163,-0.00028842530258473275,0.0,0.0,-0.6,0.0,0.0016360282897949219,0.0016360282897949219,0.002608060836791992,0
1.0399284362792969,-0.3143167495727539,-0.19915786385536194,0.45641693472862244,0.17657221627277986,0.8229016702015167,0.010477896869773478,-0.011074692745352055,-0.0004907378410425421,0.0,0.0,-0.6,0.0,0.0022497177124023438,0.0022497177124023438,0.0030794143676757812,0
1.0503480434417725,-0.31470850110054016,-0.1994926780462265,0.4563274383544922,0.1765745664703711,0.8228828053120567,0.010364502088304084,-0.011253872373394997,-0.0004828413203611735,0.0,0.0,-0.6,0.0,0.0027306079864501953,0.0027306079864501953,0.003793001174926758,0
1.0599510669708252,-0.3151234984397888,-0.19984474778175354,0.4562494456768036,0.17659925025845705,0.822871466583098,0.010273826581008212,-0.011097534822071955,-0.0004777451877971927,0.0,0.0,-0.6,0.0,0.0020492076873779297,0.0020492076873779297,0.0028946399688720703,0
1.0702269077301025,-0.3155630826950073,-0.2002144455909729,0.45628875494003296,0.17661117160444453,0.8228639678346564,0.01087166637463431,-0.013236373447446523,-0.0004982838910662804,0.0,0.0,-0.6,0.0,0.002144336700439453,0.002144336700439453,0.0030975341796875,0
1.0799264907836914,-0.3165149688720703,-0.2010079324245453,0.4563903510570526,0.17665341057015668,0.822874032636909,0.015756290535778865,-0.017522377102060647,-0.0007254077873817512,0.0,0.0,-0.6,0.0,0.002042531967163086,0.002042531967163086,0.0029191970825195312,0
1.0910534858703613,-0.3170248866081238,-0.20143000781536102,0.4564553499221802,0.1766351533729995,0.8228969521464304,0.013914427676642116,-0.01662352611008713,-0.0006331755331117296,0.0,0.0,-0.6,0.0,0.0025327205657958984,0.0025327205657958984,0.0033540725708007812,0
1.0998075008392334,-0.317555695772171,-0.20186778903007507,0.45653051137924194,0.17661348226047122,0.8229251846843021,0.013526725682446243,-0.01615695966001998,-0.0006132270352309704,0.0,0.0,-0.6,0.0,0.0024902820587158203,0.0024902820587158203,0.0033659934997558594,0
1.109879732131958,-0.3181089758872986,-0.2023208886384964,0.4566136300563812,0.17662057849640597,0.822950939842282,0.013658613242219028,-0.01625298667753491,-0.0006168437044529394,0.0,0.0,-0.6,0.0,0.0016503334045410156,0.0016503334045410156,0.002579927444458008,0
1.119746208190918,-0.31927329301834106,-0.20327454805374146,0.45680004358291626,0.17664029581913773,0.8229814291981103,0.01781438733587802,-0.019502236870677144,-0.0008081470719543858,0.0,0.0,-0.6,0.0,0.0018630027770996094,0.0018630027770996094,0.0024569034576416016,0
1.1304686069488525,-0.31988564133644104,-0.20377381145954132,0.4569038152694702,0.1766591253680769,0.8230129617562296,0.015758392313521063,-0.02015226038326988,-0.0006973060551631541,0.0,0.0,-0.6,0.0,0.0028302669525146484,0.0028302669525146484,0.004021167755126953,0
1.139807939529419,-0.32052239775657654,-0.20428358018398285,0.45711156725883484,0.1766712150340009,0.8230495715475014,0.01502371196190622,-0.020841374886937172,-0.0006530422737329271,0.0,0.0,-0.6,0.0,0.0017387866973876953,0.0017387866973876953,0.0023889541625976562,0
1.1501052379608154,-0.3211788833141327,-0.20480933785438538,0.4573242664337158,0.1766832744820614,0.8230907039467396,0.0159854665662487,-0.02069524186920328,-0.0006985697243648776,0.0,0.0,-0.6,0.0,0.003052234649658203,0.003052234649658203,0.004025697708129883,0
1.1601271629333496,-0.32090678811073303,-0.204698845744133,0.4562126696109772,0.1766855137079272,0.8227430901196943,0.010037623723119305,-0.02574750620519091,-0.00036700546613578335,0.0,0.0,-0.6,0.0,0.0021657943725585938,0.0021657943725585938,0.0032396316528320312,0
1.1698544025421143,-0.32002055644989014,-0.20407956838607788,0.45482221245765686,0.17668697779807346,0.8220127510644798,0.0012991243794766396,-0.02731533130413146,8.219927889830358e-05,0.0,0.0,-0.6,0.0,0.0012516975402832031,0.0012516975402832031,0.0017917156219482422,0
1.1798791885375977,-0.3191986083984375,-0.2034885436296463,0.4533238410949707,0.17667905898889133,0.8209209590617274,-0.0038017581742954385,-0.03099931009779769,0.000355139846589954,0.0,0.0,-0.6,0.0,0.002475261688232422,0.002475261688232422,0.0034971237182617188,0
1.1898784637451172,-0.31843799352645874,-0.2029278725385666,0.4516966640949249,0.1766882933596892,0.8195267379404797,-0.004653813855580515,-0.03675951629472902,0.00042283193396693193,0.0,0.0,-0.6,0.0,0.001950979232788086,0.001950979232788086,0.002997875213623047,0
1.1997222900390625,-0.31773850321769714,-0.2023991048336029,0.4499286711215973,0.17670465026979523,0.8178897463302188,-0.0042910481342375295,-0.04182179146177744,0.0004237106888182341,0.0,0.0,-0.6,0.0,0.0016489028930664062,0.0016489028930664062,0.0022563934326171875,0
1.2101361751556396,-0.3165139853954315,-0.201425239443779,0.4461834728717804,0.17671089731637224,0.8153931857410233,-0.009523956810882306,-0.0602388119350702,0.0007513000474658778,0.0,0.0,-0.6,0.0,0.0018267631530761719,0.0018267631530761719,0.0031943321228027344,0
1.2198185920715332,-0.31598496437072754,-0.2009747177362442,0.4440810978412628,0.17668808753318513,0.8129583468732215,-0.010597675331502009,-0.0590250349579633,0.0007844328430281959,0.0,0.0,-0.6,0.0,0.0023818016052246094,0.0023818016052246094,0.003130674362182617,0
1.2305128574371338,-0.3155103921890259,-0.20054829120635986,0.4418247938156128,0.17667925146149854,0.8105635357644275,-0.009262570925266493,-0.05857548486757999,0.0007039045272482308,0.0,0.0,-0.6,0.0,0.002509593963623047,0.002509593963623047,0.003734588623046875,0
1.2399001121520996,-0.31471341848373413,-0.1997666209936142,0.43685266375541687,0.17669907179708938,0.8075086889145806,-0.01007749946979936,-0.07547696309342514,0.000794975818443413,0.0,0.0,-0.6,0.0,0.0025696754455566406,0.0025696754455566406,0.0037009716033935547,0
1.2499821186065674,-0.3143942952156067,-0.19940906763076782,0.4341394007205963,0.17671816944613694,0.8046832718277112,-0.009412955193253933,-0.07225002716868663,0.0007382363565224256,0.0,0.0,-0.6,0.0,0.0019936561584472656,0.0019936561584472656,0.002894878387451172,0
1.2598350048065186,-0.314125120639801,-0.19907332956790924,0.4313693344593048,0.17670079566704253,0.8020171647558895,-0.007735811235401146,-0.0697224734854508,0.0006392977434711332,0.0,0.0,-0.6,0.0,0.002488374710083008,0.002488374710083008,0.003399372100830078,0
1.2698948383331299,-0.3139021694660187,-0.19875919818878174,0.4284488558769226,0.1766901612029608,0.7994709457285619,-0.006369831339169439,-0.06778474610441025,0.0005604933033067069,0.0,0.0,-0.6,0.0,0.0016252994537353516,0.0016252994537353516,0.002446889877319336,0
1.279951572418213,-0.31359294056892395,-0.19819462299346924,0.4221669137477875,0.17668581404464723,0.7963440535455665,-0.004126494544032373,-0.0865574500061933,0.0005195970843919305,0.0,0.0,-0.6,0.0,0.002926349639892578,0.002926349639892578,0.0039594173431396484,0
1.290586233139038,-0.31350407004356384,-0.19794388115406036,0.41881152987480164,0.17667621455976626,0.7934916321394427,-0.0034666734336062923,-0.08053182806520143,0.00046541750655885273,0.0,0.0,-0.6,0.0,0.0035762786865234375,0.0035762786865234375,0.005014896392822266,0
1.2998740673065186,-0.31345611810684204,-0.19771240651607513,0.41531795263290405,0.17667507836305507,0.7908383074082636,-0.0023395701158702626,-0.07603134183597378,0.00039607247661668955,0.0,0.0,-0.6,0.0,0.0021953582763671875,0.0021953582763671875,0.003045797348022461,0
1.3105604648590088,-0.3134482800960541,-0.1974991261959076,0.41168999671936035,0.1766693301074826,0.7883375778461765,-0.0030884137768193874,-0.07350953578111936,0.00041801225259722476,0.0,0.0,-0.6,0.0,0.004050731658935547,0.004050731658935547,0.00594639778137207,0
1.3198578357696533,-0.31355664134025574,-0.19712120294570923,0.4040478467941284,0.17661728564900514,0.7853323996862397,-0.0036184798272382627,-0.09029049009127695,0.0005075373783437517,0.0,0.0,-0.6,0.0,0.0029218196868896484,0.0029218196868896484,0.004124164581298828,0
1.3300678730010986,-0.3136693239212036,-0.19695666432380676,0.40013086795806885,0.1765968694580079,0.7826105254796979,-0.0026072484353356984,-0.0835840385995257,0.0004384413552512417,0.0,0.0,-0.6,0.0,0.0020096302032470703,0.0020096302032470703,0.0030956268310546875,0
1.3399701118469238,-0.3138221800327301,-0.19680872559547424,0.396092027425766,0.17658301393978834,0.7800966230844812,-0.0013739724292767567,-0.07807535341227054,0.0003662503164816219,0.0,0.0,-0.6,0.0,0.0029675960540771484,0.0029675960540771484,0.004264354705810547,0
1.3500087261199951,-0.31400805711746216,-0.19667810201644897,0.391934335231781,0.17655217295614845,0.7777371486607059,1.3198602899605312e-06,-0.07409224089950381,0.00029653874990441027,0.0,0.0,-0.6,0.0,0.002676248550415039,0.002676248550415039,0.0038061141967773438,0
1.3600170612335205,-0.31447461247444153,-0.19647005200386047,0.3832802176475525,0.17646598412732373,0.7749254312359155,0.0036754526053519427,-0.08779125223187752,0.0002179319730000572,0.0,0.0,-0.6,0.0,0.0030782222747802734,0.0030782222747802734,0.004177570343017578,0
1.3704941272735596,-0.3147519826889038,-0.19639019668102264,0.3787912130355835,0.17644351479431117,0.7723828480933874,0.0033628265897638655,-0.08051006847053167,0.00020754713326531413,0.0,0.0,-0.6,0.0,0.005925655364990234,0.005925655364990234,0.008083581924438477,0
1.3803739547729492,-0.3150583505630493,-0.19632580876350403,0.37419846653938293,0.17642284144548526,0.7700423756692594,0.0035811818418690143,-0.07479773175937299,0.00018267911880784758,0.0,0.0,-0.6,0.0,0.0045928955078125,0.0045928955078125,0.006085395812988281,0
1.3912725448608398,-0.315399706363678,-0.1962735503911972,0.36950671672821045,0.1764147786870156,0.7678557599955366,0.0033337576554020847,-0.06987485015501772,0.0001772348160176007,0.0,0.0,-0.6,0.0,0.0031223297119140625,0.0031223297119140625,0.0045015811920166016,0
1.3999249935150146,-0.3157668113708496,-0.19623567163944244,0.36472007632255554,0.17638790634900933,0.7657865812459957,0.003097663314964463,-0.06641460133079498,0.0001769694024919775,0.0,0.0,-0.6,0.0,0.002849578857421875,0.002849578857421875,0.0040552616119384766,0
1.4099831581115723,-0.3165718913078308,-0.1962013840675354,0.3550633192062378,0.1763339714280169,0.763294606772267,0.005126568405650013,-0.07740655440232076,0.00016504529013859425,0.0,0.0,-0.6,0.0,0.002149820327758789,0.002149820327758789,0.003059864044189453,0
1.4204003810882568,-0.31700757145881653,-0.19620512425899506,0.350101500749588,0.1763078448936227,0.7610352900136849,0.005486837637806378,-0.07100478841933938,0.00013130204967663447,0.0,0.0,-0.6,0.0,0.0031218528747558594,0.0031218528747558594,0.00458979606628418,0
1.430328130722046,-0.3174647092819214,-0.19622276723384857,0.34505540132522583,0.17628745395007844,0.758954692228758,0.006003584566022934,-0.06551913711330873,9.674285851803024e-05,0.0,0.0,-0.6,0.0,0.005911827087402344,0.005911827087402344,0.007695436477661133,0
1.4412288665771484,-0.31843650341033936,-0.19629766047000885,0.334722638130188,0.1762270199422476,0.756514656150277,0.007797998191899877,-0.07453710439303025,9.475959356873522e-05,0.0,0.0,-0.6,0.0,0.0034439563751220703,0.0034439563751220703,0.005059719085693359,0
1.4508845806121826,-0.3189502954483032,-0.1963489055633545,0.3294420540332794,0.1762092758634056,0.7543334857976217,0.007076519387059021,-0.0661925641650208,8.67651667042613e-05,0.0,0.0,-0.6,0.0,0.005851030349731445,0.005851030349731445,0.0082855224609375,0
1.4607791900634766,-0.31948021054267883,-0.19641169905662537,0.3240915536880493,0.17620441805277098,0.7523413491740012,0.006442098846146705,-0.0595201233869931,8.149971500985559e-05,0.0,0.0,-0.6,0.0,0.004036664962768555,0.004036664962768555,0.005556821823120117,0
1.4700307846069336,-0.32002443075180054,-0.1964857131242752,0.31867387890815735,0.1761931052341293,0.7504893766377414,0.0064924573876514145,-0.053762314446854316,6.050702626241372e-05,0.0,0.0,-0.6,0.0,0.0027539730072021484,0.0027539730072021484,0.003975629806518555,0
1.4799449443817139,-0.3211512565612793,-0.19666828215122223,0.30782872438430786,0.1761176227452058,0.7483131648328374,0.010538833423348446,-0.06148457527291915,-6.21684611184007e-06,0.0,0.0,-0.6,0.0,0.0026865005493164062,0.0026865005493164062,0.003652334213256836,0
1.491089105606079,-0.3217332661151886,-0.19677746295928955,0.3023141324520111,0.17608908291888298,0.7463598718472685,0.010376125250207357,-0.05413406251459985,-2.6797983674784647e-05,0.0,0.0,-0.6,0.0,0.0019330978393554688,0.0019330978393554688,0.003173828125,0
1.5002367496490479,-0.3223254680633545,-0.19689799845218658,0.2967411279678345,0.17608735241752071,0.744566812125992,0.010901126174663288,-0.04835955062726088,-5.972330844220223e-05,0.0,0.0,-0.6,0.0,0.0031702518463134766,0.0031702518463134766,0.004559040069580078,0
1.5101299285888672,-0.32292693853378296,-0.1970294564962387,0.2911122739315033,0.17606763453093568,0.7428976016119736,0.010596815625414351,-0.04339145058450836,-6.539897225296566e-05,0.0,0.0,-0.6,0.0,0.00531768798828125,0.00531768798828125,0.007027626037597656,0
1.5200088024139404,-0.3241564631462097,-0.1973198503255844,0.2796989679336548,0.17600526948833875,0.7409240898397332,0.013920166425108627,-0.05003702190623756,-0.00010128272487797345,0.0,0.0,-0.6,0.0,0.002362966537475586,0.002362966537475586,0.003361225128173828,0
1.5304844379425049,-0.32478389143943787,-0.19747859239578247,0.273919939994812,0.17595861222742326,0.739152104718152,0.012851008986687463,-0.04320304933917619,-9.607600430188744e-05,0.0,0.0,-0.6,0.0,0.002769947052001953,0.002769947052001953,0.004434823989868164,0
1.540099859237671,-0.32557159662246704,-0.19767124950885773,0.26820480823516846,0.17593402473286018,0.7375359058603794,0.01307013508181808,-0.040438918512386145,-0.00010339821001172545,0.0,0.0,-0.6,0.0,0.002816438674926758,0.002816438674926758,0.003846883773803711,0
1.5506196022033691,-0.32636523246765137,-0.19787375628948212,0.26244521141052246,0.17592702906840008,0.7360335744475762,0.012712937159330005,-0.03925301875763908,-9.025087401918341e-05,0.0,0.0,-0.6,0.0,0.005071878433227539,0.005071878433227539,0.006762266159057617,0
1.5606083869934082,-0.3271634876728058,-0.19808469712734222,0.2566439211368561,0.17590288558431638,0.7346209267122895,0.011194212816869522,-0.03666767777280741,-5.9775340613679605e-05,0.0,0.0,-0.6,0.0,0.005294322967529297,0.005294322967529297,0.006880998611450195,0
1.5701978206634521,-0.3248007893562317,-0.19676655530929565,0.24370799958705902,0.1758736031784105,0.7328648110101295,-0.0022800462163943248,-0.01029075839753934,0.00010000222093418816,0.0,0.0,-0.6,0.0,0.00217437744140625,0.00217437744140625,0.0032205581665039062,0
1.5810015201568604,-0.3236844837665558,-0.19614632427692413,0.23721368610858917,0.17586466273056436,0.7312581577452801,-0.004379309776148171,0.004524218367699629,6.848197914142801e-05,0.0,0.0,-0.6,0.0,0.003307342529296875,0.003307342529296875,0.004570960998535156,0
1.590397834777832,-0.3226078152656555,-0.19555221498012543,0.23070378601551056,0.1758375410683327,0.7297624263695623,-0.004510239633218235,0.01654179480548361,1.1930908624247617e-05,0.0,0.0,-0.6,0.0,0.0032646656036376953,0.0032646656036376953,0.00455164909362793,0
1.601119041442871,-0.3215719759464264,-0.19498245418071747,0.22424282133579254,0.17582754891312316,0.7283498511989239,-0.004880082146853004,0.024088100055619215,-1.5454657621083895e-05,0.0,0.0,-0.6,0.0,0.002573251724243164,0.002573251724243164,0.0037093162536621094,0
1.6099436283111572,-0.3196130394935608,-0.1939137876033783,0.21127915382385254,0.17582009914196156,0.7266612052947435,-0.009475302172281425,0.03886905908750893,9.309286721187012e-06,0.0,0.0,-0.6,0.0,0.002554178237915039,0.002554178237915039,0.0037271976470947266,0
1.6204822063446045,-0.31868472695350647,-0.1934129297733307,0.20477928221225739,0.17583430295971827,0.7251332166257699,-0.008350004224611057,0.04358657510567921,-2.7031549934883777e-05,0.0,0.0,-0.6,0.0,0.0017750263214111328,0.0017750263214111328,0.0025615692138671875,0
1.6298723220825195,-0.31778931617736816,-0.19293463230133057,0.19826927781105042,0.1758463922119762,0.7237245204586167,-0.006266908789236069,0.04663126953883874,-7.208321755242759e-05,0.0,0.0,-0.6,0.0,0.0026674270629882812,0.0026674270629882812,0.003590106964111328,0
1.6405439376831055,-0.31778931617736816,-0.19293463230133057,0.19826927781105042,0.1758463922119762,0.7227325694131803,-0.0028766228505666142,0.04136023443500355,-0.00011031298760674175,0.0,0.0,-0.6,0.0,0.002508401870727539,0.002508401870727539,0.00396275520324707,0
1.6500279903411865,-0.3152858316898346,-0.19162696599960327,0.17870613932609558,0.17586930009613702,0.7210969678756863,-0.008227848284239276,0.06023895583772261,-7.916247195728221e-05,0.0,0.0,-0.6,0.0,0.002261638641357422,0.002261638641357422,0.0030469894409179688,0
1.6607213020324707,-0.3152858316898346,-0.19162696599960327,0.17870613932609558,0.17586930009613702,0.7199447679374567,-0.003914175731107048,0.05290096238610746,-0.00012297205121041257,0.0,0.0,-0.6,0.0,0.0021467208862304688,0.0021467208862304688,0.0034639835357666016,0
1.6698718070983887,-0.3137529790401459,-0.1908542960882187,0.16573870182037354,0.17592271175068067,0.7185552250225608,-0.004097642399928629,0.06319551818902146,-0.00015033828811990803,0.0,0.0,-0.6,0.0,0.0017962455749511719,0.0017962455749511719,0.0025382041931152344,0
1.680448055267334,-0.3137529790401459,-0.1908542960882187,0.16573870182037354,0.17592271175068067,0.7175760819484869,-0.0010771495147318766,0.05453776698472136,-0.00016962203223678087,0.0,0.0,-0.6,0.0,0.0020117759704589844,0.0020117759704589844,0.0032453536987304688,0
1.6906695365905762,-0.3123181462287903,-0.19015461206436157,0.15285949409008026,0.17595461581657806,0.7163344468835369,-0.002669812927017059,0.06437214242173397,-0.0001767384193788162,0.0,0.0,-0.6,0.0,0.0023529529571533203,0.0023529529571533203,0.0035202503204345703,0
1.7001523971557617,-0.3116346001625061,-0.1898328810930252,0.14642202854156494,0.1759848876145755,0.7151841904105021,-0.000657051677700093,0.06218270329144634,-0.0002023900681788275,0.0,0.0,-0.6,0.0,0.002070188522338867,0.002070188522338867,0.002947092056274414,0
1.7101109027862549,-0.310335636138916,-0.18924580514431,0.13355602324008942,0.17603986515308284,0.7138530488256728,0.0012575181842850469,0.06670488087943234,-0.000254094018297155,0.0,0.0,-0.6,0.0,0.002069234848022461,0.002069234848022461,0.0029778480529785156,0
1.720057487487793,-0.310335636138916,-0.18924580514431,0.13355602324008942,0.17603986515308284,0.7129149359221367,0.002726244955670159,0.05720219005369162,-0.0002470459079777576,0.0,0.0,-0.6,0.0,0.0017306804656982422,0.0017306804656982422,0.0026624202728271484,0
1.7304060459136963,-0.30854305624961853,-0.1884939968585968,0.11431001126766205,0.1761426757313856,0.7115271148134712,0.002633498551786254,0.07058310379138028,-0.00030567637842472575,0.0,0.0,-0.6,0.0,0.0017969608306884766,0.0017969608306884766,0.0026345252990722656,0
1.7404463291168213,-0.30854305624961853,-0.1884939968585968,0.11431001126766205,0.1761426757313856,0.710549030309059,0.0037907479807602605,0.060474796858193465,-0.00029109469317527243,0.0,0.0,-0.6,0.0,0.0021619796752929688,0.0021619796752929688,0.0036437511444091797,0
1.7497811317443848,-0.3077940046787262,-0.18814773857593536,0.1016930490732193,0.1762100151360742,0.709416309264896,0.003858834543951425,0.06386323847674392,-0.00031313573647203524,0.0,0.0,-0.6,0.0,0.0013780593872070312,0.0013780593872070312,0.0019145011901855469,0
1.760056495666504,-0.3077940046787262,-0.18814773857593536,0.1016930490732193,0.1762100151360742,0.7086179816951153,0.004401334595844226,0.05431640763382737,-0.00028917149364414576,0.0,0.0,-0.6,0.0,0.0016562938690185547,0.0016562938690185547,0.00241851806640625,0
1.770231008529663,-0.3071039319038391,-0.1878591626882553,0.08912338316440582,0.17632643912508147,0.7076392183719656,0.0031529234283133112,0.056936703701780327,-0.0002819534583585801,0.0,0.0,-0.6,0.0,0.0019431114196777344,0.0019431114196777344,0.0030384063720703125,0
1.7801237106323242,-0.30677980184555054,-0.18773560225963593,0.08285900205373764,0.17639010818976397,0.7067424220281611,0.004708814333410272,0.05474987042010008,-0.00030722938621607253,0.0,0.0,-0.6,0.0,0.002052783966064453,0.002052783966064453,0.002989530563354492,0
1.7907860279083252,-0.306467741727829,-0.18762598931789398,0.07660947740077972,0.17646432340864696,0.7059157143384243,0.005112812918236272,0.05295767429952592,-0.00031282556691075085,0.0,0.0,-0.6,0.0,0.0019347667694091797,0.0019347667694091797,0.0029065608978271484,0
1.800248384475708,-0.30616769194602966,-0.18752968311309814,0.07037665694952011,0.17652592475540424,0.7051423848963707,0.00511184952691411,0.05067489246549782,-0.0003087774956538865,0.0,0.0,-0.6,0.0,0.0023641586303710938,0.0023641586303710938,0.0034341812133789062,0
1.8104078769683838,-0.3053492307662964,-0.18731817603111267,0.05196157470345497,0.17674228360708857,0.7040768491267729,0.008059296263379841,0.05874573322004821,-0.00041557973028879603,0.0,0.0,-0.6,0.0,0.0017032623291015625,0.0017032623291015625,0.0024378299713134766,0
1.8202874660491943,-0.3053492307662964,-0.18731817603111267,0.05196157470345497,0.17674228360708857,0.7033261107926218,0.007235656042906471,0.05003855985866149,-0.0003657747871073434,0.0,0.0,-0.6,0.0,0.002304553985595703,0.002304553985595703,0.003448009490966797,0
1.8298990726470947,-0.3051079511642456,-0.18727320432662964,0.04588872566819191,0.17680120218385942,0.7026286012837996,0.008215982666956542,0.04607391762267849,-0.00037790587642823635,0.0,0.0,-0.6,0.0,0.001825571060180664,0.001825571060180664,0.002948284149169922,0
1.8405375480651855,-0.3048790991306305,-0.18724241852760315,0.03983495384454727,0.17686931382774332,0.7019757605755417,0.01014968950058569,0.0434325594203598,-0.0004193819813256906,0.0,0.0,-0.6,0.0,0.0025093555450439453,0.0025093555450439453,0.003995180130004883,0
1.8509061336517334,-0.3042639493942261,-0.18723347783088684,0.0218043215572834,0.1770536149061961,0.7010684808364834,0.016272839657728348,0.048578405016980714,-0.0006090691700141992,0.0,0.0,-0.6,0.0,0.0032112598419189453,0.0032112598419189453,0.004177570343017578,0
1.8599672317504883,-0.3042639493942261,-0.18723347783088684,0.0218043215572834,0.1770536149061961,0.7004294125563965,0.01276665891772269,0.04156404491704989,-0.0004981706682134439,0.0,0.0,-0.6,0.0,0.0017266273498535156,0.0017266273498535156,0.0024716854095458984,0
1.8700776100158691,-0.30408209562301636,-0.1872568279504776,0.01592201367020607,0.17710388889585177,0.6998377025416853,0.012307927597230447,0.039364466394653644,-0.0004864313085273649,0.0,0.0,-0.6,0.0,0.002489328384399414,0.002489328384399414,0.003620147705078125,0
1.8799681663513184,-0.3039102554321289,-0.18729373812675476,0.01006211806088686,0.17716937176003808,0.699289666991353,0.014331870445493234,0.03775200307365132,-0.0005399131941754273,0.0,0.0,-0.6,0.0,0.002084016799926758,0.002084016799926758,0.0030269622802734375,0
1.8904106616973877,-0.30345556139945984,-0.18748553097248077,-0.007374311797320843,0.17729644912843526,0.69852920835157,0.025976096185592972,0.04168218877751874,-0.0008937638889926027,0.0,0.0,-0.6,0.0,0.00179290771484375,0.00179290771484375,0.002699136734008789,0
1.900428056716919,-0.30345556139945984,-0.18748553097248077,-0.007374311797320843,0.17729644912843526,0.6979935682974553,0.019405984049578218,0.035780414569458546,-0.0006968357012763191,0.0,0.0,-0.6,0.0,0.0026602745056152344,0.0026602745056152344,0.004058837890625,0
1.910149335861206,-0.30320969223976135,-0.187678724527359,-0.018870040774345398,0.17740570110488815,0.6973892089965319,0.0216158428176081,0.034482080888364304,-0.0007723749673818099,0.0,0.0,-0.6,0.0,0.0017261505126953125,0.0017261505126953125,0.0026197433471679688,0
1.9204771518707275,-0.30320969223976135,-0.187678724527359,-0.018870040774345398,0.17740570110488815,0.6969635399683249,0.016121359006944638,0.029509886809697298,-0.0006000445440979254,0.0,0.0,-0.6,0.0,0.002790689468383789,0.002790689468383789,0.0044403076171875,0
1.9299976825714111,-0.3030065894126892,-0.18792007863521576,-0.03025130368769169,0.17747921323605562,0.6964593523849704,0.019231138196508894,0.02993165376708912,-0.0007067034281801796,0.0,0.0,-0.6,0.0,0.002340555191040039,0.002340555191040039,0.003438711166381836,0
1.940436601638794,-0.30291980504989624,-0.1880582869052887,-0.035830721259117126,0.1775022615869245,0.6960051525074624,0.01842527684087137,0.028689732462813314,-0.0006881351777073516,0.0,0.0,-0.6,0.0,0.0018122196197509766,0.0018122196197509766,0.0032236576080322266,0
1.9501967430114746,-0.30284205079078674,-0.18820813298225403,-0.0413825549185276,0.17754874653089525,0.695588566594533,0.017935937377988615,0.02659558399947214,-0.0006731037644985469,0.0,0.0,-0.6,0.0,0.0026335716247558594,0.0026335716247558594,0.0036804676055908203,0
1.960242748260498,-0.3027801513671875,-0.1883692741394043,-0.046906325966119766,0.17756866322418854,0.6952048226913087,0.01696413495091853,0.024628128191235995,-0.0006422258137631514,0.0,0.0,-0.6,0.0,0.002567768096923828,0.002567768096923828,0.0038499832153320312,0
1.9703397750854492,-0.29936960339546204,-0.1874595433473587,-0.06557934731245041,0.1776454248324566,0.6945779027320887,0.01259300508684102,0.054307946204031995,-0.0006798350343885148,0.0,0.0,-0.6,0.0,0.0016012191772460938,0.0016012191772460938,0.002471446990966797,0
1.9801294803619385,-0.29936960339546204,-0.1874595433473587,-0.06557934731245041,0.1776454248324566,0.6941357299605717,0.010115408422204611,0.04520450872802249,-0.0005591976571655597,0.0,0.0,-0.6,0.0,0.0019123554229736328,0.0019123554229736328,0.002846956253051758,0
1.9903459548950195,-0.2977583408355713,-0.18695656955242157,-0.07207760214805603,0.17767630026559977,0.6936883343460285,0.006267511026960618,0.05300619376204159,-0.00048143869312113367,0.0,0.0,-0.6,0.0,0.002514362335205078,0.002514362335205078,0.0036835670471191406,0
2.000150442123413,-0.2961890697479248,-0.1864786595106125,-0.07851593941450119,0.1776864483103459,0.6932478419187972,0.0047640984063843286,0.05798795279855473,-0.00045800713495246177,0.0,0.0,-0.6,0.0,0.0023958683013916016,0.0023958683013916016,0.003480195999145508,0
2.0101099014282227,-0.29317256808280945,-0.18559636175632477,-0.09113816916942596,0.17773788441809027,0.6926961286375948,0.0018213375075322152,0.07684847986105803,-0.000442975592548524,0.0,0.0,-0.6,0.0,0.0023026466369628906,0.0023026466369628906,0.0036509037017822266,0
2.0202324390411377,-0.2917235791683197,-0.1851891130208969,-0.09732601046562195,0.17775958910143608,0.6921967288947115,0.0006068675197544697,0.07601736968461958,-0.00038716096899597764,0.0,0.0,-0.6,0.0,0.002717256546020508,0.002717256546020508,0.0038383007049560547,0
2.0303256511688232,-0.2903182804584503,-0.1848013997077942,-0.10345584154129028,0.17779295609962736,0.691738311535769,7.616611205533226e-05,0.07559389126668531,-0.00035675134812945814,0.0,0.0,-0.6,0.0,0.002596616744995117,0.002596616744995117,0.0035905838012695312,0
2.0402135848999023,-0.2889496684074402,-0.1844351887702942,-0.10952825844287872,0.17782329096579996,0.6913114991802204,0.0007372161863765418,0.07456142306214146,-0.0003650844984537259,0.0,0.0,-0.6,0.0,0.0030477046966552734,0.0030477046966552734,0.004492998123168945,0
2.0504374504089355,-0.285060852766037,-0.1834593266248703,-0.1274040937423706,0.1779364989008901,0.6907302223525827,-0.0012809778059099724,0.09615651440444145,-0.00035479835310151805,0.0,0.0,-0.6,0.0,0.0027456283569335938,0.0027456283569335938,0.0036611557006835938,0
2.0602619647979736,-0.285060852766037,-0.1834593266248703,-0.1274040937423706,0.1779364989008901,0.6903188864393153,0.0010320564281096351,0.07814390997785903,-0.00035929247175371274,0.0,0.0,-0.6,0.0,0.0022301673889160156,0.0022301673889160156,0.0034279823303222656,0
2.070059061050415,-0.2838323414325714,-0.18317367136478424,-0.13324834406375885,0.17799197133584585,0.6899393800521331,0.0016591430719453636,0.07578445500513671,-0.00036244799203375496,0.0,0.0,-0.6,0.0,0.002596616744995117,0.002596616744995117,0.0037643909454345703,0
2.079911470413208,-0.28263571858406067,-0.1829078495502472,-0.13903838396072388,0.17802980103127897,0.6895770141025411,0.0035596262657236945,0.07211029298069674,-0.00040982919813573466,0.0,0.0,-0.6,0.0,0.0019936561584472656,0.0019936561584472656,0.002810955047607422,0
2.090726375579834,-0.2814711630344391,-0.1826615035533905,-0.14470230042934418,0.17806757291970893,0.6892447577179204,0.004679023359105088,0.06907555125966028,-0.0004375311857728581,0.0,0.0,-0.6,0.0,0.0028314590454101562,0.0028314590454101562,0.0038747787475585938,0
2.0999467372894287,-0.2792396545410156,-0.18222399055957794,-0.1558675318956375,0.17810901351507033,0.6888729939279705,0.006430009089802986,0.07684056247280505,-0.0005284095525698009,0.0,0.0,-0.6,0.0,0.002140045166015625,0.002140045166015625,0.003033161163330078,0
2.1101701259613037,-0.2781738340854645,-0.1820327490568161,-0.1613694429397583,0.17813892287148073,0.6885444882601586,0.008150625515404837,0.06991840089996243,-0.0005682319718030406,0.0,0.0,-0.6,0.0,0.0022995471954345703,0.0022995471954345703,0.0034575462341308594,0
2.120222568511963,-0.2771381735801697,-0.18186023831367493,-0.16681672632694244,0.1781787196068712,0.6882575127170283,0.00867569297797891,0.0659664891458711,-0.0005807376021196624,0.0,0.0,-0.6,0.0,0.002370119094848633,0.002370119094848633,0.0037157535552978516,0
2.130371570587158,-0.27420490980148315,-0.18144582211971283,-0.1828313022851944,0.17830180866670825,0.6878957209066244,0.008744995599613486,0.07655406095067648,-0.0006374252231207214,0.0,0.0,-0.6,0.0,0.0014553070068359375,0.0014553070068359375,0.0022814273834228516,0
2.1402368545532227,-0.27420490980148315,-0.18144582211971283,-0.1828313022851944,0.17830180866670825,0.6876392581283827,0.007643879888566739,0.06203653995196569,-0.0005429663371171525,0.0,0.0,-0.6,0.0,0.0016062259674072266,0.0016062259674072266,0.0026137828826904297,0
2.150662899017334,-0.2723918557167053,-0.181248739361763,-0.1931401938199997,0.1783930482068346,0.687382836280522,0.006870533120485147,0.06472079253874519,-0.000531958892300747,0.0,0.0,-0.6,0.0,0.003336191177368164,0.003336191177368164,0.00463104248046875,0
2.1605982780456543,-0.2723918557167053,-0.181248739361763,-0.1931401938199997,0.1783930482068346,0.6872007312531083,0.006069887218751081,0.05229281657079115,-0.0004537961505989506,0.0,0.0,-0.6,0.0,0.0028350353240966797,0.0028350353240966797,0.0044116973876953125,0
2.1719539165496826,-0.2698822319507599,-0.1810624897480011,-0.2080618143081665,0.17855879042340334,0.6869872639249212,0.010270022962201943,0.061901382647676015,-0.0006782260371453717,0.0,0.0,-0.6,0.0,0.005597114562988281,0.005597114562988281,0.0076138973236083984,0
2.1802289485931396,-0.2698822319507599,-0.1810624897480011,-0.2080618143081665,0.17855879042340334,0.6868353889657703,0.008393664805786086,0.04999095132816667,-0.0005561289329521251,0.0,0.0,-0.6,0.0,0.0020554065704345703,0.0020554065704345703,0.003356456756591797,0
2.1909658908843994,-0.2690993547439575,-0.18103057146072388,-0.21293188631534576,0.1785989408926407,0.686703658789652,0.008861143915529618,0.046491663860323953,-0.0005689771174545864,0.0,0.0,-0.6,0.0,0.002904176712036133,0.002904176712036133,0.004303693771362305,0
2.2003183364868164,-0.2683422863483429,-0.18101459741592407,-0.21774986386299133,0.17862914975729907,0.686593578604866,0.01008982962156862,0.04246769495636722,-0.0006126776496260213,0.0,0.0,-0.6,0.0,0.0028786659240722656,0.0028786659240722656,0.00429987907409668,0
2.212057113647461,-0.26622581481933594,-0.18104812502861023,-0.23188725113868713,0.1787080255964851,0.6864831591945318,0.0099273676299786,0.046560428585698525,-0.0006382049029631633,0.0,0.0,-0.6,0.0,0.0051915645599365234,0.0051915645599365234,0.006926536560058594,0
2.220813751220703,-0.26622581481933594,-0.18104812502861023,-0.23188725113868713,0.1787080255964851,0.6864040927404214,0.007839063159680632,0.03750451680898741,-0.000509957006792504,0.0,0.0,-0.6,0.0,0.005921125411987305,0.005921125411987305,0.008107423782348633,0
2.230499744415283,-0.2649477422237396,-0.18113943934440613,-0.24092501401901245,0.1787490789985641,0.6863334285696202,0.011471017187406209,0.03626656275006551,-0.0006806932523990625,0.0,0.0,-0.6,0.0,0.005219221115112305,0.005219221115112305,0.007103443145751953,0
