time,x,y,z,yaw,throttle,roll_rate,pitch_rate,yaw_rate,x_ref,y_ref,z_ref,yaw_ref,pred_time,nr_time,ctrl_callback_time,metadata
1.1920928955078125e-06,0.010213196277618408,-0.014028997160494328,-0.018314508721232414,0.023033038800069777,0.710280275583702,0.01539461687207222,0.0026138494722545147,-0.00863837543874979,0.0,0.0,-0.6,0.0,0.018848896026611328,0.01884937286376953,0.08219647407531738,Sim
0.08220672607421875,0.010213196277618408,-0.014028997160494328,-0.018314508721232414,0.023033038800069777,0.7234453533781098,0.025572964921593666,0.0043529788963496685,-0.01468466967344284,0.0,0.0,-0.6,0.0,0.00074005126953125,0.0007407665252685547,0.003347158432006836,Jax
0.08934450149536133,0.01117745041847229,-0.013935839757323265,-0.018028944730758667,0.023029726575451985,0.7338514555962591,0.03185298666357994,0.005888565443456173,-0.018915388733148575,0.0,0.0,-0.6,0.0,0.0008401870727539062,0.0008406639099121094,0.0038208961486816406,1x Speed
0.09937429428100586,0.01118953712284565,-0.013688418082892895,-0.0179915614426136,0.02304416955245849,0.7420860630006888,0.035948097705841064,0.006967991124838591,-0.02188226394355297,0.0,0.0,-0.6,0.0,0.0006775856018066406,0.0006780624389648438,0.003245830535888672,0OrderHold
0.10934638977050781,0.011203210800886154,-0.013446527533233166,-0.01795552484691143,0.023044827554057415,0.7486112920530812,0.03861280158162117,0.00769546115770936,-0.023959336802363396,0.0,0.0,-0.6,0.0,0.0007977485656738281,0.0007982254028320312,0.0036475658416748047,QuatYawError
0.11949944496154785,0.011230981908738613,-0.012980256229639053,-0.0178877841681242,0.02303130878164249,0.753793812931436,0.04019106924533844,0.008076081983745098,-0.025408262386918068,0.0,0.0,-0.6,0.0,0.0008933544158935547,0.0008940696716308594,0.003759145736694336,Optim Wardi
0.12930727005004883,0.011246711015701294,-0.012756234034895897,-0.017854943871498108,0.02302374735469851,0.7579200137541962,0.04114953428506851,0.00838514044880867,-0.026419656351208687,0.0,0.0,-0.6,0.0,0.0007545948028564453,0.0007550716400146484,0.0034618377685546875,0
0.13949108123779297,0.011269165202975273,-0.012537858448922634,-0.01782342977821827,0.023012037717526742,0.7612013411508368,0.04171935096383095,0.008707704953849316,-0.0271232221275568,0.0,0.0,-0.6,0.0,0.0009188652038574219,0.000919342041015625,0.003742694854736328,0
0.14937829971313477,0.011318995617330074,-0.012118027545511723,-0.017768213525414467,0.023021481206010247,0.7637961637446649,0.04187590256333351,0.008983181789517403,-0.0276192594319582,0.0,0.0,-0.6,0.0,0.0006461143493652344,0.0006468296051025391,0.0035200119018554688,0
0.15933489799499512,0.011344577185809612,-0.011913997121155262,-0.01776167005300522,0.023022661695969743,0.7657836406978363,0.041720807552337646,0.009170060977339745,-0.027966942638158798,0.0,0.0,-0.6,0.0,0.0007917881011962891,0.0007922649383544922,0.0035965442657470703,0
0.1693437099456787,0.011370689608156681,-0.011713864281773567,-0.01781018078327179,0.023008007066413132,0.7672278391518574,0.041336335241794586,0.009336116723716259,-0.02820483036339283,0.0,0.0,-0.6,0.0,0.000843048095703125,0.0008435249328613281,0.0037987232208251953,0
0.1794741153717041,0.011396821588277817,-0.01151745393872261,-0.01792001910507679,0.022968966027568545,0.7681993578666134,0.04068763554096222,0.009458132088184357,-0.028356721624732018,0.0,0.0,-0.6,0.0,0.0006761550903320312,0.0006766319274902344,0.0032694339752197266,0
0.18932318687438965,0.01145349070429802,-0.01113221887499094,-0.01836230792105198,0.022846564253136453,0.7685490774849744,0.039110828191041946,0.009795033372938633,-0.02841714210808277,0.0,0.0,-0.6,0.0,0.0008363723754882812,0.0008368492126464844,0.003834962844848633,0
0.1994006633758545,0.01148502342402935,-0.010941131971776485,-0.018706347793340683,0.02277918185996782,0.7685923238205598,0.03735824674367905,0.010121478699147701,-0.028434185311198235,0.0,0.0,-0.6,0.0,0.0009770393371582031,0.0009777545928955078,0.0038454532623291016,0
0.20931649208068848,0.011516162194311619,-0.010752229951322079,-0.019138457253575325,0.022688478753657464,0.7683785536849698,0.035598207265138626,0.010314120911061764,-0.028412114828824997,0.0,0.0,-0.6,0.0,0.0009052753448486328,0.0009059906005859375,0.004118680953979492,0
0.2195720672607422,0.011546471156179905,-0.01056634820997715,-0.01966119185090065,0.022593811282224822,0.7679508554636028,0.033811405301094055,0.01053310465067625,-0.028361177071928978,0.0,0.0,-0.6,0.0,0.0008993148803710938,0.0009000301361083984,0.0037088394165039062,0
0.22937917709350586,0.01157725416123867,-0.01038297452032566,-0.0202775988727808,0.022474746011418974,0.7673411598096795,0.0320538692176342,0.010841279290616512,-0.02828088589012623,0.0,0.0,-0.6,0.0,0.0007042884826660156,0.0007050037384033203,0.003615856170654297,0
0.23943758010864258,0.011639516800642014,-0.010026988573372364,-0.02180507965385914,0.022236829334846983,0.7663059505740452,0.029837027192115784,0.011167279444634914,-0.028135497123003006,0.0,0.0,-0.6,0.0,0.0007123947143554688,0.0007128715515136719,0.0034580230712890625,0
0.24933767318725586,0.01167032029479742,-0.009852685034275055,-0.02271265536546707,0.022088149482529868,0.7652004825472533,0.027735909447073936,0.011479685083031654,-0.027977973222732544,0.0,0.0,-0.6,0.0,0.0008590221405029297,0.0008594989776611328,0.0036602020263671875,0
0.2593855857849121,0.01170132402330637,-0.0096800047904253,-0.023715345188975334,0.02195342742474036,0.764034576854422,0.02564064972102642,0.011728446930646896,-0.02781718410551548,0.0,0.0,-0.6,0.0,0.0007135868072509766,0.0007140636444091797,0.003511667251586914,0
0.26931333541870117,0.011764020659029484,-0.009334434755146503,-0.026006437838077545,0.02165875760747102,0.7625335500721117,0.022715946659445763,0.012041116133332253,-0.027594180777668953,0.0,0.0,-0.6,0.0,0.0008597373962402344,0.0008602142333984375,0.004332780838012695,0
0.2797510623931885,0.011793862096965313,-0.009161428548395634,-0.027293696999549866,0.021500947922831616,0.7610484524694299,0.01996135525405407,0.012238685972988605,-0.027378886938095093,0.0,0.0,-0.6,0.0,0.0016629695892333984,0.0016644001007080078,0.006734132766723633,0
0.2893195152282715,0.011823276989161968,-0.00898771546781063,-0.02867063134908676,0.02135300676107575,0.7595769308212034,0.017297837883234024,0.012399804778397083,-0.027172693982720375,0.0,0.0,-0.6,0.0,0.0007913112640380859,0.0007917881011962891,0.0036733150482177734,0
0.29961514472961426,0.011853053234517574,-0.008812189102172852,-0.030139368027448654,0.02118599165549625,0.7581135560052644,0.014639592729508877,0.012575742788612843,-0.026965729892253876,0.0,0.0,-0.6,0.0,0.0008509159088134766,0.0008516311645507812,0.0037488937377929688,0
0.30934882164001465,0.011915037408471107,-0.0084583330899477,-0.03334661200642586,0.020833050003604345,0.7563823985229963,0.011487160809338093,0.012878750450909138,-0.02668854407966137,0.0,0.0,-0.6,0.0,0.0006031990051269531,0.0006036758422851562,0.0033674240112304688,0
0.31944966316223145,0.011946497485041618,-0.008281972259283066,-0.035080719739198685,0.020615142183571293,0.7547166928286824,0.008704769425094128,0.013066665269434452,-0.026412775740027428,0.0,0.0,-0.6,0.0,0.0007967948913574219,0.0007975101470947266,0.0034449100494384766,0
0.32937169075012207,0.011975944973528385,-0.008105860091745853,-0.036900218576192856,0.0204207450886296,0.7531067488890238,0.006187704391777515,0.013191628269851208,-0.026146823540329933,0.0,0.0,-0.6,0.0,0.0011298656463623047,0.001130819320678711,0.004366159439086914,0
0.33938097953796387,0.012005685828626156,-0.007929457351565361,-0.03880295157432556,0.020223232296583682,0.7515433048295312,0.0037962698843330145,0.013391823507845402,-0.02588658221065998,0.0,0.0,-0.6,0.0,0.0006551742553710938,0.0006556510925292969,0.003230571746826172,0
0.34934234619140625,0.01206392701715231,-0.007576007395982742,-0.042848486453294754,0.019811432810722666,0.7497573918478144,0.0009599185432307422,0.013553895056247711,-0.02555001899600029,0.0,0.0,-0.6,0.0,0.0008435249328613281,0.0008440017700195312,0.003572702407836914,0
0.3595125675201416,0.012093069031834602,-0.007397830951958895,-0.04499296098947525,0.019624699063560066,0.7480584811792168,-0.001595005625858903,0.013762997463345528,-0.02524438314139843,0.0,0.0,-0.6,0.0,0.0008561611175537109,0.0008571147918701172,0.0036993026733398438,0
0.36937499046325684,0.012123307213187218,-0.007219207473099232,-0.04721210151910782,0.019419922985757277,0.74644200185246,-0.00391537556424737,0.013958346098661423,-0.024953631684184074,0.0,0.0,-0.6,0.0,0.00067901611328125,0.0006794929504394531,0.003276824951171875,0
0.3794984817504883,0.012154207564890385,-0.0070393686182796955,-0.049502044916152954,0.019224801925545525,0.7448929296070598,-0.006059885956346989,0.014175107702612877,-0.02467692270874977,0.0,0.0,-0.6,0.0,0.0008566379547119141,0.0008571147918701172,0.0036334991455078125,0
0.3892686367034912,0.012221208773553371,-0.00667591392993927,-0.05428537726402283,0.01883906246003256,0.7431621285375666,-0.008515430614352226,0.014394955709576607,-0.024338597431778908,0.0,0.0,-0.6,0.0,0.0006248950958251953,0.0006253719329833984,0.003465890884399414,0
0.3993258476257324,0.01225457526743412,-0.006492881570011377,-0.05677453801035881,0.018623919475657842,0.7415306366972031,-0.010707240551710129,0.014537610113620758,-0.024021076038479805,0.0,0.0,-0.6,0.0,0.0008130073547363281,0.0008134841918945312,0.003493070602416992,0
0.4093155860900879,0.012288181111216545,-0.006308028474450111,-0.05932708829641342,0.018423634684695378,0.739985007306678,-0.012716232798993587,0.014692334458231926,-0.023723691701889038,0.0,0.0,-0.6,0.0,0.0008707046508789062,0.0008711814880371094,0.0039043426513671875,0
0.41931843757629395,0.012321912683546543,-0.006121623795479536,-0.061939988285303116,0.018211790924325705,0.7385130812933094,-0.01455453410744667,0.014774863608181477,-0.02343607321381569,0.0,0.0,-0.6,0.0,0.0008466243743896484,0.0008475780487060547,0.0035583972930908203,0
0.42937183380126953,0.012390515767037868,-0.005738275591284037,-0.06734724342823029,0.01784590628394406,0.7368738330835778,-0.01663813181221485,0.014820861630141735,-0.023097552359104156,0.0,0.0,-0.6,0.0,0.0006346702575683594,0.0006351470947265625,0.003194570541381836,0
0.4393956661224365,0.012426040135324001,-0.005544439889490604,-0.0701393261551857,0.017634352464917267,0.7353381052005229,-0.018413783982396126,0.014853556640446186,-0.022781237959861755,0.0,0.0,-0.6,0.0,0.0006530284881591797,0.0006535053253173828,0.0031728744506835938,0
0.4494173526763916,0.012461625970900059,-0.005349442362785339,-0.0729825347661972,0.017410054393014088,0.7338905803521227,-0.019964953884482384,0.01482186559587717,-0.022475697100162506,0.0,0.0,-0.6,0.0,0.0007672309875488281,0.0007674694061279297,0.0034322738647460938,0
0.45946168899536133,0.0124971903860569,-0.005153168924152851,-0.07587452977895737,0.017227367436008372,0.7325195568273457,-0.02132609486579895,0.014831685461103916,-0.022193297743797302,0.0,0.0,-0.6,0.0,0.0007393360137939453,0.00074005126953125,0.003304004669189453,0
0.46935486793518066,0.012570221908390522,-0.004756362177431583,-0.08179809898138046,0.01681326734307596,0.7310042493874505,-0.02279338613152504,0.014717177487909794,-0.021840346977114677,0.0,0.0,-0.6,0.0,0.0005612373352050781,0.0005617141723632812,0.0030243396759033203,0
0.479602575302124,0.012604701332747936,-0.004555912688374519,-0.0848250761628151,0.016603119215007,0.729593273839657,-0.024107808247208595,0.014580057002604008,-0.021514467895030975,0.0,0.0,-0.6,0.0,0.0008304119110107422,0.0008306503295898438,0.003615140914916992,0
0.4894068241119385,0.012473166920244694,-0.004544693045318127,-0.08724912256002426,0.016404743274372618,0.7282940676474751,-0.02512306347489357,0.01435448881238699,-0.021211951971054077,0.0,0.0,-0.6,0.0,0.0006847381591796875,0.0006852149963378906,0.0033385753631591797,0
0.49934887886047363,0.012344984337687492,-0.004528184421360493,-0.08973407745361328,0.016202467776406805,0.7270872837856958,-0.025921322405338287,0.014021284878253937,-0.020924333482980728,0.0,0.0,-0.6,0.0,0.0007114410400390625,0.0007119178771972656,0.003380298614501953,0
0.5093703269958496,0.012219415977597237,-0.004506553523242474,-0.0922672227025032,0.016015865588435943,0.7259627337235016,-0.02650853618979454,0.013595021329820156,-0.020653020590543747,0.0,0.0,-0.6,0.0,0.0006058216094970703,0.000606536865234375,0.003180980682373047,0
0.519371747970581,0.01197531633079052,-0.004447483457624912,-0.09746959805488586,0.015635445047023754,0.7247505683538509,-0.0270531103014946,0.01291282381862402,-0.020320462062954903,0.0,0.0,-0.6,0.0,0.0006299018859863281,0.0006303787231445312,0.0031363964080810547,0
0.5293912887573242,0.011858273297548294,-0.004409306216984987,-0.10013514757156372,0.015440521454460399,0.7236260149485323,-0.0274848323315382,0.0123154167085886,-0.020014561712741852,0.0,0.0,-0.6,0.0,0.0007169246673583984,0.0007176399230957031,0.003403902053833008,0
0.5394086837768555,0.01174385379999876,-0.004366103559732437,-0.10284292697906494,0.015213718552622723,0.7225703997227229,-0.027732886373996735,0.011681009083986282,-0.01971537619829178,0.0,0.0,-0.6,0.0,0.0006093978881835938,0.0006098747253417969,0.0030663013458251953,0
0.5493209362030029,0.011631729081273079,-0.004319850355386734,-0.10559018701314926,0.01500827041694287,0.7215810215675628,-0.02775966003537178,0.011071781627833843,-0.01942889578640461,0.0,0.0,-0.6,0.0,0.0007379055023193359,0.0007383823394775391,0.003429889678955078,0
0.559436559677124,0.011418071575462818,-0.00421848613768816,-0.1112164855003357,0.014626255902939865,0.7205216709508653,-0.027445727959275246,0.010412795469164848,-0.019085099920630455,0.0,0.0,-0.6,0.0,0.0008368492126464844,0.0008373260498046875,0.0037384033203125,0
0.5693988800048828,0.011319613084197044,-0.004160842392593622,-0.11407662183046341,0.01444541679623623,0.7195366831326101,-0.027122290804982185,0.009902914054691792,-0.01877661980688572,0.0,0.0,-0.6,0.0,0.000705718994140625,0.0007061958312988281,0.0032930374145507812,0
0.5794854164123535,0.011224519461393356,-0.004098848905414343,-0.11696670949459076,0.014262769092944614,0.718619607937655,-0.02674815244972706,0.009410426951944828,-0.018492188304662704,0.0,0.0,-0.6,0.0,0.0007221698760986328,0.0007226467132568359,0.003319978713989258,0
0.5893580913543701,0.011042742058634758,-0.003965750336647034,-0.12282593548297882,0.013902890692179875,0.7176352334629422,-0.026095539331436157,0.008878946304321289,-0.01815813034772873,0.0,0.0,-0.6,0.0,0.0005867481231689453,0.0005872249603271484,0.0032367706298828125,0
0.5994205474853516,0.010956021957099438,-0.0038952003233134747,-0.12579286098480225,0.013720242784071846,0.7167275402482765,-0.025467760860919952,0.00834241695702076,-0.017855796962976456,0.0,0.0,-0.6,0.0,0.0007035732269287109,0.0007042884826660156,0.003386974334716797,0
0.6093642711639404,0.010871457867324352,-0.0038204723969101906,-0.12878116965293884,0.013540736691094964,0.7158882429597818,-0.024922030046582222,0.007807568646967411,-0.017576847225427628,0.0,0.0,-0.6,0.0,0.0005826950073242188,0.0005831718444824219,0.0032367706298828125,0
0.6193621158599854,0.01078884769231081,-0.0037414326798170805,-0.1317889243364334,0.01336863173196254,0.7151030993070754,-0.024370985105633736,0.007308174856007099,-0.017317041754722595,0.0,0.0,-0.6,0.0,0.0006625652313232422,0.0006630420684814453,0.0032835006713867188,0
0.6294305324554443,0.010632275603711605,-0.00357446214184165,-0.13787996768951416,0.013065824568549895,0.71425,-0.02356538362801075,0.006760281976312399,-0.017021624371409416,0.0,0.0,-0.6,0.0,0.000682830810546875,0.0006833076477050781,0.003313779830932617,0
0.6394431591033936,0.010554983280599117,-0.003485853085294366,-0.14095045626163483,0.012898887282343344,0.713462314738673,-0.022781921550631523,0.006255624815821648,-0.016752230003476143,0.0,0.0,-0.6,0.0,0.00087738037109375,0.0008778572082519531,0.0038542747497558594,0
0.6492784023284912,0.010479962453246117,-0.003394183935597539,-0.14403483271598816,0.012720335304937073,0.7127314285789618,-0.022058935835957527,0.005805248860269785,-0.016496693715453148,0.0,0.0,-0.6,0.0,0.0007538795471191406,0.0007548332214355469,0.0034356117248535156,0
0.6593811511993408,0.010407221503555775,-0.003298778785392642,-0.14713145792484283,0.012549126764863623,0.7120484514485573,-0.021384913474321365,0.005366603843867779,-0.01625361479818821,0.0,0.0,-0.6,0.0,0.0006542205810546875,0.0006546974182128906,0.003566741943359375,0
0.6693835258483887,0.010335832834243774,-0.0032007505651563406,-0.15024082362651825,0.012405542964541612,0.7113985226138879,-0.020680297166109085,0.004935847595334053,-0.016029614955186844,0.0,0.0,-0.6,0.0,0.0006425380706787109,0.0006427764892578125,0.0035314559936523438,0
0.6794228553771973,0.010265632532536983,-0.0031011973042041063,-0.15336260199546814,0.01223524606371382,0.7107808350596356,-0.019975392147898674,0.004469760227948427,-0.01580895483493805,0.0,0.0,-0.6,0.0,0.0009515285491943359,0.0009520053863525391,0.003753662109375,0
0.6893689632415771,0.01012788899242878,-0.002898024395108223,-0.1596343070268631,0.011953027618427864,0.7101039285178168,-0.01908479630947113,0.0039858450181782246,-0.015548660419881344,0.0,0.0,-0.6,0.0,0.0006136894226074219,0.000614166259765625,0.003271818161010742,0
0.6993381977081299,0.010062383487820625,-0.0027933004312217236,-0.162791445851326,0.011798496251432613,0.7094769530381949,-0.01831110008060932,0.0036116456612944603,-0.015308503061532974,0.0,0.0,-0.6,0.0,0.0008196830749511719,0.000820159912109375,0.003568410873413086,0
0.7092921733856201,0.009998979978263378,-0.0026863652747124434,-0.16595417261123657,0.011680081548872519,0.7088904051229684,-0.017610661685466766,0.00328287435695529,-0.015095986425876617,0.0,0.0,-0.6,0.0,0.0007851123809814453,0.0007855892181396484,0.0037946701049804688,0
0.7193024158477783,0.00987208355218172,-0.0024660294875502586,-0.17229197919368744,0.011387127378374494,0.7082576167287259,-0.016645967960357666,0.003000307362526655,-0.014837365597486496,0.0,0.0,-0.6,0.0,0.0006945133209228516,0.0006949901580810547,0.003732919692993164,0
0.7294046878814697,0.009812353178858757,-0.0023548316676169634,-0.175465390086174,0.011258363912179832,0.7076769929866766,-0.01567681133747101,0.0028134810272604227,-0.014608042314648628,0.0,0.0,-0.6,0.0,0.0008230209350585938,0.0008234977722167969,0.0037994384765625,0
0.7393660545349121,0.009755031205713749,-0.002243361435830593,-0.1786397248506546,0.011130566520098566,0.7071364119527752,-0.0147189199924469,0.002631221665069461,-0.014399592764675617,0.0,0.0,-0.6,0.0,0.000774383544921875,0.0007750988006591797,0.0038475990295410156,0
0.7494022846221924,0.0096426447853446,-0.002016771351918578,-0.18499162793159485,0.010865058268464305,0.7065542061758775,-0.013771425001323223,0.0022849065717309713,-0.014154113829135895,0.0,0.0,-0.6,0.0,0.0006847381591796875,0.0006852149963378906,0.0034570693969726562,0
0.7593882083892822,0.009588802233338356,-0.0019000611500814557,-0.18816730380058289,0.010732724468329624,0.7060205099747773,-0.012883169576525688,0.002036740304902196,-0.013932652771472931,0.0,0.0,-0.6,0.0,0.0008292198181152344,0.0008296966552734375,0.0037910938262939453,0
0.7693700790405273,0.00953714456409216,-0.0017836925107985735,-0.19135713577270508,0.010621649056231744,0.705523044363102,-0.012029026634991169,0.0018742760876193643,-0.013735976070165634,0.0,0.0,-0.6,0.0,0.0006000995635986328,0.0006003379821777344,0.0031986236572265625,0
0.7794313430786133,0.009488124400377274,-0.001666833646595478,-0.19454440474510193,0.010507312685910304,0.7050608284471429,-0.011247347109019756,0.0018158664461225271,-0.013555425219237804,0.0,0.0,-0.6,0.0,0.0007283687591552734,0.0007288455963134766,0.0033385753631591797,0
0.7894473075866699,0.009395023807883263,-0.0014348563272505999,-0.20090407133102417,0.010226449975679484,0.7045681683362821,-0.010227736085653305,0.001784936641342938,-0.013323715887963772,0.0,0.0,-0.6,0.0,0.0007214546203613281,0.0007221698760986328,0.0038738250732421875,0
0.7994785308837891,0.009351003915071487,-0.0013199468376114964,-0.20407533645629883,0.010111098828100002,0.7041179562104057,-0.009274103678762913,0.0017563613364472985,-0.013118262402713299,0.0,0.0,-0.6,0.0,0.0009081363677978516,0.0009088516235351562,0.004435539245605469,0
0.8093154430389404,0.00930962897837162,-0.0012044820468872786,-0.20723998546600342,0.009990292845831509,0.7036981320744748,-0.008412896655499935,0.0018902630545198917,-0.012929141521453857,0.0,0.0,-0.6,0.0,0.000827789306640625,0.0008282661437988281,0.0036172866821289062,0
0.8194022178649902,0.009272607043385506,-0.0010885512456297874,-0.21039940416812897,0.009842707522547112,0.7032990959163343,-0.007639069110155106,0.0020612762309610844,-0.012741412967443466,0.0,0.0,-0.6,0.0,0.0006976127624511719,0.0006978511810302734,0.003216266632080078,0
0.8293290138244629,0.009205157868564129,-0.0008551101782359183,-0.2166985273361206,0.009595233178723269,0.7028717596851941,-0.006805891636759043,0.002283367794007063,-0.012517198920249939,0.0,0.0,-0.6,0.0,0.0007259845733642578,0.0007264614105224609,0.0033605098724365234,0
0.8393654823303223,0.00917443260550499,-0.000738839094992727,-0.21987810730934143,0.009485693794589791,0.702475038552602,-0.0059967306442558765,0.002413809997960925,-0.012319172732532024,0.0,0.0,-0.6,0.0,0.0005857944488525391,0.0005862712860107422,0.002955198287963867,0
0.849311351776123,0.009143918752670288,-0.000624224019702524,-0.22304745018482208,0.009359096652702582,0.7021085493871762,-0.005226256791502237,0.0024626865051686764,-0.012133081443607807,0.0,0.0,-0.6,0.0,0.0007236003875732422,0.0007243156433105469,0.003403186798095703,0
0.8593637943267822,0.009104753844439983,-0.0005125836469233036,-0.22620533406734467,0.009261233786092862,0.7017662923196509,-0.004437929484993219,0.002555286744609475,-0.011966118589043617,0.0,0.0,-0.6,0.0,0.0005786418914794922,0.0005791187286376953,0.0030493736267089844,0
0.8693811893463135,0.009029383771121502,-0.0002960230049211532,-0.23248393833637238,0.009003793881689634,0.7014068099286405,-0.003431322518736124,0.002571253338828683,-0.011752704158425331,0.0,0.0,-0.6,0.0,0.0005464553833007812,0.0005466938018798828,0.0030486583709716797,0
0.8795144557952881,0.008992278948426247,-0.00018951090169139206,-0.23560228943824768,0.008901047701309147,0.7010813395030494,-0.002578293439000845,0.002545870142057538,-0.011564784683287144,0.0,0.0,-0.6,0.0,0.0006847381591796875,0.0006852149963378906,0.003264904022216797,0
0.8893816471099854,0.008946350775659084,-0.00016329952632077038,-0.2386929988861084,0.008797009497868961,0.7007807518291134,-0.001660996931605041,0.0025010984390974045,-0.011394226923584938,0.0,0.0,-0.6,0.0,0.0005540847778320312,0.0005545616149902344,0.0030176639556884766,0
0.8993580341339111,0.008900914341211319,-0.00013841394684277475,-0.24177052080631256,0.008658765936904468,0.7004993753901373,-0.0007283264421857893,0.0024187921080738306,-0.01122299488633871,0.0,0.0,-0.6,0.0,0.0005543231964111328,0.0005545616149902344,0.0029511451721191406,0
0.9094042778015137,0.008855951949954033,-0.00011520960106281564,-0.24483495950698853,0.008527783863449687,0.7002344187798972,0.00027934249374084175,0.0023046538699418306,-0.011054013855755329,0.0,0.0,-0.6,0.0,0.000629425048828125,0.0006299018859863281,0.003173351287841797,0
0.9193763732910156,0.008765684440732002,-7.462418579962105e-05,-0.2509775161743164,0.00830608008873598,0.6999459747382945,0.0015577023150399327,0.002056584693491459,-0.010852588340640068,0.0,0.0,-0.6,0.0,0.0005657672882080078,0.0005660057067871094,0.0029942989349365234,0
0.9293632507324219,0.008717328310012817,-5.4049967729952186e-05,-0.25402575731277466,0.008196054771751888,0.6996833357648513,0.00258996500633657,0.0016820310847833753,-0.010670331306755543,0.0,0.0,-0.6,0.0,0.0005581378936767578,0.0005586147308349609,0.0029897689819335938,0
0.9393610954284668,0.008667458780109882,-3.218729398213327e-05,-0.25705596804618835,0.008095250196586514,0.6994471136354175,0.0034019111189991236,0.0013453859137371182,-0.01050494983792305,0.0,0.0,-0.6,0.0,0.0006051063537597656,0.0006058216094970703,0.003136873245239258,0
0.9493718147277832,0.00856811087578535,1.0638657840900123e-05,-0.26306065917015076,0.007885095625654667,0.6992043308816589,0.004404538776725531,0.0010529409628361464,-0.01031037513166666,0.0,0.0,-0.6,0.0,0.0006060600280761719,0.0006072521209716797,0.0031099319458007812,0
0.959416389465332,0.008518142625689507,3.1051044061314315e-05,-0.2660352885723114,0.0078033365091408026,0.6989837686085995,0.00516798160970211,0.0007569266017526388,-0.010143513791263103,0.0,0.0,-0.6,0.0,0.0005795955657958984,0.000579833984375,0.0034856796264648438,0
0.9693887233734131,0.008467283099889755,5.121912545291707e-05,-0.26899245381355286,0.007716041693287438,0.6987754299551283,0.0059231859631836414,0.00046458980068564415,-0.00999397411942482,0.0,0.0,-0.6,0.0,0.0011265277862548828,0.001127481460571289,0.0054934024810791016,0
0.9794363975524902,0.008415992371737957,7.083993114065379e-05,-0.27193379402160645,0.007621097824873779,0.6985771722257029,0.006555999629199505,0.0001305946643697098,-0.009853692725300789,0.0,0.0,-0.6,0.0,0.0008242130279541016,0.0008246898651123047,0.0035829544067382812,0
0.9893772602081299,0.008314484730362892,0.0001115312916226685,-0.2777724266052246,0.007376884563367254,0.6983679054796729,0.007212625350803137,-8.672695548739284e-05,-0.009663916192948818,0.0,0.0,-0.6,0.0,0.0006444454193115234,0.0006449222564697266,0.003165721893310547,0
0.999382495880127,0.008267389610409737,0.00013360235607251525,-0.28066524863243103,0.007289174023701118,0.6981737749387661,0.0077970996499061584,-0.00021874174126423895,-0.009498181752860546,0.0,0.0,-0.6,0.0,0.0009465217590332031,0.0009477138519287109,0.003636598587036133,0
1.0093824863433838,0.008222226984798908,0.00015508747310377657,-0.2835392951965332,0.007215402050577319,0.6979971804461467,0.008269385434687138,-0.00031030422542244196,-0.009354502893984318,0.0,0.0,-0.6,0.0,0.0006556510925292969,0.0006561279296875,0.0031769275665283203,0
1.0193731784820557,0.008178737945854664,0.00017679031589068472,-0.2863933742046356,0.007128883275265777,0.6978371936053119,0.008685893379151821,-0.0003535885480232537,-0.009221483021974564,0.0,0.0,-0.6,0.0,0.0005755424499511719,0.000576019287109375,0.003049135208129883,0
1.029362678527832,0.008097955957055092,0.00021790701430290937,-0.2920409142971039,0.006961343792023201,0.6976738838648285,0.009118827059864998,-0.0002109284687321633,-0.009065542370080948,0.0,0.0,-0.6,0.0,0.0005657672882080078,0.0005664825439453125,0.003038167953491211,0
1.0394656658172607,0.00806057546287775,0.000238627108046785,-0.29483336210250854,0.00687702514379722,0.6975287612368597,0.009398231282830238,-8.411221642745659e-05,-0.008924764581024647,0.0,0.0,-0.6,0.0,0.00061798095703125,0.0006186962127685547,0.0035622119903564453,0
1.0495386123657227,0.008023249916732311,0.0002588845381978899,-0.29760506749153137,0.0067958857767859565,0.6973964666337568,0.009654015302658081,-7.559835648862645e-05,-0.008795792236924171,0.0,0.0,-0.6,0.0,0.0011305809020996094,0.0011315345764160156,0.0051364898681640625,0
1.0594658851623535,0.007986189797520638,0.0002784205717034638,-0.30035629868507385,0.006746646679514599,0.6972711662289061,0.009876973927021027,-2.605767804197967e-05,-0.00868704728782177,0.0,0.0,-0.6,0.0,0.0008103847503662109,0.0008113384246826172,0.004975080490112305,0
1.0693635940551758,0.007950744591653347,0.0002974583185277879,-0.303088515996933,0.006667597787213327,0.6971522360879383,0.010054375976324081,3.244070467189886e-05,-0.008581282570958138,0.0,0.0,-0.6,0.0,0.0008821487426757812,0.0008826255798339844,0.004106760025024414,0
1.0796244144439697,0.007879026234149933,0.00033158197766169906,-0.3084922134876251,0.006493385479289092,0.6970290929445424,0.010255161672830582,9.805306035559624e-05,-0.008441917598247528,0.0,0.0,-0.6,0.0,0.0008518695831298828,0.0008525848388671875,0.003834247589111328,0
1.0893750190734863,0.007844900712370872,0.00034939206670969725,-0.3111622929573059,0.006434451882392059,0.6969217731371128,0.010332226753234863,0.00014452484901994467,-0.008322262205183506,0.0,0.0,-0.6,0.0,0.0008687973022460938,0.0008695125579833984,0.003931283950805664,0
1.0993924140930176,0.007811475545167923,0.0003660496440716088,-0.3138106167316437,0.006344559122413341,0.696824753317817,0.010537795722484589,0.0002372118178755045,-0.008204793557524681,0.0,0.0,-0.6,0.0,0.0008373260498046875,0.0008378028869628906,0.0037496089935302734,0
1.109304666519165,0.007780402433127165,0.00038001465145498514,-0.3164380192756653,0.006266295881722537,0.6967349778941553,0.010798036120831966,0.000419082585722208,-0.008093216456472874,0.0,0.0,-0.6,0.0,0.0007841587066650391,0.0007848739624023438,0.0039670467376708984,0
1.1193222999572754,0.007725885137915611,0.00040392199298366904,-0.3216305375099182,0.006078952235532,0.6966409165991916,0.010929889045655727,0.0007313821697607636,-0.007944859564304352,0.0,0.0,-0.6,0.0,0.0008697509765625,0.0008704662322998047,0.0037581920623779297,0
1.1292963027954102,0.007701738737523556,0.0004148928273934871,-0.3241787254810333,0.005998543601260475,0.6965557890066458,0.011003904044628143,0.0011066215811297297,-0.007810855749994516,0.0,0.0,-0.6,0.0,0.0008590221405029297,0.0008616447448730469,0.003900766372680664,0
1.1395647525787354,0.007681424729526043,0.00042555120307952166,-0.32670602202415466,0.005900037067085913,0.6964811673856451,0.01100117340683937,0.0016202034894376993,-0.007680113427340984,0.0,0.0,-0.6,0.0,0.001295328140258789,0.0012960433959960938,0.005925416946411133,0
1.1492900848388672,0.00766352005302906,0.00043509225361049175,-0.32921284437179565,0.005814254259650199,0.6964098348212433,0.01096885185688734,0.0022018039599061012,-0.00755642494186759,0.0,0.0,-0.6,0.0,0.0007281303405761719,0.000728607177734375,0.003625154495239258,0
1.1596672534942627,0.007648136001080275,0.00044408091343939304,-0.3317003846168518,0.005732629476797626,0.6963428517290777,0.0109431566670537,0.0026587622705847025,-0.0074392338283360004,0.0,0.0,-0.6,0.0,0.0018088817596435547,0.0018105506896972656,0.006506204605102539,0
1.1692626476287842,0.007622151635587215,0.0004589294549077749,-0.3366113603115082,0.005574435641172332,0.6962821422084009,0.010936114937067032,0.0031582345254719257,-0.007297877222299576,0.0,0.0,-0.6,0.0,0.0006515979766845703,0.0006520748138427734,0.0033249855041503906,0
1.1794865131378174,0.007612551096826792,0.00046435947297140956,-0.33903390169143677,0.005512611629249485,0.6962342227636288,0.010960202664136887,0.0036274620797485113,-0.007175743579864502,0.0,0.0,-0.6,0.0,0.0007321834564208984,0.0007326602935791016,0.0033876895904541016,0
1.1893713474273682,0.007597330026328564,0.00046933983685448766,-0.3438097834587097,0.005367155534761672,0.6961981929771004,0.011049275286495686,0.003957248292863369,-0.007035703863948584,0.0,0.0,-0.6,0.0,0.0006148815155029297,0.0006153583526611328,0.0033173561096191406,0
1.199388027191162,0.007591634057462215,0.00046986836241558194,-0.3461802005767822,0.005283522535469466,0.696167303397973,0.01107187382876873,0.004302126821130514,-0.006906313356012106,0.0,0.0,-0.6,0.0,0.0007002353668212891,0.0007007122039794922,0.0032455921173095703,0
1.2093892097473145,0.007589004933834076,0.0004707947082351893,-0.34852781891822815,0.0052211400693133285,0.6961458330607528,0.010957694612443447,0.004705723840743303,-0.0067923469468951225,0.0,0.0,-0.6,0.0,0.0006847381591796875,0.0006852149963378906,0.003338336944580078,0
1.2193992137908936,0.007588718086481094,0.00047219826956279576,-0.350851446390152,0.00515738949043932,0.6961330369354107,0.010826356709003448,0.004996960051357746,-0.006688663735985756,0.0,0.0,-0.6,0.0,0.000701904296875,0.0007021427154541016,0.003350973129272461,0
1.2294211387634277,0.00759129598736763,0.000474633154226467,-0.3554283082485199,0.005043715467781918,0.6961296612361582,0.010650813579559326,0.005336245987564325,-0.006573457736521959,0.0,0.0,-0.6,0.0,0.0007407665252685547,0.0007412433624267578,0.003419637680053711,0
1.2393779754638672,0.007596102077513933,0.0004743751778732985,-0.35768264532089233,0.004978189927703513,0.6961272275836319,0.01048591360449791,0.005739581771194935,-0.006468241568654776,0.0,0.0,-0.6,0.0,0.0006494522094726562,0.0006499290466308594,0.003206968307495117,0
1.249373197555542,0.007602371741086245,0.00047420462942682207,-0.3599149286746979,0.004922122614841727,0.6961282481485003,0.010195366106927395,0.006027275696396828,-0.006373564712703228,0.0,0.0,-0.6,0.0,0.0006315708160400391,0.0006320476531982422,0.0031766891479492188,0
1.2594616413116455,0.00760904885828495,0.000475641165394336,-0.362125039100647,0.004870053079316904,0.6961307210502558,0.009838643483817577,0.006219645030796528,-0.006287765223532915,0.0,0.0,-0.6,0.0,0.0009241104125976562,0.0009245872497558594,0.004227876663208008,0
1.2694168090820312,0.00762381823733449,0.00048041297122836113,-0.36649781465530396,0.004774135654762966,0.696153565588951,0.009326157160103321,0.006372079253196716,-0.006191736087203026,0.0,0.0,-0.6,0.0,0.0007727146148681641,0.0007729530334472656,0.0036623477935791016,0
1.2797801494598389,0.007632434833794832,0.0004837680608034134,-0.36865857243537903,0.004719600801275298,0.6961810409699544,0.008768108673393726,0.006421509198844433,-0.0061040655709803104,0.0,0.0,-0.6,0.0,0.0013523101806640625,0.0013530254364013672,0.006555080413818359,0
1.2892873287200928,0.007631182204931974,0.0006190416752360761,-0.37097492814064026,0.004644747333320925,0.696206709969214,0.008109214715659618,0.006466373335570097,-0.006014626007527113,0.0,0.0,-0.6,0.0,0.0006535053253173828,0.0006539821624755859,0.003474712371826172,0
1.2992820739746094,0.0076315440237522125,0.000752887804992497,-0.37326350808143616,0.004577742940646363,0.6962273937136301,0.0073469337075948715,0.006548307370394468,-0.005926891695708036,0.0,0.0,-0.6,0.0,0.0007185935974121094,0.0007190704345703125,0.0033109188079833984,0
1.3092904090881348,0.0076352390460669994,0.0010130938608199358,-0.3777560293674469,0.00445511387479908,0.6962548665471376,0.00652209110558033,0.006533283740282059,-0.005819491110742092,0.0,0.0,-0.6,0.0,0.0007321834564208984,0.0007326602935791016,0.003391265869140625,0
1.3193788528442383,0.007638353854417801,0.0011384997051209211,-0.3799600601196289,0.0043792542910443275,0.6962821814532836,0.005725132767111063,0.0065440647304058075,-0.0057158637791872025,0.0,0.0,-0.6,0.0,0.0006449222564697266,0.0006453990936279297,0.0031235218048095703,0
1.3293280601501465,0.0076443650759756565,0.0012626092648133636,-0.3821382522583008,0.004288460639509446,0.6963015681888363,0.0049234614707529545,0.006647580303251743,-0.005609276704490185,0.0,0.0,-0.6,0.0,0.0007696151733398438,0.0007719993591308594,0.003414630889892578,0
1.3393640518188477,0.007653149776160717,0.0013857176527380943,-0.3842911422252655,0.004209332918223402,0.6963178150085555,0.004143277648836374,0.006755115929991007,-0.0055049932561814785,0.0,0.0,-0.6,0.0,0.0006799697875976562,0.0006809234619140625,0.0037376880645751953,0
1.3493983745574951,0.0076632192358374596,0.001508198562078178,-0.38642802834510803,0.004136547133900956,0.6963329234685703,0.0033356889616698027,0.006815450731664896,-0.005404700059443712,0.0,0.0,-0.6,0.0,0.0006518363952636719,0.000652313232421875,0.003162384033203125,0
1.359429121017456,0.007675316650420427,0.0016302061267197132,-0.38853880763053894,0.0040786644487116365,0.6963476784671379,0.0024933635722845793,0.006946794223040342,-0.005312788765877485,0.0,0.0,-0.6,0.0,0.0009260177612304688,0.0009264945983886719,0.0036432743072509766,0
1.3693673610687256,0.007703539449721575,0.0018701129592955112,-0.3926849961280823,0.003998458184931303,0.6963647484036445,0.0015349049353972077,0.006967511959373951,-0.005218373611569405,0.0,0.0,-0.6,0.0,0.0005800724029541016,0.0005803108215332031,0.0030374526977539062,0
1.379469633102417,0.007719470653682947,0.0019875457510352135,-0.39471977949142456,0.003950656691267327,0.6963851141250695,0.0006732245674356818,0.00703029427677393,-0.00513435760512948,0.0,0.0,-0.6,0.0,0.0007898807525634766,0.0007903575897216797,0.0033347606658935547,0
1.3893420696258545,0.007736696861684322,0.0021032376680523157,-0.39672860503196716,0.0039049243734330928,0.6964083829920426,-8.885686111170799e-05,0.00705837644636631,-0.005058396607637405,0.0,0.0,-0.6,0.0,0.0011823177337646484,0.0011835098266601562,0.0045206546783447266,0
1.3992977142333984,0.007777631748467684,0.002335367724299431,-0.4006713032722473,0.003815552257695323,0.696438910086643,-0.001154798548668623,0.007233526092022657,-0.004971708636730909,0.0,0.0,-0.6,0.0,0.0007898807525634766,0.0007903575897216797,0.0035338401794433594,0
1.4094107151031494,0.007801813073456287,0.0024511313531547785,-0.40260517597198486,0.003780453878219556,0.6964699460745521,-0.002098851604387164,0.007398145738989115,-0.00489786546677351,0.0,0.0,-0.6,0.0,0.0007207393646240234,0.000720977783203125,0.0035448074340820312,0
1.4193589687347412,0.007828367874026299,0.0025665226858109236,-0.4045492708683014,0.0037134313077814675,0.6964993722533621,-0.0029225239995867014,0.007607059553265572,-0.004821042064577341,0.0,0.0,-0.6,0.0,0.0006287097930908203,0.0006291866302490234,0.0031118392944335938,0
1.429398775100708,0.007888704538345337,0.002792385406792164,-0.40836450457572937,0.003610212277486504,0.6965302881874612,-0.0036548664793372154,0.00785521138459444,-0.004728558473289013,0.0,0.0,-0.6,0.0,0.0007536411285400391,0.0007541179656982422,0.003434419631958008,0
1.4393842220306396,0.007922078482806683,0.0029027152340859175,-0.41023632884025574,0.003563872068135589,0.696558770587582,-0.004309764131903648,0.0081049595028162,-0.0046464428305625916,0.0,0.0,-0.6,0.0,0.0006039142608642578,0.0006043910980224609,0.0032126903533935547,0
1.4495205879211426,0.007957670837640762,0.0030124811455607414,-0.41208478808403015,0.0035069381543418447,0.6965850943245172,-0.004939616192132235,0.008339670486748219,-0.004567611496895552,0.0,0.0,-0.6,0.0,0.0016009807586669922,0.0016016960144042969,0.0076673030853271484,0
1.4595873355865479,0.007993616163730621,0.0031229695305228233,-0.4139101207256317,0.0034467819625839118,0.6966113387342663,-0.00562529731541872,0.008415055461227894,-0.0044898707419633865,0.0,0.0,-0.6,0.0,0.0010838508605957031,0.0010845661163330078,0.004896879196166992,0
1.4693400859832764,0.008064491674304008,0.003343225922435522,-0.4174838662147522,0.0033296154494863502,0.6966630012119303,-0.006388823501765728,0.00837776530534029,-0.004391514230519533,0.0,0.0,-0.6,0.0,0.0008790493011474609,0.0008795261383056641,0.0037887096405029297,0
1.4795851707458496,0.00810137577354908,0.003452826989814639,-0.4192316234111786,0.003279028145034401,0.6967190141448866,-0.007085555233061314,0.008415551856160164,-0.004303694702684879,0.0,0.0,-0.6,0.0,0.0008184909820556641,0.0008189678192138672,0.0036058425903320312,0
1.4893908500671387,0.00814038049429655,0.003561786375939846,-0.4209672808647156,0.0032242145143236475,0.6967707873033498,-0.007711633574217558,0.008507538586854935,-0.0042216661386191845,0.0,0.0,-0.6,0.0,0.0013549327850341797,0.0013561248779296875,0.006905317306518555,0
1.4995179176330566,0.00818148348480463,0.0036713641602545977,-0.4226807951927185,0.003191733317714285,0.6968161644946719,-0.008298694156110287,0.008659028448164463,-0.004152065608650446,0.0,0.0,-0.6,0.0,0.0008301734924316406,0.0008308887481689453,0.0037162303924560547,0
1.509326457977295,0.008265052922070026,0.0038908147253096104,-0.42603904008865356,0.0031406617118644392,0.6968736568616132,-0.008738435804843903,0.008565899915993214,-0.004084193613380194,0.0,0.0,-0.6,0.0,0.0010094642639160156,0.0010101795196533203,0.003905057907104492,0
1.5194072723388672,0.008307166397571564,0.003998772706836462,-0.427681565284729,0.003113609586419604,0.6969338507680546,-0.008976157754659653,0.00853055715560913,-0.004026538692414761,0.0,0.0,-0.6,0.0,0.0006277561187744141,0.0006282329559326172,0.0030531883239746094,0
1.5293288230895996,0.00835143681615591,0.004105184227228165,-0.4293007552623749,0.0030780530967058103,0.6969912170155954,-0.009190983138978481,0.008542465046048164,-0.003972847014665604,0.0,0.0,-0.6,0.0,0.0008044242858886719,0.0008051395416259766,0.0035631656646728516,0
1.539247751235962,0.0083969347178936,0.004211208317428827,-0.4308968782424927,0.0030329052674567137,0.6970503042468524,-0.009375574998557568,0.008547050878405571,-0.003918332047760487,0.0,0.0,-0.6,0.0,0.0006163120269775391,0.0006167888641357422,0.0031003952026367188,0
1.5493974685668945,0.008488831110298634,0.004420834127813578,-0.43402010202407837,0.0029180559011532793,0.6971180903730638,-0.009533744305372238,0.008419192396104336,-0.003837103024125099,0.0,0.0,-0.6,0.0,0.000698089599609375,0.0007007122039794922,0.0032694339752197266,0
1.5596027374267578,0.008535520173609257,0.004526000004261732,-0.4355587661266327,0.0028642718400260724,0.6971876347510666,-0.0097130686044693,0.008290685713291168,-0.0037600737996399403,0.0,0.0,-0.6,0.0,0.0008699893951416016,0.0008707046508789062,0.003573179244995117,0
1.5693895816802979,0.008583403192460537,0.004631514195352793,-0.4370734393596649,0.0028137663214278822,0.6972593288886622,-0.009831659495830536,0.008166688494384289,-0.003687213873490691,0.0,0.0,-0.6,0.0,0.0006463527679443359,0.0006468296051025391,0.003238677978515625,0
1.5793931484222412,0.008634616620838642,0.004735623486340046,-0.4385659694671631,0.002780307645462074,0.697323609019575,-0.00994548574090004,0.008104960434138775,-0.0036236648447811604,0.0,0.0,-0.6,0.0,0.0007305145263671875,0.0007307529449462891,0.0032830238342285156,0
1.589249849319458,0.00868779607117176,0.004838936496526003,-0.4400378167629242,0.0027233750160137018,0.6973864339202166,-0.009976976551115513,0.008107603527605534,-0.003557831048965454,0.0,0.0,-0.6,0.0,0.0005745887756347656,0.0005753040313720703,0.003270864486694336,0
1.5994377136230469,0.008799195289611816,0.0050400118343532085,-0.4429149031639099,0.002652143602400657,0.6974669664004898,-0.009783039800822735,0.008175023831427097,-0.003485035849735141,0.0,0.0,-0.6,0.0,0.0008509159088134766,0.0008513927459716797,0.003551483154296875,0
1.6093990802764893,0.008857125416398048,0.005137337371706963,-0.4443206191062927,0.0026176442254448344,0.6975426712722023,-0.009561771526932716,0.00825089868158102,-0.0034211419988423586,0.0,0.0,-0.6,0.0,0.0006923675537109375,0.0006928443908691406,0.003296375274658203,0
1.6193621158599854,0.008916450664401054,0.005233796779066324,-0.4457049071788788,0.00257996419660087,0.6976184864958936,-0.009364677593111992,0.008289791643619537,-0.003362286137416959,0.0,0.0,-0.6,0.0,0.0006222724914550781,0.0006227493286132812,0.0031156539916992188,0
1.6293268203735352,0.008976401761174202,0.005330030340701342,-0.44706758856773376,0.0025593541435190753,0.6976936677070966,-0.009241698309779167,0.008299079723656178,-0.00331335817463696,0.0,0.0,-0.6,0.0,0.0007231235504150391,0.0007233619689941406,0.0033245086669921875,0
1.6392440795898438,0.009099734015762806,0.00551997683942318,-0.4497282803058624,0.0025427074248862308,0.6977829043668459,-0.009009800851345062,0.008234954439103603,-0.0032728661317378283,0.0,0.0,-0.6,0.0,0.0005929470062255859,0.0005934238433837891,0.0030350685119628906,0
1.6493990421295166,0.009160429239273071,0.005612073466181755,-0.4510272741317749,0.0025254005841747382,0.6978684493699446,-0.00868426263332367,0.008169588632881641,-0.0032380318734794855,0.0,0.0,-0.6,0.0,0.0006525516510009766,0.0006530284881591797,0.0032274723052978516,0
1.6594603061676025,0.009220970794558525,0.005701815709471703,-0.4523058235645294,0.0024994771561502524,0.6979533977620498,-0.00832090899348259,0.007971299812197685,-0.003203926607966423,0.0,0.0,-0.6,0.0,0.0007393360137939453,0.00074005126953125,0.0034732818603515625,0
1.669358253479004,0.00933895818889141,0.005877192597836256,-0.4548005163669586,0.0024348412520976454,0.6980545877319421,-0.007926534861326218,0.007508739363402128,-0.0031558140181005,0.0,0.0,-0.6,0.0,0.0006384849548339844,0.0006389617919921875,0.0032134056091308594,0
1.679518699645996,0.009396396577358246,0.005963074509054422,-0.45601657032966614,0.002419635522434313,0.6981583489508834,-0.007545056752860546,0.007054964546114206,-0.0031164330430328846,0.0,0.0,-0.6,0.0,0.0008389949798583984,0.0008394718170166016,0.0035848617553710938,0
1.6892881393432617,0.009344813413918018,0.006285953801125288,-0.4574914276599884,0.0023874214103326006,0.6982570074856844,-0.007391422055661678,0.006503087468445301,-0.003076785709708929,0.0,0.0,-0.6,0.0,0.0006048679351806641,0.0006053447723388672,0.003239154815673828,0
1.6994330883026123,0.009294867515563965,0.006602022796869278,-0.45893847942352295,0.002367797296305894,0.698344184860139,-0.007275932934135199,0.006008275784552097,-0.0030416736844927073,0.0,0.0,-0.6,0.0,0.0006804466247558594,0.0006811618804931641,0.003334522247314453,0
1.7093920707702637,0.009247908368706703,0.006911713629961014,-0.46035876870155334,0.0023204838805212197,0.6984230160134414,-0.007302652113139629,0.005584515165537596,-0.0029993525240570307,0.0,0.0,-0.6,0.0,0.0007386207580566406,0.0007390975952148438,0.0035016536712646484,0
1.7194180488586426,0.009161155670881271,0.00751403346657753,-0.4631212055683136,0.002281121523474948,0.6985036787642246,-0.007478008512407541,0.004892380442470312,-0.0029549666214734316,0.0,0.0,-0.6,0.0,0.0006668567657470703,0.0006673336029052734,0.003387451171875,0
1.7294402122497559,0.009120503440499306,0.007807090412825346,-0.46446555852890015,0.0022435205563616097,0.6985758026011056,-0.00768378796055913,0.004237434361129999,-0.002909796079620719,0.0,0.0,-0.6,0.0,0.0007433891296386719,0.000743865966796875,0.003610849380493164,0
1.7392916679382324,0.009081238880753517,0.008094863966107368,-0.46578606963157654,0.0022006093023266057,0.6986400159020333,-0.007892032153904438,0.0036398814991116524,-0.002862085122615099,0.0,0.0,-0.6,0.0,0.0006129741668701172,0.0006134510040283203,0.0032851696014404297,0
1.7494194507598877,0.009008314460515976,0.008649910800158978,-0.4683539867401123,0.0021434141237710548,0.6987141228249317,-0.00793076679110527,0.002987324260175228,-0.0028072395361959934,0.0,0.0,-0.6,0.0,0.0008378028869628906,0.0008382797241210938,0.0037834644317626953,0
1.7595303058624268,0.008974228985607624,0.00891866348683834,-0.46960312128067017,0.002111010852245112,0.6987806723375323,-0.007937599904835224,0.0023801513016223907,-0.0027566964272409678,0.0,0.0,-0.6,0.0,0.001050710678100586,0.001051187515258789,0.004698038101196289,0
1.769416332244873,0.008942043408751488,0.009181291796267033,-0.4708285331726074,0.002098782214131503,0.6988492113659498,-0.007889363914728165,0.0018742119427770376,-0.0027167305815964937,0.0,0.0,-0.6,0.0,0.0007662773132324219,0.000766754150390625,0.0037162303924560547,0
1.7794313430786133,0.00891104806214571,0.009439175948500633,-0.47204461693763733,0.0020811853176055466,0.6989122292217087,-0.007883531972765923,0.0013278467813506722,-0.0026821554638445377,0.0,0.0,-0.6,0.0,0.0008966922760009766,0.0008971691131591797,0.0043108463287353516,0
1.7893903255462646,0.00885459128767252,0.009943193756043911,-0.4744061231613159,0.0020255624629892536,0.6989904567640342,-0.007966689765453339,0.0007374018314294517,-0.0026370941195636988,0.0,0.0,-0.6,0.0,0.0008394718170166016,0.0008399486541748047,0.004707813262939453,0
1.799530029296875,0.00882800668478012,0.010188663378357887,-0.47555336356163025,0.0019925321443269336,0.6990615589552535,-0.008053915575146675,0.00014440406812354922,-0.002593164797872305,0.0,0.0,-0.6,0.0,0.0015130043029785156,0.0015175342559814453,0.007884979248046875,0
1.8094854354858398,0.008802510797977448,0.010429331101477146,-0.47667932510375977,0.0019678271489269278,0.6991276884828856,-0.008087492547929287,-0.0003960393078159541,-0.0025531500577926636,0.0,0.0,-0.6,0.0,0.001720428466796875,0.0017218589782714844,0.008764266967773438,0
1.8193862438201904,0.00877962913364172,0.010665755718946457,-0.4777844548225403,0.0019495735836306547,0.699191153604693,-0.00819537416100502,-0.0008213155088014901,-0.002518294844776392,0.0,0.0,-0.6,0.0,0.0007483959197998047,0.0007488727569580078,0.0037920475006103516,0
1.829477071762085,0.008737706579267979,0.011129205115139484,-0.4799307584762573,0.0019312861225212685,0.6992685327848206,-0.008477036841213703,-0.001340978080406785,-0.002487038029357791,0.0,0.0,-0.6,0.0,0.0008134841918945312,0.0008139610290527344,0.0037393569946289062,0
1.8394296169281006,0.008717845194041729,0.011356452479958534,-0.48097214102745056,0.0018768234642289796,0.6993427769111322,-0.008744698017835617,-0.0017500175163149834,-0.0024447350297123194,0.0,0.0,-0.6,0.0,0.0007908344268798828,0.0007910728454589844,0.004086732864379883,0
1.849426507949829,0.008699190802872181,0.011579764075577259,-0.4820038676261902,0.0018585716917279573,0.699413847765974,-0.0089767687022686,-0.002078991150483489,-0.00240827864035964,0.0,0.0,-0.6,0.0,0.0008101463317871094,0.0008106231689453125,0.0036542415618896484,0
1.8594293594360352,0.008681192994117737,0.011798285879194736,-0.4830149710178375,0.0018307606185996284,0.6994849904782453,-0.009054366499185562,-0.00238695926964283,-0.00237233005464077,0.0,0.0,-0.6,0.0,0.0007302761077880859,0.0007307529449462891,0.0033173561096191406,0
1.8693675994873047,0.008642863482236862,0.01222500391304493,-0.48497331142425537,0.0018083995354674538,0.6995782091202837,-0.009054230526089668,-0.0026676335837692022,-0.0023387805558741093,0.0,0.0,-0.6,0.0,0.0005741119384765625,0.0005745887756347656,0.003098011016845703,0
1.879420518875122,0.008625414222478867,0.01243192981928587,-0.4859198033809662,0.0017905687899867663,0.6996682124481377,-0.009024941362440586,-0.002937228884547949,-0.0023086094297468662,0.0,0.0,-0.6,0.0,0.0008924007415771484,0.0008928775787353516,0.003940582275390625,0
1.889308214187622,0.008608042262494564,0.012635345570743084,-0.4868466854095459,0.0017586701864924657,0.6997534776417043,-0.009043650701642036,-0.0032007726840674877,-0.002275527687743306,0.0,0.0,-0.6,0.0,0.0008485317230224609,0.0008490085601806641,0.0042917728424072266,0
1.8995585441589355,0.008590858429670334,0.012835663743317127,-0.4877549409866333,0.0017192739570377218,0.6998318573300265,-0.009025614708662033,-0.003490295959636569,-0.002237596781924367,0.0,0.0,-0.6,0.0,0.0010216236114501953,0.0010223388671875,0.004423379898071289,0
1.909287691116333,0.0085593331605196,0.013224966824054718,-0.48951491713523865,0.00167121337797321,0.6999247620870354,-0.009027820080518723,-0.003637956688180566,-0.002193022519350052,0.0,0.0,-0.6,0.0,0.0007114410400390625,0.0007119178771972656,0.0033311843872070312,0
1.9194023609161377,0.008545727469027042,0.013414121232926846,-0.49038222432136536,0.0016560934721265757,0.7000122264690709,-0.008935041725635529,-0.0036942854057997465,-0.002156150760129094,0.0,0.0,-0.6,0.0,0.0006482601165771484,0.00064849853515625,0.003041982650756836,0
1.9293575286865234,0.008533228188753128,0.013598903082311153,-0.4912300705909729,0.0016269471874038825,0.7001000328083983,-0.008816000074148178,-0.003779529593884945,-0.002119410550221801,0.0,0.0,-0.6,0.0,0.0007357597351074219,0.000736236572265625,0.0034706592559814453,0
1.939387321472168,0.008522816002368927,0.013779687695205212,-0.4920591413974762,0.0015933728583838003,0.7001820495987148,-0.008667259477078915,-0.003932531923055649,-0.002081101993098855,0.0,0.0,-0.6,0.0,0.0006158351898193359,0.0006165504455566406,0.0031442642211914062,0
1.9492740631103516,0.008500881493091583,0.014130424708127975,-0.49366360902786255,0.0015533028998053911,0.7002759289769999,-0.008464518934488297,-0.004143602214753628,-0.002039259532466531,0.0,0.0,-0.6,0.0,0.0006985664367675781,0.0006990432739257812,0.0032663345336914062,0
1.9594006538391113,0.008490003645420074,0.01430000551044941,-0.49443918466567993,0.0015353369838513788,0.7003649948617193,-0.008188573643565178,-0.004323419649153948,-0.002003232715651393,0.0,0.0,-0.6,0.0,0.0006601810455322266,0.0006606578826904297,0.003109455108642578,0
1.9693903923034668,0.008479708805680275,0.014463729225099087,-0.4951983690261841,0.0015099206850419547,0.7004471797064439,-0.007759833242744207,-0.004391991999000311,-0.0019684829749166965,0.0,0.0,-0.6,0.0,0.000637054443359375,0.0006372928619384766,0.003294229507446289,0
1.9793572425842285,0.008471580222249031,0.014622177928686142,-0.49594083428382874,0.0014994391169101606,0.7005271700573317,-0.007349420338869095,-0.004344789311289787,-0.0019402275793254375,0.0,0.0,-0.6,0.0,0.0006680488586425781,0.0006685256958007812,0.0032355785369873047,0
1.989349603652954,0.008455956354737282,0.014927729964256287,-0.4973851442337036,0.0014678303861795925,0.7006265905526745,-0.006726066116243601,-0.004369840025901794,-0.0019085952080786228,0.0,0.0,-0.6,0.0,0.0005633831024169922,0.0005638599395751953,0.0030617713928222656,0
1.9994590282440186,0.008447284810245037,0.015071654692292213,-0.49808576703071594,0.0014478658904667635,0.7007227984764766,-0.0060570999048650265,-0.004327863920480013,-0.0018789659952744842,0.0,0.0,-0.6,0.0,0.00078582763671875,0.0007860660552978516,0.0036089420318603516,0
2.009392023086548,0.00843848753720522,0.01521009299904108,-0.4987696707248688,0.0014299071718491029,0.7008138828716696,-0.00547570176422596,-0.004213566891849041,-0.0018514911644160748,0.0,0.0,-0.6,0.0,0.0006244182586669922,0.0006248950958251953,0.0035164356231689453,0
2.0194170475006104,0.008430576883256435,0.015345796942710876,-0.49943795800209045,0.0014119738458438379,0.7008975433849202,-0.005050576291978359,-0.004119481425732374,-0.0018255338072776794,0.0,0.0,-0.6,0.0,0.0006003379821777344,0.0006008148193359375,0.003098011016845703,0
2.0294265747070312,0.00842250045388937,0.01547792088240385,-0.5000912547111511,0.0014003682968101215,0.7009780739820535,-0.004602737724781036,-0.004111201036721468,-0.0018030115170404315,0.0,0.0,-0.6,0.0,0.0006914138793945312,0.0006918907165527344,0.0032677650451660156,0
2.03940486907959,0.008406395092606544,0.015726717188954353,-0.5013508796691895,0.0013247517407842398,0.7010681150813581,-0.003952799364924431,-0.004125810693949461,-0.001758889644406736,0.0,0.0,-0.6,0.0,0.0006103515625,0.0006110668182373047,0.0030813217163085938,0
2.049363374710083,0.008398819714784622,0.01584509387612343,-0.5019596219062805,0.0013066751726954545,0.7011503838231621,-0.0034130236599594355,-0.004150245804339647,-0.0017212256789207458,0.0,0.0,-0.6,0.0,0.0005588531494140625,0.0005593299865722656,0.0030508041381835938,0
2.0593793392181396,0.008392123505473137,0.01595926098525524,-0.5025539994239807,0.0012938932504741186,0.7012304989826585,-0.0028490889817476273,-0.00406659534201026,-0.0016900677001103759,0.0,0.0,-0.6,0.0,0.0006129741668701172,0.0006134510040283203,0.0031316280364990234,0
2.069213628768921,0.00838392972946167,0.016176486387848854,-0.5037661790847778,0.0012431262174446708,0.7013242945275028,-0.002292008837684989,-0.0037916195578873158,-0.0016492195427417755,0.0,0.0,-0.6,0.0,0.0005762577056884766,0.0005767345428466797,0.0030634403228759766,0
2.0793635845184326,0.008384596556425095,0.01628056727349758,-0.5043486952781677,0.0012091431967717792,0.7014118011359703,-0.0017531331395730376,-0.003503400832414627,-0.0016078822081908584,0.0,0.0,-0.6,0.0,0.0005702972412109375,0.00057220458984375,0.0029354095458984375,0
2.0892529487609863,0.008312614634633064,0.01641589030623436,-0.5051192045211792,0.0011852569599683934,0.701484131159189,-0.0011981700081378222,-0.0032605479937046766,-0.0015699887881055474,0.0,0.0,-0.6,0.0,0.0006091594696044922,0.0006096363067626953,0.0031349658966064453,0
2.099268913269043,0.008242819458246231,0.016544194892048836,-0.5058711767196655,0.0011730046732517491,0.7015493590540759,-0.0005488689639605582,-0.0031201012898236513,-0.001538868760690093,0.0,0.0,-0.6,0.0,0.0006518363952636719,0.000652313232421875,0.0031599998474121094,0
2.1093356609344482,0.008107676170766354,0.01678234338760376,-0.5073165893554688,0.001152437164186016,0.7016189478174777,0.0002308084222022444,-0.003136300016194582,-0.0015093719121068716,0.0,0.0,-0.6,0.0,0.0005733966827392578,0.0005738735198974609,0.0031156539916992188,0
2.1193909645080566,0.00804224144667387,0.016892962157726288,-0.5080103278160095,0.0011526803848165446,0.7016862696840953,0.0009054192923940718,-0.0031861423049122095,-0.0014888152945786715,0.0,0.0,-0.6,0.0,0.0006008148193359375,0.0006012916564941406,0.003058910369873047,0
2.12929105758667,0.007978164590895176,0.016998909413814545,-0.5086860060691833,0.0011317076608081582,0.7017451278305344,0.001467009074985981,-0.0032790766563266516,-0.0014665609924122691,0.0,0.0,-0.6,0.0,0.0006291866302490234,0.0006296634674072266,0.003294229507446289,0
2.1393883228302,0.007915329188108444,0.017100483179092407,-0.5093601942062378,0.0011151157113737423,0.7018036308847697,0.0019161214586347342,-0.003336397698149085,-0.0014447609428316355,0.0,0.0,-0.6,0.0,0.0006186962127685547,0.0006191730499267578,0.0029687881469726562,0
2.1494131088256836,0.0078074270859360695,0.01728965900838375,-0.510653555393219,0.0010742037376299614,0.7018713659309702,0.0024045316968113184,-0.0031499741598963737,-0.001414158963598311,0.0,0.0,-0.6,0.0,0.0005691051483154297,0.0005693435668945312,0.0030312538146972656,0
2.159363269805908,0.007758530788123608,0.017377803102135658,-0.5112731456756592,0.0010691407941291467,0.7019328603443059,0.0027734078466892242,-0.002952098147943616,-0.001390838879160583,0.0,0.0,-0.6,0.0,0.0005879402160644531,0.0005881786346435547,0.0029888153076171875,0
2.169382333755493,0.007712063379585743,0.017462043091654778,-0.5118759274482727,0.0010585612232255663,0.7019902197034574,0.0031017896253615618,-0.0027576147112995386,-0.0013705475721508265,0.0,0.0,-0.6,0.0,0.0005738735198974609,0.0005741119384765625,0.003094911575317383,0
2.179431438446045,0.007668029982596636,0.017542166635394096,-0.5124629139900208,0.0010224609506375368,0.7020414188182553,0.0033854402136057615,-0.002604588633403182,-0.0013428060337901115,0.0,0.0,-0.6,0.0,0.0005970001220703125,0.0005974769592285156,0.003030061721801758,0
2.1892807483673096,0.007586587220430374,0.017689891159534454,-0.5135902762413025,0.0009749696928632287,0.7020974847236463,0.0038616014644503593,-0.0022784501779824495,-0.0013055776944383979,0.0,0.0,-0.6,0.0,0.0006277561187744141,0.0006282329559326172,0.003108978271484375,0
2.1993091106414795,0.007550480309873819,0.017755934968590736,-0.514131486415863,0.00095490350640887,0.7021491834440773,0.004310158081352711,-0.0019917015451937914,-0.0012719930382445455,0.0,0.0,-0.6,0.0,0.0006518363952636719,0.000652313232421875,0.003202676773071289,0
2.209343910217285,0.0075162495486438274,0.01781773380935192,-0.5146750211715698,0.000944428980528094,0.7022022033128555,0.004670643713325262,-0.0017503348644822836,-0.0012445558095350862,0.0,0.0,-0.6,0.0,0.0009708404541015625,0.0009717941284179688,0.005144357681274414,0
2.21938419342041,0.0074837831780314445,0.01787538081407547,-0.515201985836029,0.0009402697342682085,0.7022568167363864,0.004965069703757763,-0.0014504813589155674,-0.001223789993673563,0.0,0.0,-0.6,0.0,0.0009145736694335938,0.0009152889251708984,0.003669261932373047,0
2.2292838096618652,0.00742796715348959,0.01798195019364357,-0.5162118077278137,0.000914718943907115,0.7023087388904599,0.005203292705118656,-0.001071761711500585,-0.0011996724642813206,0.0,0.0,-0.6,0.0,0.0006413459777832031,0.0006418228149414062,0.0031304359436035156,0
2.239309787750244,0.007403173949569464,0.01803099922835827,-0.5166967511177063,0.0008869750563695825,0.7023594892565302,0.005376423243433237,-0.0007806852809153497,-0.0011723862262442708,0.0,0.0,-0.6,0.0,0.000637054443359375,0.0006372928619384766,0.003024578094482422,0
2.249377489089966,0.007379021029919386,0.0180769432336092,-0.5171672701835632,0.0008634235974859765,0.7024086396593695,0.005532116163522005,-0.0006079055601730943,-0.0011444541160017252,0.0,0.0,-0.6,0.0,0.0006844997406005859,0.0006847381591796875,0.003207683563232422,0
