time,x,y,z,yaw,throttle,roll_rate,pitch_rate,yaw_rate,x_ref,y_ref,z_ref,yaw_ref,pred_time,nr_time,ctrl_callback_time,metadata
2.6226043701171875e-06,0.009174743667244911,-0.002628771821036935,0.08445018529891968,0.020992146842151158,0.714567178015417,0.005940587259829044,-0.012948496267199516,-0.007872477173805237,0.0,0.0,-0.6,0.0,0.016252756118774414,0.01625347137451172,0.08151555061340332,Sim
0.0816335678100586,0.009174743667244911,-0.002628771821036935,0.08445018529891968,0.020992146842151158,0.7310236533938129,0.009799525141716003,-0.021338779479265213,-0.013382960110902786,0.0,0.0,-0.6,0.0,0.0008263587951660156,0.0008268356323242188,0.0034475326538085938,Jax
0.08970093727111816,0.008783543482422829,-0.003894693683832884,0.08652342110872269,0.021044787591364265,0.7440338041216122,0.01306492555886507,-0.02748986892402172,-0.01725977286696434,0.0,0.0,-0.6,0.0,0.0006802082061767578,0.0006806850433349609,0.003255605697631836,1x Speed
0.09966921806335449,0.008798757568001747,-0.00429133465513587,0.08686193823814392,0.021038250162833297,0.7543054927834656,0.01548371184617281,-0.03167087212204933,-0.019971022382378578,0.0,0.0,-0.6,0.0,0.0008437633514404297,0.0008444786071777344,0.0035927295684814453,0OrderHold
0.1098484992980957,0.008798757568001747,-0.00429133465513587,0.08686193823814392,0.021038250162833297,0.7624347801428233,0.017145147547125816,-0.03454381600022316,-0.021868960931897163,0.0,0.0,-0.6,0.0,0.0011303424835205078,0.0011315345764160156,0.004149436950683594,QuatYawError
0.1195683479309082,0.008789381012320518,-0.004546347074210644,0.08714847266674042,0.021056060512550743,0.7688915711986163,0.018414083868265152,-0.03652682900428772,-0.02320418320596218,0.0,0.0,-0.6,0.0,0.0006966590881347656,0.0006971359252929688,0.003312349319458008,Optim Wardi
0.12985491752624512,0.008789381012320518,-0.004546347074210644,0.08714847266674042,0.021056060512550743,0.7740226684703321,0.019296370446681976,-0.03790755569934845,-0.024138886481523514,0.0,0.0,-0.6,0.0,0.0009424686431884766,0.0009434223175048828,0.0037546157836914062,0
0.13956451416015625,0.008747177198529243,-0.004915142431855202,0.08766840398311615,0.021092815129628774,0.7781272686803434,0.020122867077589035,-0.03885969519615173,-0.024806920439004898,0.0,0.0,-0.6,0.0,0.0007038116455078125,0.0007042884826660156,0.0035729408264160156,0
0.14978408813476562,0.008747177198529243,-0.004915142431855202,0.08766840398311615,0.021092815129628774,0.7813971508349683,0.020699728280305862,-0.039526525884866714,-0.025274591520428658,0.0,0.0,-0.6,0.0,0.0008287429809570312,0.0008294582366943359,0.0034623146057128906,0
0.159743070602417,0.008705109357833862,-0.005150261800736189,0.08801878243684769,0.021085513912617072,0.7838932698578488,0.021112658083438873,-0.0397903211414814,-0.025599224492907524,0.0,0.0,-0.6,0.0,0.0009329319000244141,0.0009336471557617188,0.00402069091796875,0
0.1696162223815918,0.008705109357833862,-0.005150261800736189,0.08801878243684769,0.021085513912617072,0.7858850800188476,0.02140161395072937,-0.03997648134827614,-0.02582649327814579,0.0,0.0,-0.6,0.0,0.0007364749908447266,0.0007367134094238281,0.0033292770385742188,0
0.1798076629638672,0.008630047552287579,-0.005487424787133932,0.08813972771167755,0.021002528074164636,0.786815299259096,0.021705444902181625,-0.039193350821733475,-0.025954434648156166,0.0,0.0,-0.6,0.0,0.0008635520935058594,0.0008640289306640625,0.003793478012084961,0
0.18987011909484863,0.008630047552287579,-0.005487424787133932,0.08813972771167755,0.021002528074164636,0.7875588008689902,0.021917957812547684,-0.03864644840359688,-0.02604401856660843,0.0,0.0,-0.6,0.0,0.0009675025939941406,0.0009682178497314453,0.004112720489501953,0
0.19960713386535645,0.008558874949812889,-0.005704544018954039,0.08777301758527756,0.02092172501976845,0.7875777782819937,0.021797537803649902,-0.03756765276193619,-0.026076456531882286,0.0,0.0,-0.6,0.0,0.0007700920104980469,0.00077056884765625,0.003647327423095703,0
0.20990633964538574,0.008558874949812889,-0.005704544018954039,0.08777301758527756,0.02092172501976845,0.7875929528787393,0.021713251248002052,-0.036812521517276764,-0.02609916590154171,0.0,0.0,-0.6,0.0,0.0009059906005859375,0.0009064674377441406,0.0038454532623291016,0
0.2196667194366455,0.008421805687248707,-0.006011662073433399,0.08641640841960907,0.020674376595734085,0.7866281633244006,0.021347546949982643,-0.034735117107629776,-0.02602236717939377,0.0,0.0,-0.6,0.0,0.0006258487701416016,0.0006265640258789062,0.003530263900756836,0
0.22981905937194824,0.008421805687248707,-0.006011662073433399,0.08641640841960907,0.020674376595734085,0.7858554834170187,0.021091366186738014,-0.0332789421081543,-0.025968583300709724,0.0,0.0,-0.6,0.0,0.0008749961853027344,0.0008761882781982422,0.003669261932373047,0
0.23966407775878906,0.008319971151649952,-0.006210397928953171,0.08486767113208771,0.020457525415450366,0.7845417952250758,0.020672567188739777,-0.031096497550606728,-0.025849666446447372,0.0,0.0,-0.6,0.0,0.0008749961853027344,0.0008757114410400391,0.0037262439727783203,0
0.24970293045043945,0.008319971151649952,-0.006210397928953171,0.08486767113208771,0.020457525415450366,0.7834893887308437,0.02037917636334896,-0.0295660812407732,-0.025766387581825256,0.0,0.0,-0.6,0.0,0.0006902217864990234,0.000690460205078125,0.0033197402954101562,0
0.25962281227111816,0.008214845322072506,-0.006400952115654945,0.08284299820661545,0.020234153860916943,0.7819273637891048,0.019707484170794487,-0.027305230498313904,-0.025624360889196396,0.0,0.0,-0.6,0.0,0.0008022785186767578,0.0008027553558349609,0.003686189651489258,0
0.2698042392730713,0.008214845322072506,-0.006400952115654945,0.08284299820661545,0.020234153860916943,0.7806757348763504,0.019236654043197632,-0.02571936883032322,-0.025524906814098358,0.0,0.0,-0.6,0.0,0.0010614395141601562,0.0010623931884765625,0.004094600677490234,0
0.27962589263916016,0.008041652850806713,-0.006666460074484348,0.07892041653394699,0.019775060958236453,0.7785934071002354,0.01823556423187256,-0.022803107276558876,-0.025283208116889,0.0,0.0,-0.6,0.0,0.0006861686706542969,0.0006866455078125,0.0032684803009033203,0
0.2898902893066406,0.008041652850806713,-0.006666460074484348,0.07892041653394699,0.019775060958236453,0.7769239562242556,0.017533425241708755,-0.020756183192133904,-0.025113964453339577,0.0,0.0,-0.6,0.0,0.00087738037109375,0.0008776187896728516,0.003599882125854492,0
0.2995607852935791,0.007853858172893524,-0.006910660769790411,0.07396766543388367,0.01930866486080708,0.7745137577534158,0.016218138858675957,-0.017407802864909172,-0.02482067048549652,0.0,0.0,-0.6,0.0,0.0006775856018066406,0.0006780624389648438,0.0033228397369384766,0
0.3099184036254883,0.007853858172893524,-0.006910660769790411,0.07396766543388367,0.01930866486080708,0.7725807269244491,0.015295136719942093,-0.015056443400681019,-0.024615302681922913,0.0,0.0,-0.6,0.0,0.0008182525634765625,0.0008187294006347656,0.003570556640625,0
0.3197929859161377,0.007791340816766024,-0.006985732354223728,0.07209421694278717,0.01912298200154235,0.770670897928718,0.014365745708346367,-0.0126873180270195,-0.024401912465691566,0.0,0.0,-0.6,0.0,0.00091552734375,0.0009162425994873047,0.003782510757446289,0
0.3296990394592285,0.007731642574071884,-0.0070574418641626835,0.07011166214942932,0.018942617683165863,0.7687895314746835,0.013456649146974087,-0.01027369499206543,-0.024184903129935265,0.0,0.0,-0.6,0.0,0.0006258487701416016,0.0006265640258789062,0.003252744674682617,0
0.3399837017059326,0.007673322688788176,-0.007126322016119957,0.06802421808242798,0.018746274218041512,0.7669316221594411,0.012547638267278671,-0.007956648245453835,-0.023959362879395485,0.0,0.0,-0.6,0.0,0.0010097026824951172,0.0010101795196533203,0.003920078277587891,0
0.3498375415802002,0.007562199141830206,-0.007252752780914307,0.06354156136512756,0.018352536925403444,0.764755059250884,0.011323940008878708,-0.004971212707459927,-0.023653866723179817,0.0,0.0,-0.6,0.0,0.0008687973022460938,0.0008695125579833984,0.003980159759521484,0
0.35983800888061523,0.007510704919695854,-0.007309883367270231,0.061150673776865005,0.018164145326163075,0.7626679908864128,0.010126076638698578,-0.002176778158172965,-0.023369360715150833,0.0,0.0,-0.6,0.0,0.0009057521820068359,0.0009062290191650391,0.004233360290527344,0
0.3699469566345215,0.0074618905782699585,-0.007363470736891031,0.05866333097219467,0.017970444023443288,0.760659667057775,0.009074706584215164,0.000429418490966782,-0.023097557947039604,0.0,0.0,-0.6,0.0,0.00099945068359375,0.0010001659393310547,0.004042148590087891,0
0.3796994686126709,0.00737184751778841,-0.007462277077138424,0.05340195074677467,0.01758634674312816,0.7583944314824043,0.007710934150964022,0.0035942026879638433,-0.022763291373848915,0.0,0.0,-0.6,0.0,0.0006694793701171875,0.0006697177886962891,0.003500223159790039,0
0.3897969722747803,0.007333989255130291,-0.007506161462515593,0.05063702166080475,0.01739381903943672,0.7562643064498251,0.0064738416112959385,0.0065270946361124516,-0.02245708927512169,0.0,0.0,-0.6,0.0,0.0008616447448730469,0.0008625984191894531,0.003687620162963867,0
0.39995694160461426,0.007299727760255337,-0.007547198329120874,0.04778856411576271,0.017191735572681402,0.754242208041724,0.005317677743732929,0.00919096264988184,-0.02216695249080658,0.0,0.0,-0.6,0.0,0.0008742809295654297,0.0008749961853027344,0.003856182098388672,0
0.4097738265991211,0.007269120309501886,-0.0075861006043851376,0.04485881328582764,0.016986500596757693,0.752312442711005,0.004260350950062275,0.011670020408928394,-0.021886883303523064,0.0,0.0,-0.6,0.0,0.0009264945983886719,0.0009272098541259766,0.004034996032714844,0
0.41980433464050293,0.007242056541144848,-0.007622929755598307,0.04184993728995323,0.016779187099557794,0.7504601328104686,0.0033135474659502506,0.014004113152623177,-0.02161308191716671,0.0,0.0,-0.6,0.0,0.0008826255798339844,0.0008835792541503906,0.004460334777832031,0
0.42989468574523926,0.007217928767204285,-0.007658934686332941,0.03876539692282677,0.01656877245357884,0.7486797835461854,0.00235334737226367,0.016181286424398422,-0.021342512220144272,0.0,0.0,-0.6,0.0,0.001186370849609375,0.0011875629425048828,0.004570484161376953,0
0.43982815742492676,0.007295647636055946,-0.007622475270181894,0.029286544770002365,0.015995992207363093,0.746404232621742,0.0007644774159416556,0.019239217042922974,-0.020938385277986526,0.0,0.0,-0.6,0.0,0.0008425712585449219,0.0008428096771240234,0.0038454532623291016,0
0.4498734474182129,0.007295647636055946,-0.007622475270181894,0.029286544770002365,0.015995992207363093,0.7445793701600816,-0.000351730763213709,0.02138865552842617,-0.020655440166592598,0.0,0.0,-0.6,0.0,0.0008924007415771484,0.0008928775787353516,0.003800630569458008,0
0.4595222473144531,0.0075311847031116486,-0.0074249557219445705,0.0228271447122097,0.01559144887884512,0.7425903512383702,-0.0017175913089886308,0.02382541634142399,-0.020305700600147247,0.0,0.0,-0.6,0.0,0.0006971359252929688,0.0006978511810302734,0.0036995410919189453,0
0.46985507011413574,0.0075311847031116486,-0.0074249557219445705,0.0228271447122097,0.01559144887884512,0.7409957639607943,-0.0026769028045237064,0.025537779554724693,-0.020060839131474495,0.0,0.0,-0.6,0.0,0.0008845329284667969,0.0008852481842041016,0.0038275718688964844,0
0.4800839424133301,0.00789030734449625,-0.007120347116142511,0.01269296370446682,0.014984226514708045,0.7389690846509185,-0.004430425353348255,0.028075041249394417,-0.019661806523799896,0.0,0.0,-0.6,0.0,0.0008466243743896484,0.0008471012115478516,0.003795146942138672,0
0.489682674407959,0.00789030734449625,-0.007120347116142511,0.01269296370446682,0.014984226514708045,0.7373441646061671,-0.0056622084230184555,0.02985835261642933,-0.019382424652576447,0.0,0.0,-0.6,0.0,0.0006771087646484375,0.0006775856018066406,0.0034601688385009766,0
0.49968767166137695,0.008271732367575169,-0.006795673631131649,0.002077965997159481,0.014368633217520774,0.7353320447582506,-0.0075010270811617374,0.032350488007068634,-0.018956074491143227,0.0,0.0,-0.6,0.0,0.0008525848388671875,0.0008530616760253906,0.0036461353302001953,0
0.5097863674163818,0.008271732367575169,-0.006795673631131649,0.002077965997159481,0.014368633217520774,0.7337188150089933,-0.008792865090072155,0.034102294594049454,-0.018657568842172623,0.0,0.0,-0.6,0.0,0.0009305477142333984,0.0009312629699707031,0.003910541534423828,0
0.51955246925354,0.008538423106074333,-0.0065618292428553104,-0.0052634356543421745,0.013989854641224072,0.7319787031529112,-0.010360242798924446,0.03589716926217079,-0.018306607380509377,0.0,0.0,-0.6,0.0,0.0007224082946777344,0.0007228851318359375,0.0034945011138916016,0
0.5298573970794678,0.008538423106074333,-0.0065618292428553104,-0.0052634356543421745,0.013989854641224072,0.7305840189288499,-0.011461037211120129,0.037158552557229996,-0.01806088350713253,0.0,0.0,-0.6,0.0,0.0009579658508300781,0.0009586811065673828,0.003927469253540039,0
0.5395481586456299,0.008674909360706806,-0.006440379656851292,-0.009009787812829018,0.01385074509266529,0.7292538061414008,-0.012544244527816772,0.03830638527870178,-0.017836708575487137,0.0,0.0,-0.6,0.0,0.0006694793701171875,0.0006699562072753906,0.003521442413330078,0
0.5498456954956055,0.008956235833466053,-0.006185680162161589,-0.01661527529358864,0.013488697538154315,0.727763213425192,-0.013976840302348137,0.039706435054540634,-0.017544051632285118,0.0,0.0,-0.6,0.0,0.0007970333099365234,0.0007975101470947266,0.0035822391510009766,0
0.5598404407501221,0.00910269282758236,-0.006053651217371225,-0.020471522584557533,0.013325415218392773,0.7263678433361259,-0.015190361067652702,0.04101129248738289,-0.01727793738245964,0.0,0.0,-0.6,0.0,0.000997304916381836,0.0009982585906982422,0.003954887390136719,0
0.5697064399719238,0.009259467013180256,-0.0059217419475317,-0.024357957765460014,0.01313780960771714,0.7250597326860644,-0.01617850922048092,0.04219207912683487,-0.017021283507347107,0.0,0.0,-0.6,0.0,0.0006425380706787109,0.0006430149078369141,0.0033805370330810547,0
0.5799479484558105,0.009419158101081848,-0.005789659451693296,-0.02827225998044014,0.012966851911520338,0.7238215446927811,-0.016987202689051628,0.043186672031879425,-0.016777504235506058,0.0,0.0,-0.6,0.0,0.0008516311645507812,0.0008521080017089844,0.003570556640625,0
0.5898478031158447,0.009580579586327076,-0.005655409302562475,-0.03221416845917702,0.012807751573812096,0.7226409453704575,-0.017822761088609695,0.04400860518217087,-0.016547203063964844,0.0,0.0,-0.6,0.0,0.001271963119506836,0.0012729167938232422,0.004988908767700195,0
0.5997850894927979,0.009906530380249023,-0.005377270746976137,-0.0401870533823967,0.012459252615522252,0.7213379328875539,-0.01874680630862713,0.044578004628419876,-0.01625533029437065,0.0,0.0,-0.6,0.0,0.0008168220520019531,0.0008172988891601562,0.0037152767181396484,0
0.609917163848877,0.010069112293422222,-0.00523521238937974,-0.0442122183740139,0.01229225476432391,0.7201243046026621,-0.019502373412251472,0.04487459734082222,-0.015988385304808617,0.0,0.0,-0.6,0.0,0.0008876323699951172,0.0008881092071533203,0.003726959228515625,0
0.6196794509887695,0.010397052392363548,-0.004945161286741495,-0.052314650267362595,0.011923759818759124,0.7188228975181385,-0.020326504483819008,0.04500730708241463,-0.015663355588912964,0.0,0.0,-0.6,0.0,0.0007507801055908203,0.000751495361328125,0.003773212432861328,0
0.6298203468322754,0.010563467629253864,-0.004796422552317381,-0.05638893321156502,0.011740375516428366,0.717628544939571,-0.021107783541083336,0.045106567442417145,-0.015367057174444199,0.0,0.0,-0.6,0.0,0.0008339881896972656,0.0008344650268554688,0.0038237571716308594,0
0.6399884223937988,0.010733587667346,-0.004645673092454672,-0.060473859310150146,0.011573192786464286,0.7165264080236475,-0.021799270063638687,0.04521801322698593,-0.015096941031515598,0.0,0.0,-0.6,0.0,0.0009338855743408203,0.000934600830078125,0.003993511199951172,0
0.649754524230957,0.010906766168773174,-0.004492565989494324,-0.06456977128982544,0.01141722629020795,0.7154909180978044,-0.02241337113082409,0.04527794569730759,-0.014849364757537842,0.0,0.0,-0.6,0.0,0.0006773471832275391,0.0006780624389648438,0.005170583724975586,0
0.6598281860351562,0.011257666163146496,-0.0041807894594967365,-0.07278984040021896,0.011088953515368387,0.7143826265951404,-0.022859962657094002,0.04508817940950394,-0.014552959240972996,0.0,0.0,-0.6,0.0,0.001148223876953125,0.0011487007141113281,0.004444122314453125,0
0.6698014736175537,0.011435305699706078,-0.004023427609354258,-0.07695351541042328,0.0109272918566434,0.7133634642642858,-0.023255450651049614,0.04481486603617668,-0.014284847304224968,0.0,0.0,-0.6,0.0,0.0010600090026855469,0.0010612010955810547,0.004915952682495117,0
0.6798174381256104,0.011614413000643253,-0.003863587277010083,-0.08111836016178131,0.010761594835211922,0.712422957885854,-0.023575671017169952,0.04446962848305702,-0.014035026542842388,0.0,0.0,-0.6,0.0,0.0007643699645996094,0.0007646083831787109,0.0035037994384765625,0
0.6899189949035645,0.011794503778219223,-0.003702482907101512,-0.08528374880552292,0.010606745152953755,0.7115447461477402,-0.023747531697154045,0.044046416878700256,-0.013802073895931244,0.0,0.0,-0.6,0.0,0.0009698867797851562,0.0009706020355224609,0.004025936126708984,0
0.699826717376709,0.011975428089499474,-0.0035399969201534986,-0.08944835513830185,0.01044143285635645,0.7107228641773956,-0.02387022040784359,0.04353302717208862,-0.013577013276517391,0.0,0.0,-0.6,0.0,0.0006897449493408203,0.0006902217864990234,0.0037674903869628906,0
0.7096512317657471,0.012335932813584805,-0.0032062861137092113,-0.09776891022920609,0.01011353835729045,0.7098368662885136,-0.024009529501199722,0.042699020355939865,-0.013296525925397873,0.0,0.0,-0.6,0.0,0.0007994174957275391,0.0007998943328857422,0.0035953521728515625,0
0.7198166847229004,0.012516217306256294,-0.0030354924965649843,-0.1019243374466896,0.00994863154841021,0.7090129788822922,-0.02402310259640217,0.04187704995274544,-0.013038333505392075,0.0,0.0,-0.6,0.0,0.0009319782257080078,0.0009334087371826172,0.0039806365966796875,0
0.7296650409698486,0.012696027755737305,-0.0028635114431381226,-0.10607614368200302,0.00980306979594233,0.7082437751074857,-0.023963559418916702,0.0408906564116478,-0.012803012505173683,0.0,0.0,-0.6,0.0,0.0007188320159912109,0.0007193088531494141,0.0036704540252685547,0
0.7398197650909424,0.013050536625087261,-0.0025145222898572683,-0.11438526213169098,0.009528786472084499,0.7074290990545238,-0.023864824324846268,0.03945176675915718,-0.01253544632345438,0.0,0.0,-0.6,0.0,0.0008754730224609375,0.0008759498596191406,0.0037887096405029297,0
0.7498257160186768,0.01322589349001646,-0.0023387186229228973,-0.11853959411382675,0.009347860418629214,0.7066798079163752,-0.0235710758715868,0.03808038681745529,-0.012280287221074104,0.0,0.0,-0.6,0.0,0.0008461475372314453,0.00084686279296875,0.003775358200073242,0
0.7598211765289307,0.013399978168308735,-0.0021646947134286165,-0.12268416583538055,0.009177868856216402,0.7059835606263939,-0.023170974105596542,0.036804743111133575,-0.012037919834256172,0.0,0.0,-0.6,0.0,0.0008726119995117188,0.0008730888366699219,0.0035610198974609375,0
0.7699017524719238,0.01357409916818142,-0.001990183722227812,-0.12681791186332703,0.00902413474521404,0.7053356831160531,-0.022867081686854362,0.03559160977602005,-0.011810612864792347,0.0,0.0,-0.6,0.0,0.0008492469787597656,0.0008497238159179688,0.0037894248962402344,0
0.7797567844390869,0.013747618533670902,-0.0018146132351830602,-0.13093990087509155,0.008879185886868035,0.7047271664980623,-0.022525807842612267,0.03435983508825302,-0.011597140692174435,0.0,0.0,-0.6,0.0,0.0007710456848144531,0.0007715225219726562,0.003439188003540039,0
0.7897179126739502,0.014094354584813118,-0.0014591495273634791,-0.13914524018764496,0.008634188544954092,0.704071164450013,-0.02223994955420494,0.03266317397356033,-0.011355850845575333,0.0,0.0,-0.6,0.0,0.0009250640869140625,0.0009267330169677734,0.004015684127807617,0
0.7998573780059814,0.014263967983424664,-0.0012788960011675954,-0.14322629570960999,0.008527713298170918,0.7034709857860456,-0.021910659968852997,0.030976003035902977,-0.01114701572805643,0.0,0.0,-0.6,0.0,0.0011429786682128906,0.0011439323425292969,0.00493311882019043,0
0.8098495006561279,0.014431048184633255,-0.0010971836745738983,-0.14729128777980804,0.008407717276878907,0.7029130946123621,-0.02166406624019146,0.029365602880716324,-0.010955831035971642,0.0,0.0,-0.6,0.0,0.001081228256225586,0.0010819435119628906,0.0050716400146484375,0
0.8199448585510254,0.014758842065930367,-0.000728206941857934,-0.15546411275863647,0.008180334916968452,0.7023192942962297,-0.021247781813144684,0.027467919513583183,-0.010736736468970776,0.0,0.0,-0.6,0.0,0.0009295940399169922,0.0009303092956542969,0.004127025604248047,0
0.8298659324645996,0.014919900335371494,-0.0005441802786663175,-0.15952301025390625,0.008074062278503994,0.7017755296839633,-0.020875224843621254,0.025787590071558952,-0.010543512180447578,0.0,0.0,-0.6,0.0,0.0010192394256591797,0.0010197162628173828,0.004973649978637695,0
0.8399007320404053,0.015078000724315643,-0.0003588648687582463,-0.16356214880943298,0.007972330454605096,0.7012733225934831,-0.02052401378750801,0.024180594831705093,-0.0103701027110219,0.0,0.0,-0.6,0.0,0.0009725093841552734,0.0009732246398925781,0.004639148712158203,0
0.8498611450195312,0.015294644050300121,-0.00035949196899309754,-0.1680559366941452,0.00786020530309702,0.7007960102298213,-0.020001910626888275,0.02267599105834961,-0.01020666304975748,0.0,0.0,-0.6,0.0,0.0009229183197021484,0.0009236335754394531,0.00400996208190918,0
0.8600306510925293,0.01571778766810894,-0.0003487193607725203,-0.17694023251533508,0.007615454577589938,0.7002712040302338,-0.019026197493076324,0.020944645628333092,-0.010000471025705338,0.0,0.0,-0.6,0.0,0.0009729862213134766,0.0009737014770507812,0.004137754440307617,0
0.8698110580444336,0.015923727303743362,-0.0003370068152435124,-0.181331604719162,0.007491523068232528,0.6997795399358501,-0.018132492899894714,0.0194033645093441,-0.009809659793972969,0.0,0.0,-0.6,0.0,0.0007956027984619141,0.0007960796356201172,0.004106283187866211,0
0.8801333904266357,0.016125382855534554,-0.0003205365501344204,-0.1856885850429535,0.007378337835301534,0.699324558611832,-0.01724664494395256,0.017987122759222984,-0.009633645415306091,0.0,0.0,-0.6,0.0,0.0008971691131591797,0.0008978843688964844,0.003984928131103516,0
0.8897473812103271,0.01632317714393139,-0.00030083867022767663,-0.1900411993265152,0.007253522669294468,0.6989011985220701,-0.016372181475162506,0.016669290140271187,-0.009463627822697163,0.0,0.0,-0.6,0.0,0.00078582763671875,0.0007863044738769531,0.0038607120513916016,0
0.8997280597686768,0.016705116257071495,-0.0002498103422112763,-0.19863778352737427,0.007079869097403411,0.6984410200509491,-0.015174505300819874,0.015004702843725681,-0.009279496036469936,0.0,0.0,-0.6,0.0,0.0010848045349121094,0.001085519790649414,0.004438877105712891,0
0.9097938537597656,0.01688786782324314,-0.00022077819448895752,-0.20288284122943878,0.006987454071298092,0.698016173081724,-0.014003770425915718,0.013483386486768723,-0.009115946479141712,0.0,0.0,-0.6,0.0,0.0007996559143066406,0.0008001327514648438,0.0039899349212646484,0
0.9197463989257812,0.017064819112420082,-0.0001904223463498056,-0.20709317922592163,0.006895063347042005,0.6976148428282914,-0.01282889861613512,0.012075630947947502,-0.008966813795268536,0.0,0.0,-0.6,0.0,0.0008444786071777344,0.0008449554443359375,0.003704547882080078,0
0.9297621250152588,0.01723756641149521,-0.00015911701484583318,-0.21126887202262878,0.00681126342364122,0.697243493231522,-0.01164484303444624,0.010692724958062172,-0.008830995298922062,0.0,0.0,-0.6,0.0,0.0009098052978515625,0.0009105205535888672,0.004537820816040039,0
0.9396336078643799,0.017563248053193092,-9.070955275092274e-05,-0.21950718760490417,0.006608451342015809,0.696858323354911,-0.01037133950740099,0.008897814899682999,-0.008659870363771915,0.0,0.0,-0.6,0.0,0.0006701946258544922,0.0006709098815917969,0.003387928009033203,0
0.949885368347168,0.017717206850647926,-5.1622009777929634e-05,-0.22357061505317688,0.006517288990838128,0.696505218124778,-0.009258678182959557,0.007312886416912079,-0.008505896665155888,0.0,0.0,-0.6,0.0,0.0008685588836669922,0.0008697509765625,0.0036458969116210938,0
0.959784746170044,0.017867011949419975,-1.1485681170597672e-05,-0.22760938107967377,0.00645402075779165,0.6961820222160257,-0.008146248757839203,0.0059920670464634895,-0.008374388329684734,0.0,0.0,-0.6,0.0,0.0009140968322753906,0.0009148120880126953,0.003839731216430664,0
0.9697411060333252,0.01801431179046631,2.872139884857461e-05,-0.23160973191261292,0.0063747984500231785,0.6958881045724957,-0.007024622056633234,0.004914847202599049,-0.008252622559666634,0.0,0.0,-0.6,0.0,0.0007159709930419922,0.0007164478302001953,0.0034325122833251953,0
0.9798736572265625,0.018158268183469772,6.904012843733653e-05,-0.23557211458683014,0.006274339574741235,0.6956165062390297,-0.005926705896854401,0.0038573292549699545,-0.00812971405684948,0.0,0.0,-0.6,0.0,0.0008866786956787109,0.0008876323699951172,0.0037004947662353516,0
0.9897763729095459,0.018297724425792694,0.00010932764416793361,-0.2394959032535553,0.006185774365017141,0.6953689788393812,-0.00485626608133316,0.0028695419896394014,-0.008010465651750565,0.0,0.0,-0.6,0.0,0.0008611679077148438,0.0008616447448730469,0.0037331581115722656,0
0.9997432231903076,0.018697410821914673,0.00022904257639311254,-0.2510417401790619,0.005962592760551862,0.6950770009879547,-0.003219655714929104,0.001531662535853684,-0.007843299768865108,0.0,0.0,-0.6,0.0,0.0008661746978759766,0.0008666515350341797,0.003892183303833008,0
1.0099437236785889,0.018697410821914673,0.00022904257639311254,-0.2510417401790619,0.005962592760551862,0.694843302167163,-0.0020733927376568317,0.0005946317105554044,-0.007726282346993685,0.0,0.0,-0.6,0.0,0.0009732246398925781,0.0009739398956298828,0.003910064697265625,0
1.0195958614349365,0.019063327461481094,0.00035734655102714896,-0.26227760314941406,0.005685044514047881,0.6945917190608016,-0.0007354654953815043,-0.0005326154641807079,-0.007540290243923664,0.0,0.0,-0.6,0.0,0.0006201267242431641,0.0006206035614013672,0.0032622814178466797,0
1.0298669338226318,0.019063327461481094,0.00035734655102714896,-0.26227760314941406,0.005685044514047881,0.6943903716057994,0.0002015351492445916,-0.0013220685068517923,-0.007410095538944006,0.0,0.0,-0.6,0.0,0.0008633136749267578,0.0008637905120849609,0.0036656856536865234,0
1.0400934219360352,0.019284315407276154,0.0004475932219065726,-0.2696223855018616,0.005523431808329742,0.6941857858838825,0.0012977974256500602,-0.0023436204064637423,-0.007258354686200619,0.0,0.0,-0.6,0.0,0.0008525848388671875,0.0008533000946044922,0.003705263137817383,0
1.0497081279754639,0.019284315407276154,0.0004475932219065726,-0.2696223855018616,0.005523431808329742,0.6940220399963719,0.0020654841791838408,-0.0030589899979531765,-0.007152135483920574,0.0,0.0,-0.6,0.0,0.00061798095703125,0.0006184577941894531,0.0032219886779785156,0
1.0595648288726807,0.019481180235743523,0.0005385895492509007,-0.2768118977546692,0.005369837174914956,0.693855229245232,0.0030555794946849346,-0.0039548748172819614,-0.007020184770226479,0.0,0.0,-0.6,0.0,0.0008604526519775391,0.0008606910705566406,0.0036773681640625,0
1.0698277950286865,0.019481180235743523,0.0005385895492509007,-0.2768118977546692,0.005369837174914956,0.6937217711515793,0.0037488704547286034,-0.004582200199365616,-0.006927818991243839,0.0,0.0,-0.6,0.0,0.0008928775787353516,0.0008935928344726562,0.0037584304809570312,0
1.079627275466919,0.019742831587791443,0.0006697773933410645,-0.28730708360671997,0.005140057870235082,0.6935784854064531,0.004749228712171316,-0.005482364911586046,-0.006776995491236448,0.0,0.0,-0.6,0.0,0.0008094310760498047,0.0008099079132080078,0.003571033477783203,0
1.089867353439331,0.019742831587791443,0.0006697773933410645,-0.28730708360671997,0.005140057870235082,0.693463806672995,0.005449676886200905,-0.0061126574873924255,-0.006671418901532888,0.0,0.0,-0.6,0.0,0.0010886192321777344,0.001089334487915039,0.004572391510009766,0
1.0995450019836426,0.01995568536221981,0.0007977834902703762,-0.29745349287986755,0.0049023612987434085,0.6933585255103772,0.006468353793025017,-0.006983371917158365,-0.006508379243314266,0.0,0.0,-0.6,0.0,0.0007433891296386719,0.000743865966796875,0.003393411636352539,0
1.1097490787506104,0.01995568536221981,0.0007977834902703762,-0.29745349287986755,0.0049023612987434085,0.6932743062774692,0.0071815745905041695,-0.007592997048050165,-0.006394251249730587,0.0,0.0,-0.6,0.0,0.0009298324584960938,0.0009305477142333984,0.003756999969482422,0
1.119715690612793,0.020075034350156784,0.0008774971938692033,-0.3040201961994171,0.004731687759986758,0.6932000063035804,0.00804448314011097,-0.008153572678565979,-0.006250359583646059,0.0,0.0,-0.6,0.0,0.0008573532104492188,0.0008578300476074219,0.003772735595703125,0
1.1296794414520264,0.020075034350156784,0.0008774971938692033,-0.3040201961994171,0.004731687759986758,0.6931405534329965,0.008648606948554516,-0.008546032011508942,-0.0061496347188949585,0.0,0.0,-0.6,0.0,0.0008025169372558594,0.0008058547973632812,0.0042569637298583984,0
1.1397101879119873,0.02022441104054451,0.0009782121051102877,-0.31358015537261963,0.004477299380608872,0.6930969360677168,0.009444858878850937,-0.009048531763255596,-0.005983732175081968,0.0,0.0,-0.6,0.0,0.0009665489196777344,0.0009670257568359375,0.0038595199584960938,0
1.1497149467468262,0.02022441104054451,0.0009782121051102877,-0.31358015537261963,0.004477299380608872,0.6930620246865941,0.01000228337943554,-0.009400310926139355,-0.005867599975317717,0.0,0.0,-0.6,0.0,0.0008833408355712891,0.0008838176727294922,0.003823518753051758,0
1.159651517868042,0.020301705226302147,0.0010386579670011997,-0.3197580873966217,0.00433257969733271,0.693037672497341,0.010571719147264957,-0.009827113710343838,-0.005732037592679262,0.0,0.0,-0.6,0.0,0.0010311603546142578,0.001032114028930664,0.00466465950012207,0
1.1699104309082031,0.020301705226302147,0.0010386579670011997,-0.3197580873966217,0.00433257969733271,0.693018166563667,0.010970343835651875,-0.010125892236828804,-0.005637143738567829,0.0,0.0,-0.6,0.0,0.0010645389556884766,0.0010652542114257812,0.004039764404296875,0
1.1795706748962402,0.020382480695843697,0.0011218118015676737,-0.32880476117134094,0.004112002769675075,0.6930232499744254,0.011449102312326431,-0.010511680506169796,-0.005488001741468906,0.0,0.0,-0.6,0.0,0.0006430149078369141,0.0006434917449951172,0.003241300582885742,0
1.1898634433746338,0.020382480695843697,0.0011218118015676737,-0.32880476117134094,0.004112002769675075,0.6930272693924213,0.011784229427576065,-0.010781730525195599,-0.0053836023434996605,0.0,0.0,-0.6,0.0,0.0008840560913085938,0.0008847713470458984,0.0036878585815429688,0
1.1996755599975586,0.0204117801040411,0.0011695044813677669,-0.3346419930458069,0.003971704973647123,0.6930497698757625,0.012185531668365002,-0.011126335710287094,-0.0052579110488295555,0.0,0.0,-0.6,0.0,0.0009169578552246094,0.0009174346923828125,0.0038101673126220703,0
1.2097229957580566,0.0204117801040411,0.0011695044813677669,-0.3346419930458069,0.003971704973647123,0.6930677776835975,0.0124664306640625,-0.011367548257112503,-0.005169927142560482,0.0,0.0,-0.6,0.0,0.0006935596466064453,0.0006940364837646484,0.0032656192779541016,0
1.2195875644683838,0.020436681807041168,0.001228818786330521,-0.34310677647590637,0.003751947018557542,0.693118016123704,0.01275326032191515,-0.011430495418608189,-0.005025928840041161,0.0,0.0,-0.6,0.0,0.0008382797241210938,0.0008389949798583984,0.0035889148712158203,0
1.2298011779785156,0.020436681807041168,0.001228818786330521,-0.34310677647590637,0.003751947018557542,0.6931582045846844,0.01295402180403471,-0.011474556289613247,-0.004925130400806665,0.0,0.0,-0.6,0.0,0.0008428096771240234,0.0008432865142822266,0.0037546157836914062,0
1.239593505859375,0.020886538550257683,0.0011365737300366163,-0.3493090867996216,0.0036123110152843545,0.6932010306347313,0.013218868523836136,-0.011157884262502193,-0.004802207462489605,0.0,0.0,-0.6,0.0,0.000743865966796875,0.0007448196411132812,0.00344085693359375,0
1.249882459640503,0.020886538550257683,0.0011365737300366163,-0.3493090867996216,0.0036123110152843545,0.6932353055682784,0.013404246419668198,-0.010936233215034008,-0.004716161638498306,0.0,0.0,-0.6,0.0,0.000919342041015625,0.0009198188781738281,0.003717184066772461,0
1.2597193717956543,0.02174486592411995,0.0009239903884008527,-0.3560543954372406,0.0035070641823998407,0.693243972558254,0.013569525443017483,-0.010140231810510159,-0.00461646169424057,0.0,0.0,-0.6,0.0,0.0006775856018066406,0.0006780624389648438,0.003662586212158203,0
1.2697820663452148,0.02174486592411995,0.0009239903884008527,-0.3560543954372406,0.0035070641823998407,0.6932509060820543,0.01368521898984909,-0.00958304014056921,-0.004546672105789185,0.0,0.0,-0.6,0.0,0.0008358955383300781,0.0008363723754882812,0.003621816635131836,0
1.2798609733581543,0.02293163724243641,0.0006225582328625023,-0.3657677471637726,0.003308782719351068,0.6932412148898972,0.013884458690881729,-0.008105750195682049,-0.004423463251441717,0.0,0.0,-0.6,0.0,0.0009889602661132812,0.000989675521850586,0.0044956207275390625,0
1.2898359298706055,0.02293163724243641,0.0006225582328625023,-0.3657677471637726,0.003308782719351068,0.69323345397178,0.01402392890304327,-0.007071625906974077,-0.0043372176587581635,0.0,0.0,-0.6,0.0,0.001332998275756836,0.0013344287872314453,0.007353305816650391,0
1.2996242046356201,0.02401406317949295,0.00032943685073405504,-0.37501004338264465,0.003109073758214705,0.6932176561322875,0.01413749996572733,-0.0052918940782547,-0.004201954230666161,0.0,0.0,-0.6,0.0,0.00083160400390625,0.0008320808410644531,0.0036187171936035156,0
1.3097689151763916,0.02401406317949295,0.00032943685073405504,-0.37501004338264465,0.003109073758214705,0.6932050097547292,0.014217003248631954,-0.0040460447780787945,-0.004107270389795303,0.0,0.0,-0.6,0.0,0.0007617473602294922,0.0007627010345458984,0.0036745071411132812,0
1.3196179866790771,0.024680910632014275,0.00014404929243028164,-0.38099369406700134,0.003015285128389116,0.6931995729323106,0.014204063452780247,-0.002627447247505188,-0.004005820490419865,0.0,0.0,-0.6,0.0,0.0008797645568847656,0.0008804798126220703,0.004580974578857422,0
1.32975435256958,0.024680910632014275,0.00014404929243028164,-0.38099369406700134,0.003015285128389116,0.6931951998089751,0.014195006340742111,-0.0016344190808013082,-0.0039348057471215725,0.0,0.0,-0.6,0.0,0.0010004043579101562,0.001003265380859375,0.0039348602294921875,0
1.3395655155181885,0.02560012973845005,-0.00012651391443796456,-0.38959288597106934,0.0028052567079391894,0.6932003608798978,0.014213146641850471,-0.00022240981343202293,-0.0038063342217355967,0.0,0.0,-0.6,0.0,0.0006353855133056641,0.0006356239318847656,0.0031948089599609375,0
1.3497047424316406,0.02560012973845005,-0.00012651391443796456,-0.38959288597106934,0.0028052567079391894,0.6932044975918883,0.014225846156477928,0.000765983306337148,-0.0037164047826081514,0.0,0.0,-0.6,0.0,0.0008027553558349609,0.0008034706115722656,0.0034208297729492188,0
1.3596420288085938,0.02617216296494007,-0.0003021156298927963,-0.3950892388820648,0.0026893535461650128,0.6932137164724271,0.014032428152859211,0.002048682188615203,-0.003609989769756794,0.0,0.0,-0.6,0.0,0.0009129047393798828,0.0009138584136962891,0.0036668777465820312,0
1.3696873188018799,0.02617216296494007,-0.0003021156298927963,-0.3950892388820648,0.0026893535461650128,0.693221123016779,0.01389703992754221,0.0029465528205037117,-0.003535499796271324,0.0,0.0,-0.6,0.0,0.0007312297821044922,0.0007317066192626953,0.0034155845642089844,0
1.3798437118530273,0.02670866996049881,-0.0004677758552134037,-0.4003981649875641,0.0025393878178493787,0.6932451544131865,0.013535345904529095,0.003992622252553701,-0.003427118994295597,0.0,0.0,-0.6,0.0,0.0008573532104492188,0.0008578300476074219,0.003678560256958008,0
1.3898463249206543,0.026964915916323662,-0.0005473428755067289,-0.4030202329158783,0.0025027275631900174,0.6932737547656547,0.013195925392210484,0.00501065282151103,-0.003337504807859659,0.0,0.0,-0.6,0.0,0.0009181499481201172,0.0009191036224365234,0.003772258758544922,0
1.3996341228485107,0.027213821187615395,-0.0006248027202673256,-0.4055958092212677,0.002437583407707043,0.6933074356767369,0.012824033387005329,0.0059570977464318275,-0.0032503458205610514,0.0,0.0,-0.6,0.0,0.0007870197296142578,0.0007874965667724609,0.0034461021423339844,0
1.409930944442749,0.027454189956188202,-0.0007003220962360501,-0.4081258177757263,0.002373754344900964,0.6933452905261365,0.012494598515331745,0.006774907931685448,-0.0031653987243771553,0.0,0.0,-0.6,0.0,0.0013687610626220703,0.0013699531555175781,0.00549626350402832,0
1.4200263023376465,0.028133543208241463,-0.0009176558814942837,-0.41544994711875916,0.002146626288583509,0.6934116601739604,0.011913543567061424,0.007744680158793926,-0.003020761301741004,0.0,0.0,-0.6,0.0,0.0010259151458740234,0.0010266304016113281,0.005321979522705078,0
1.4298269748687744,0.028133543208241463,-0.0009176558814942837,-0.41544994711875916,0.002146626288583509,0.6934647125108967,0.011506861075758934,0.008423429913818836,-0.0029195165261626244,0.0,0.0,-0.6,0.0,0.0012004375457763672,0.001201629638671875,0.004887580871582031,0
1.4398677349090576,0.02834959700703621,-0.0009860288118943572,-0.41780275106430054,0.0020722348566141464,0.6935271734477655,0.01110775675624609,0.009009676985442638,-0.002820748370140791,0.0,0.0,-0.6,0.0,0.0008487701416015625,0.0008492469787597656,0.003568887710571289,0
1.4496543407440186,0.02855808101594448,-0.0010519549250602722,-0.4201104938983917,0.0020077561218836233,0.6935984107216949,0.010683705098927021,0.009476326406002045,-0.002727431245148182,0.0,0.0,-0.6,0.0,0.0007264614105224609,0.0007269382476806641,0.0036346912384033203,0
1.459850549697876,0.028955115005373955,-0.0011776360915973783,-0.4246252179145813,0.0019158584529107069,0.6936874384794054,0.010160018689930439,0.010129797272384167,-0.0026276467833667994,0.0,0.0,-0.6,0.0,0.0009913444519042969,0.0009920597076416016,0.004193544387817383,0
1.469775915145874,0.029144207015633583,-0.0012360537657514215,-0.4268336296081543,0.0018840759480571723,0.6937749208686301,0.009627416729927063,0.010727806948125362,-0.002545879455283284,0.0,0.0,-0.6,0.0,0.0008244514465332031,0.0008249282836914062,0.0037817955017089844,0
1.4797370433807373,0.02932783029973507,-0.0012907619820907712,-0.4290003180503845,0.00184105134065366,0.693863102178203,0.009080352261662483,0.011312668211758137,-0.0024725080002099276,0.0,0.0,-0.6,0.0,0.00075531005859375,0.0007560253143310547,0.003451824188232422,0
1.4898808002471924,0.029507417231798172,-0.0013433560961857438,-0.4311251640319824,0.0017868686651118196,0.6939567840884037,0.008610174059867859,0.011918648146092892,-0.002400829456746578,0.0,0.0,-0.6,0.0,0.0011401176452636719,0.0011408329010009766,0.00543975830078125,0
1.4998035430908203,0.029849693179130554,-0.001442677341401577,-0.43524816632270813,0.0016650448956147424,0.6940784359872769,0.007932341657578945,0.012356266379356384,-0.002304969821125269,0.0,0.0,-0.6,0.0,0.001405477523803711,0.0014069080352783203,0.007599353790283203,0
1.509671926498413,0.030011022463440895,-0.0014873177278786898,-0.43724796175956726,0.0016234298932776279,0.6942016038135405,0.007260478101670742,0.012559715658426285,-0.0022222630213946104,0.0,0.0,-0.6,0.0,0.0009515285491943359,0.0009520053863525391,0.004282236099243164,0
1.5200927257537842,0.030164873227477074,-0.001530068926513195,-0.4392060935497284,0.0015844423406131127,0.6943290014219549,0.006684901192784309,0.012638334184885025,-0.0021497483830899,0.0,0.0,-0.6,0.0,0.0009894371032714844,0.0009899139404296875,0.004359006881713867,0
1.5298528671264648,0.030313177034258842,-0.0015702482778578997,-0.4411233961582184,0.001550288097394797,0.6944579913374904,0.006057297810912132,0.012717529200017452,-0.002086180029436946,0.0,0.0,-0.6,0.0,0.0008642673492431641,0.0008647441864013672,0.003966569900512695,0
1.5400300025939941,0.03045596368610859,-0.0016074974555522203,-0.4430558979511261,0.0015199107200483074,0.694586606355783,0.005455879960209131,0.012717284262180328,-0.0020302908960729837,0.0,0.0,-0.6,0.0,0.0009922981262207031,0.0009930133819580078,0.004824638366699219,0
1.5500245094299316,0.030725164338946342,-0.0016726586036384106,-0.4467964172363281,0.0014694133593404189,0.6947470509539497,0.004499431699514389,0.012738901190459728,-0.0019722303841263056,0.0,0.0,-0.6,0.0,0.001169443130493164,0.0011739730834960938,0.005280494689941406,0
1.5598478317260742,0.030850976705551147,-0.00170008500572294,-0.4486072063446045,0.0014396337975674848,0.6948972417866349,0.003657478140667081,0.012696371413767338,-0.0019204213749617338,0.0,0.0,-0.6,0.0,0.0009546279907226562,0.0009551048278808594,0.0038251876831054688,0
1.5698914527893066,0.0309706162661314,-0.001724591595120728,-0.45037931203842163,0.0014242161161962287,0.6950471684120383,0.0029007045086473227,0.012576654553413391,-0.0018783737905323505,0.0,0.0,-0.6,0.0,0.0008733272552490234,0.0008740425109863281,0.004085063934326172,0
1.579775333404541,0.031085453927516937,-0.0017471438040956855,-0.4521128237247467,0.0014136114258785813,0.6951912898793599,0.002202437724918127,0.012445406056940556,-0.0018449639901518822,0.0,0.0,-0.6,0.0,0.0008223056793212891,0.0008227825164794922,0.0037055015563964844,0
1.5898170471191406,0.031301435083150864,-0.0017862870590761304,-0.4554677903652191,0.0013627103289620447,0.6953640282914485,0.0015014820965006948,0.01240587793290615,-0.0018024888122454286,0.0,0.0,-0.6,0.0,0.0008084774017333984,0.0008089542388916016,0.003438711166381836,0
1.5998971462249756,0.03140290081501007,-0.0018013501539826393,-0.45708945393562317,0.0013092275682183513,0.6955289513902055,0.0008306576055474579,0.012167590670287609,-0.001752700423821807,0.0,0.0,-0.6,0.0,0.0009107589721679688,0.0009112358093261719,0.003662109375,0
1.609740972518921,0.03149646520614624,-0.0018128505907952785,-0.4587163031101227,0.0012668737015681894,0.6956901878243819,0.00020421354565769434,0.011752390302717686,-0.0017019661609083414,0.0,0.0,-0.6,0.0,0.0007042884826660156,0.0007047653198242188,0.003298521041870117,0
1.619882345199585,0.031665075570344925,-0.00182727153878659,-0.4618604779243469,0.0011973889414783234,0.6958718489807263,-0.000473085034172982,0.011153600178658962,-0.0016403950285166502,0.0,0.0,-0.6,0.0,0.0010716915130615234,0.0010721683502197266,0.0038080215454101562,0
1.6297917366027832,0.03174103796482086,-0.0018303743563592434,-0.46337926387786865,0.0011617501689721685,0.6960439293782724,-0.001120047178119421,0.010589599609375,-0.0015839309198781848,0.0,0.0,-0.6,0.0,0.0008213520050048828,0.0008220672607421875,0.0035872459411621094,0
1.639753818511963,0.03181026875972748,-0.0018301092786714435,-0.46486303210258484,0.0011318266018437127,0.6962074164437305,-0.0017109549371525645,0.009903188794851303,-0.0015331848990172148,0.0,0.0,-0.6,0.0,0.0008370876312255859,0.0008375644683837891,0.003527402877807617,0
1.6498734951019287,0.032046932727098465,-0.0016234414651989937,-0.46713826060295105,0.001103391108861847,0.6963300195270803,-0.0024628713726997375,0.009328452870249748,-0.001486999448388815,0.0,0.0,-0.6,0.0,0.0008449554443359375,0.0008459091186523438,0.0035343170166015625,0
1.6597084999084473,0.03227401152253151,-0.0014181445585563779,-0.469360888004303,0.001109441614524781,0.6964266679990067,-0.0033226951491087675,0.008842036128044128,-0.0014569388004019856,0.0,0.0,-0.6,0.0,0.0007779598236083984,0.0007781982421875,0.0034027099609375,0
1.6698157787322998,0.03269898146390915,-0.0010116450721397996,-0.4736487567424774,0.001049194114182984,0.6965064343745128,-0.004517946392297745,0.008235903456807137,-0.001413303310982883,0.0,0.0,-0.6,0.0,0.0008099079132080078,0.0008103847503662109,0.0034928321838378906,0
1.6799914836883545,0.03289816528558731,-0.0008095592493191361,-0.47575294971466064,0.001035064523078407,0.6965737567858987,-0.0056436327286064625,0.007859678007662296,-0.0013774603139609098,0.0,0.0,-0.6,0.0,0.0009233951568603516,0.0009243488311767578,0.0036640167236328125,0
1.6895973682403564,0.03309052810072899,-0.0006083403714001179,-0.4778054356575012,0.001013791338193386,0.6966344048558285,-0.006734284572303295,0.007577482610940933,-0.0013443928910419345,0.0,0.0,-0.6,0.0,0.000728607177734375,0.0007290840148925781,0.003598451614379883,0
1.700056552886963,0.03345027565956116,-0.00020966082229278982,-0.4817585349082947,0.0009551191278272632,0.6966910081706709,-0.007889985106885433,0.007221358362585306,-0.0012992436531931162,0.0,0.0,-0.6,0.0,0.0012562274932861328,0.001257181167602539,0.0053768157958984375,0
1.709808588027954,0.03361854329705238,-1.15223228931427e-05,-0.4836640954017639,0.0009187610542566101,0.696737919582092,-0.008935061283409595,0.006881985813379288,-0.0012540051247924566,0.0,0.0,-0.6,0.0,0.0009644031524658203,0.0009653568267822266,0.004056453704833984,0
1.71970534324646,0.033775970339775085,0.00018456278485246003,-0.48552215099334717,0.0008933104585897245,0.6967873383155634,-0.009917790070176125,0.006544660776853561,-0.0012127942172810435,0.0,0.0,-0.6,0.0,0.0008807182312011719,0.000881195068359375,0.003800630569458008,0
1.729820728302002,0.03392557054758072,0.00038066328852437437,-0.4873320162296295,0.0008427410619328034,0.6968388325125728,-0.010809235274791718,0.006153028458356857,-0.0011649830266833305,0.0,0.0,-0.6,0.0,0.0008695125579833984,0.0008699893951416016,0.003689289093017578,0
1.7396490573883057,0.03406662866473198,0.0005762428627349436,-0.4890957772731781,0.0007892241497885676,0.6968883626330604,-0.011616865172982216,0.005771563854068518,-0.001111446414142847,0.0,0.0,-0.6,0.0,0.0008084774017333984,0.0008089542388916016,0.0035552978515625,0
1.749821662902832,0.03432641923427582,0.0009696730994619429,-0.49252378940582275,0.0007408150036522702,0.6969480456717364,-0.01263816375285387,0.005240846890956163,-0.001055816886946559,0.0,0.0,-0.6,0.0,0.0008511543273925781,0.0008516311645507812,0.003661632537841797,0
1.7598152160644531,0.034444659948349,0.0011655132984742522,-0.49418899416923523,0.0007107533379969214,0.6970058814086632,-0.013422408141195774,0.004680291283875704,-0.0010056032333523035,0.0,0.0,-0.6,0.0,0.000942230224609375,0.0009431838989257812,0.003710031509399414,0
1.7696597576141357,0.03455466404557228,0.0013602552935481071,-0.49581003189086914,0.0006767908422287975,0.6970680256414756,-0.01410465594381094,0.004134004469960928,-0.0009577178279869258,0.0,0.0,-0.6,0.0,0.0006692409515380859,0.0006697177886962891,0.0032868385314941406,0
1.7800564765930176,0.03465726971626282,0.0015540559543296695,-0.497387170791626,0.0006559461986689482,0.6971327524321153,-0.014687548391520977,0.0036092635709792376,-0.0009163813083432615,0.0,0.0,-0.6,0.0,0.0009491443634033203,0.0009500980377197266,0.0037696361541748047,0
1.7898385524749756,0.03475146368145943,0.001747825532220304,-0.4989227056503296,0.0006418236508895609,0.6971944163753282,-0.015271320007741451,0.0030434448271989822,-0.0008821497904136777,0.0,0.0,-0.6,0.0,0.0008552074432373047,0.0008556842803955078,0.003626108169555664,0
1.7996935844421387,0.034924205392599106,0.0021340104285627604,-0.5018762946128845,0.0005802337948884628,0.6972638757023926,-0.015783652663230896,0.002493827836588025,-0.0008350914577022195,0.0,0.0,-0.6,0.0,0.0007867813110351562,0.0007889270782470703,0.0034186840057373047,0
1.809865951538086,0.03500007465481758,0.0023251359816640615,-0.5032939314842224,0.0005497576238633106,0.6973348967027594,-0.016269033774733543,0.0019158897921442986,-0.000790721969678998,0.0,0.0,-0.6,0.0,0.0008356571197509766,0.0008363723754882812,0.0036766529083251953,0
1.819697618484497,0.03506748005747795,0.0025163893587887287,-0.5046723484992981,0.0005132905791859272,0.6974100654619303,-0.016652898862957954,0.0012792868074029684,-0.0007459880434907973,0.0,0.0,-0.6,0.0,0.0006816387176513672,0.0006821155548095703,0.0033121109008789062,0
1.8297441005706787,0.035181280225515366,0.0028955095913261175,-0.5073608756065369,0.000452243187614852,0.6975054466898644,-0.017062773928046227,0.0005811676965095103,-0.0006917810533195734,0.0,0.0,-0.6,0.0,0.0008823871612548828,0.0008826255798339844,0.0035448074340820312,0
1.8398818969726562,0.0352279469370842,0.003086220007389784,-0.5086468458175659,0.0004340164271861219,0.6976027363293081,-0.01747736521065235,-3.9426238799933344e-05,-0.0006470012594945729,0.0,0.0,-0.6,0.0,0.0009713172912597656,0.0009717941284179688,0.0037488937377929688,0
1.8496763706207275,0.035267867147922516,0.0032788095995783806,-0.5098950862884521,0.00041193083947526564,0.6976975460661766,-0.017904549837112427,-0.0006391624920070171,-0.0006073734257370234,0.0,0.0,-0.6,0.0,0.0006392002105712891,0.0006394386291503906,0.003219127655029297,0
1.8598244190216064,0.035299964249134064,0.0034732669591903687,-0.5111069083213806,0.0003817069555718383,0.6977937155054557,-0.018307240679860115,-0.0012442399747669697,-0.0005682999035343528,0.0,0.0,-0.6,0.0,0.0009067058563232422,0.0009071826934814453,0.0035486221313476562,0
1.8697669506072998,0.03532043844461441,0.0036646185908466578,-0.5122812390327454,0.0003251993571609521,0.6978953173819232,-0.018609724938869476,-0.0017754213185980916,-0.0005197582067921758,0.0,0.0,-0.6,0.0,0.0007588863372802734,0.000759124755859375,0.003620624542236328,0
1.8796806335449219,0.035342033952474594,0.004048946313560009,-0.5145224928855896,0.0002434202770919479,0.6980171129117471,-0.01895786263048649,-0.0025424854829907417,-0.00045511077041737735,0.0,0.0,-0.6,0.0,0.0008368492126464844,0.0008373260498046875,0.003401041030883789,0
1.889815092086792,0.03534333035349846,0.00424122205004096,-0.5155912637710571,0.00020682444575213297,0.6981364623295944,-0.019155392423272133,-0.0031487615779042244,-0.00039613471017219126,0.0,0.0,-0.6,0.0,0.0008504390716552734,0.0008509159088134766,0.003807544708251953,0
1.8996715545654297,0.03532897308468819,0.00462295999750495,-0.5176936984062195,0.0001496468138785338,0.698282570585128,-0.019154254347085953,-0.0038509119767695665,-0.00033340888330712914,0.0,0.0,-0.6,0.0,0.0007042884826660156,0.0007050037384033203,0.0033178329467773438,0
1.909858226776123,0.03531259298324585,0.004812053870409727,-0.5186923146247864,0.00010774376181251229,0.6984273996425724,-0.019101498648524284,-0.004455963149666786,-0.00027378759114071727,0.0,0.0,-0.6,0.0,0.0008504390716552734,0.0008509159088134766,0.0036237239837646484,0
1.9199013710021973,0.03528972715139389,0.0050011021085083485,-0.5196558237075806,6.083554062844051e-05,0.6985693066353101,-0.01901782490313053,-0.005091238766908646,-0.00021446197933983058,0.0,0.0,-0.6,0.0,0.0009558200836181641,0.0009562969207763672,0.0037565231323242188,0
1.9297540187835693,0.03525930643081665,0.005189485382288694,-0.5205864906311035,3.665779776826442e-05,0.6987041066627866,-0.018833549693226814,-0.005725136958062649,-0.0001638674148125574,0.0,0.0,-0.6,0.0,0.0006918907165527344,0.0006923675537109375,0.003305196762084961,0
1.9398307800292969,0.03522630035877228,0.005376421380788088,-0.5214852690696716,1.072387451312359e-05,0.6988373974095103,-0.018655717372894287,-0.006211601663380861,-0.00011872659524669871,0.0,0.0,-0.6,0.0,0.0010538101196289062,0.001054525375366211,0.003961086273193359,0
1.9497997760772705,0.035188015550374985,0.005563634913414717,-0.522351086139679,-7.762035780758894e-06,0.6989736776014589,-0.01842435821890831,-0.006633957382291555,-8.019593951757997e-05,0.0,0.0,-0.6,0.0,0.0008397102355957031,0.0008404254913330078,0.0038008689880371094,0
1.9597527980804443,0.035096123814582825,0.005934206768870354,-0.523980975151062,-3.325144280537347e-05,0.6991498607895767,-0.017873045057058334,-0.007162776309996843,-4.3664265831466764e-05,0.0,0.0,-0.6,0.0,0.001035928726196289,0.0010366439819335938,0.0038640499114990234,0
1.9698686599731445,0.03504136949777603,0.006115141324698925,-0.5247821807861328,-6.036473428436006e-05,0.6993204535729084,-0.01731739565730095,-0.007727667689323425,-7.92454829934286e-06,0.0,0.0,-0.6,0.0,0.0009756088256835938,0.0009760856628417969,0.0040895938873291016,0
1.979767084121704,0.03498006984591484,0.006295426748692989,-0.5255520939826965,-9.134131634041353e-05,0.6994805735601085,-0.01684928685426712,-0.00829364825040102,2.870907701435499e-05,0.0,0.0,-0.6,0.0,0.000774383544921875,0.0007748603820800781,0.0034749507904052734,0
1.9898347854614258,0.034912191331386566,0.0064751203171908855,-0.5262920260429382,-0.0001261892698207543,0.6996373396734297,-0.016435211524367332,-0.0088803730905056,6.74205002724193e-05,0.0,0.0,-0.6,0.0,0.000820159912109375,0.0008206367492675781,0.0036041736602783203,0
1.9999475479125977,0.03476439416408539,0.006829559337347746,-0.5276777744293213,-0.0002099382646219649,0.6998242385049356,-0.01576877571642399,-0.009359641000628471,0.00012592504208441824,0.0,0.0,-0.6,0.0,0.0008821487426757812,0.0008826255798339844,0.0035772323608398438,0
2.0096867084503174,0.03468538820743561,0.007004962302744389,-0.528327226638794,-0.00021716009606990088,0.6999983984358968,-0.015073207207024097,-0.009848563931882381,0.00016958631749730557,0.0,0.0,-0.6,0.0,0.0006997585296630859,0.0007002353668212891,0.0033338069915771484,0
2.019979476928711,0.034515026956796646,0.007350692991167307,-0.5295431613922119,-0.00023030143412877048,0.7001911099856084,-0.014260882511734962,-0.010246649384498596,0.00020507758017629385,0.0,0.0,-0.6,0.0,0.0009114742279052734,0.0009121894836425781,0.003715038299560547,0
2.029850959777832,0.03442368656396866,0.007519573904573917,-0.5301104784011841,-0.00024840057253615154,0.7003728428051517,-0.013447076082229614,-0.01049009058624506,0.00023670781229157,0.0,0.0,-0.6,0.0,0.0008573532104492188,0.0008578300476074219,0.003668546676635742,0
2.0397720336914062,0.03432944416999817,0.007686274126172066,-0.5306857824325562,-0.00025406936347465564,0.7005400130536886,-0.012743756175041199,-0.010661645792424679,0.00026097396039403975,0.0,0.0,-0.6,0.0,0.0007386207580566406,0.0007390975952148438,0.0034036636352539062,0
2.049872398376465,0.03451138362288475,0.007708824705332518,-0.5318667888641357,-0.0002836193792591545,0.700682248148415,-0.012086997739970684,-0.010565878823399544,0.00028904026839882135,0.0,0.0,-0.6,0.0,0.0008826255798339844,0.0008831024169921875,0.0036423206329345703,0
2.059598445892334,0.034847237169742584,0.007760038133710623,-0.5341041088104248,-0.000370999797438075,0.7008013954783046,-0.011067790910601616,-0.009962496347725391,0.0003414536186028272,0.0,0.0,-0.6,0.0,0.0006768703460693359,0.0006773471832275391,0.0032968521118164062,0
2.0698907375335693,0.03500250726938248,0.007786109112203121,-0.5351634621620178,-0.0003874145395031831,0.7009041375220882,-0.01002897135913372,-0.009358244016766548,0.00038429847336374223,0.0,0.0,-0.6,0.0,0.0008401870727539062,0.0008404254913330078,0.003535032272338867,0
2.0800697803497314,0.035149093717336655,0.007812997326254845,-0.5361833572387695,-0.0004139501208440988,0.700992782426908,-0.009097783826291561,-0.00870860368013382,0.00042424045386724174,0.0,0.0,-0.6,0.0,0.00087738037109375,0.0008802413940429688,0.0035104751586914062,0
2.0896661281585693,0.03528771176934242,0.007841610349714756,-0.5371653437614441,-0.000441092811732801,0.7010718990827228,-0.008215917274355888,-0.008056207560002804,0.0004623782879207283,0.0,0.0,-0.6,0.0,0.00072479248046875,0.0007250308990478516,0.0035355091094970703,0
2.1000475883483887,0.03553980961441994,0.007900834083557129,-0.5390177369117737,-0.0004757236016835264,0.7011534263173316,-0.007042869925498962,-0.007290962617844343,0.0005020614480599761,0.0,0.0,-0.6,0.0,0.0008516311645507812,0.0008521080017089844,0.0036017894744873047,0
2.1098363399505615,0.03565295785665512,0.00793251022696495,-0.5399099588394165,-0.0005021213252868554,0.7012281588286823,-0.006086891982704401,-0.006640380714088678,0.0005397387431003153,0.0,0.0,-0.6,0.0,0.0008273124694824219,0.0008280277252197266,0.003578662872314453,0
2.120056390762329,0.03575679659843445,0.007966813631355762,-0.5407671332359314,-0.0005172041670350833,0.7012947335406617,-0.005239496473222971,-0.00607701763510704,0.0005717688472941518,0.0,0.0,-0.6,0.0,0.0011379718780517578,0.0011386871337890625,0.004427909851074219,0
2.1298439502716064,0.03585164248943329,0.00800181832164526,-0.5415904521942139,-0.0005167644407979835,0.7013566621673523,-0.004432846326380968,-0.00549795338883996,0.0005940250121057034,0.0,0.0,-0.6,0.0,0.0008838176727294922,0.0008845329284667969,0.003772258758544922,0
2.1398510932922363,0.03593861311674118,0.008037952706217766,-0.5423793196678162,-0.0005402058072851772,0.7014213545320589,-0.003676328808069229,-0.004950407892465591,0.0006183948135003448,0.0,0.0,-0.6,0.0,0.0012814998626708984,0.0012822151184082031,0.005535602569580078,0
2.149897336959839,0.036078374832868576,0.008114115335047245,-0.543854296207428,-0.0005662866431514284,0.7014998830318068,-0.002893047407269478,-0.004249307326972485,0.0006452340167015791,0.0,0.0,-0.6,0.0,0.0011129379272460938,0.0011136531829833984,0.004441261291503906,0
2.1599130630493164,0.03613379970192909,0.00815488863736391,-0.5445441007614136,-0.0005702298581847518,0.7015733746825676,-0.0020782630890607834,-0.0035962252877652645,0.000665500178001821,0.0,0.0,-0.6,0.0,0.0009453296661376953,0.000946044921875,0.003958940505981445,0
2.1696557998657227,0.036182135343551636,0.008194571360945702,-0.5452028512954712,-0.0005885153336048049,0.7016462748619243,-0.001258834614418447,-0.003057532710954547,0.0006865435279905796,0.0,0.0,-0.6,0.0,0.0008099079132080078,0.0008101463317871094,0.0040035247802734375,0
2.1800107955932617,0.03625566512346268,0.008272206410765648,-0.5465248823165894,-0.0005932939219745552,0.7017296146457358,-0.00019458246242720634,-0.0025973424781113863,0.0007030659471638501,0.0,0.0,-0.6,0.0,0.0009722709655761719,0.0009732246398925781,0.004332780838012695,0
2.190006732940674,0.0362817645072937,0.008309750817716122,-0.5471389889717102,-0.0005988892513812437,0.7018136862763069,0.0008167268242686987,-0.0023195839021354914,0.000716729904524982,0.0,0.0,-0.6,0.0,0.0011017322540283203,0.0011022090911865234,0.005061149597167969,0
2.1998543739318848,0.036299895495176315,0.00834613386541605,-0.5477216839790344,-0.0006061171133988524,0.701900515961924,0.001693211612291634,-0.002143691759556532,0.0007290050853043795,0.0,0.0,-0.6,0.0,0.001171112060546875,0.0011718273162841797,0.004777669906616211,0
2.209869384765625,0.036310501396656036,0.008381797932088375,-0.5482739806175232,-0.0006171603594666466,0.7019853489933592,0.002455540234223008,-0.0020148083567619324,0.0007417389424517751,0.0,0.0,-0.6,0.0,0.0010161399841308594,0.001016855239868164,0.004877805709838867,0
2.2200121879577637,0.0363147109746933,0.008417485281825066,-0.5487973690032959,-0.0006031968513247203,0.7020695496651148,0.003057698719203472,-0.0018164165085181594,0.0007454162696376443,0.0,0.0,-0.6,0.0,0.0010175704956054688,0.001018524169921875,0.0044100284576416016,0
2.22983980178833,0.03631003573536873,0.00848886277526617,-0.549773097038269,-0.000566175531310584,0.7021653897420407,0.003667841898277402,-0.0015211423160508275,0.0007341075106523931,0.0,0.0,-0.6,0.0,0.0010309219360351562,0.001031637191772461,0.004306316375732422,0
2.2399165630340576,0.03629807382822037,0.00852392241358757,-0.5502257943153381,-0.0005440986115389643,0.7022607509407399,0.004193070810288191,-0.0013092962326481938,0.0007179125095717609,0.0,0.0,-0.6,0.0,0.0010073184967041016,0.0010080337524414062,0.004786014556884766,0
2.2496230602264404,0.03627888113260269,0.008558644913136959,-0.5506505966186523,-0.0005421598574252542,0.7023559839622311,0.004630871582776308,-0.0011806897819042206,0.0007058488554321229,0.0,0.0,-0.6,0.0,0.0007359981536865234,0.0007364749908447266,0.0035402774810791016,0
