time,x,y,z,yaw,throttle,roll_rate,pitch_rate,yaw_rate,x_ref,y_ref,z_ref,yaw_ref,pred_time,nr_time,ctrl_callback_time,metadata
1.430511474609375e-06,-0.1847885251045227,-0.18820640444755554,1.08578360080719,-0.0846007803215492,-0.7469866198970256,0.08851286252403862,-0.10514581355848737,0.03172529262060426,0.0,0.0,-0.6,0.0,0.0009732246398925781,0.001374959945678711,0.004505157470703125,Sim
0.008446455001831055,-0.18531829118728638,-0.18830376863479614,1.088415265083313,-0.0846614894333074,-0.7877318649672386,0.13492827466697183,-0.16951063841922534,0.05395576337189102,0.0,0.0,-0.6,0.0,0.0003452301025390625,0.0005602836608886719,0.0020885467529296875,Nonlinear
0.018735408782958984,-0.18551665544509888,-0.1883269101381302,1.0893914699554443,-0.084703862138402,-0.8194498832844584,0.15132116958865116,-0.2007767598138777,0.06953298266220889,0.0,0.0,-0.6,0.0,0.00037288665771484375,0.0005855560302734375,0.002233743667602539,1x Speed
0.028800249099731445,-0.18551665544509888,-0.1883269101381302,1.0893914699554443,-0.084703862138402,-0.844386525813196,0.14859005185404603,-0.2085673481942569,0.08043703616544554,0.0,0.0,-0.6,0.0,0.0003902912139892578,0.0006039142608642578,0.0021283626556396484,0OrderHold
0.03839588165283203,-0.18594612181186676,-0.188358873128891,1.0914751291275024,-0.08476213397813286,-0.8640993029486977,0.1352577725616812,-0.20198228181537956,0.08809172555760404,0.0,0.0,-0.6,0.0,0.0002651214599609375,0.0004661083221435547,0.0016663074493408203,QuatYawError
0.04875493049621582,-0.18635667860507965,-0.1883767545223236,1.0937268733978271,-0.08483538576649836,-0.8796776331913656,0.11713740624128369,-0.18755533622187656,0.09347747755277301,0.0,0.0,-0.6,0.0,0.00043129920959472656,0.0006973743438720703,0.002139568328857422,PyJoules
0.0585637092590332,-0.186577707529068,-0.1883838176727295,1.0949167013168335,-0.08487283576526507,-0.8919474160807398,0.0976913662279031,-0.16980510978922786,0.09726154769891172,0.0,0.0,-0.6,0.0,0.0002562999725341797,0.00041103363037109375,0.0014333724975585938,0
0.06861615180969238,-0.186577707529068,-0.1883838176727295,1.0949167013168335,-0.08487283576526507,-0.9015719075780299,0.07892847315874871,-0.15146818571805515,0.09991039680120996,0.0,0.0,-0.6,0.0,0.0003299713134765625,0.0004956722259521484,0.0015842914581298828,0
0.07902097702026367,-0.18730834126472473,-0.188395157456398,1.098742127418518,-0.08496694029096168,-0.9092106463510012,0.06233417011922941,-0.13468848360019897,0.10179988036995899,0.0,0.0,-0.6,0.0,0.0002970695495605469,0.0005159378051757812,0.0018258094787597656,0
0.08852696418762207,-0.18757100403308868,-0.18839609622955322,1.1000990867614746,-0.08498130002095397,-0.9152316472099244,0.0480228898692187,-0.11972305997116627,0.10312790376683001,0.0,0.0,-0.6,0.0,0.0002791881561279297,0.00048542022705078125,0.0014424324035644531,0
0.09860634803771973,-0.18784183263778687,-0.18839649856090546,1.1014961004257202,-0.08501605738818563,-0.9199858620317932,0.03603347244907196,-0.10688411360843839,0.10407055415735131,0.0,0.0,-0.6,0.0,0.0003616809844970703,0.0005764961242675781,0.002046823501586914,0
0.10883426666259766,-0.18784183263778687,-0.18839649856090546,1.1014961004257202,-0.08501605738818563,-0.9237126419184495,0.026070467035809466,-0.09604968569631658,0.104730409430716,0.0,0.0,-0.6,0.0,0.0003979206085205078,0.0006349086761474609,0.002215862274169922,0
0.11848759651184082,-0.1874370574951172,-0.18879100680351257,1.098739504814148,-0.08508629500979455,-0.9265653298933262,0.018212145965641278,-0.08687111580418422,0.10521864723017452,0.0,0.0,-0.6,0.0,0.0003211498260498047,0.0005552768707275391,0.0016858577728271484,0
0.12870192527770996,-0.1871299147605896,-0.18897970020771027,1.0968360900878906,-0.08512166533328593,-0.928755230425354,0.011941617157112628,-0.07922415101798023,0.10557367756110525,0.0,0.0,-0.6,0.0,0.000331878662109375,0.0005285739898681641,0.0019676685333251953,0
0.13885903358459473,-0.18684424459934235,-0.18916262686252594,1.0950555801391602,-0.08514784784141029,-0.9304289923415897,0.00700867093415049,-0.07290874812379172,0.10583201723330317,0.0,0.0,-0.6,0.0,0.0005483627319335938,0.0009827613830566406,0.0032737255096435547,0
0.14876198768615723,-0.18684424459934235,-0.18916262686252594,1.0950555801391602,-0.08514784784141029,-0.9317419326541264,0.003081039411283906,-0.06792665794143231,0.10601285500384121,0.0,0.0,-0.6,0.0,0.0004353523254394531,0.0007808208465576172,0.002751588821411133,0
0.1587975025177002,-0.18633267283439636,-0.1895093023777008,1.091849684715271,-0.08519154117052541,-0.9326906557287155,9.283012514099383e-05,-0.06367094582659676,0.10615582644163597,0.0,0.0,-0.6,0.0,0.0004775524139404297,0.0008044242858886719,0.0028183460235595703,0
0.16869854927062988,-0.1859036237001419,-0.18983528017997742,1.0890934467315674,-0.08522486956689983,-0.9333619105219759,-0.0020076880917581402,-0.06012664475132077,0.1062684045967327,0.0,0.0,-0.6,0.0,0.0005462169647216797,0.000896453857421875,0.0031137466430664062,0
0.1787574291229248,-0.1857175976037979,-0.18999174237251282,1.0878663063049316,-0.08524263617734687,-0.9338555352114515,-0.0035863606982480837,-0.05724525396220602,0.10635387178421789,0.0,0.0,-0.6,0.0,0.0004849433898925781,0.0008418560028076172,0.002972841262817383,0
0.18877911567687988,-0.1857175976037979,-0.18999174237251282,1.0878663063049316,-0.08524263617734687,-0.9342411305263651,-0.004823587903943395,-0.0550734205155737,0.10641369881545765,0.0,0.0,-0.6,0.0,0.0004329681396484375,0.0006442070007324219,0.002232074737548828,0
0.19866323471069336,-0.185205340385437,-0.19043304026126862,1.0847889184951782,-0.08530200630944476,-0.9344606702500063,-0.0055637453856434045,-0.05310971050246376,0.10647784153686207,0.0,0.0,-0.6,0.0,0.0003681182861328125,0.0005784034729003906,0.0017895698547363281,0
0.20856428146362305,-0.1850709170103073,-0.19057013094425201,1.083957552909851,-0.08533093813472181,-0.9346079040748293,-0.006034946498539867,-0.05156932901174788,0.10653359087632407,0.0,0.0,-0.6,0.0,0.0004360675811767578,0.0007050037384033203,0.0021996498107910156,0
0.21855926513671875,-0.1849537193775177,-0.19070428609848022,1.0832183361053467,-0.08538346359203725,-0.9346981985116108,-0.006301278461077507,-0.050346984524726954,0.10659231246044086,0.0,0.0,-0.6,0.0,0.0003440380096435547,0.0005834102630615234,0.002050161361694336,0
0.2286698818206787,-0.1849537193775177,-0.19070428609848022,1.0832183361053467,-0.08538346359203725,-0.9347672431669053,-0.006512323071589817,-0.04946289828311329,0.10663341756932253,0.0,0.0,-0.6,0.0,0.0005512237548828125,0.0008764266967773438,0.002537250518798828,0
0.23886942863464355,-0.18476608395576477,-0.19096072018146515,1.082007884979248,-0.08544995294441209,-0.9347919793864546,-0.0064590538208585705,-0.04865939767409296,0.10668712465268025,0.0,0.0,-0.6,0.0,0.0004773139953613281,0.0008919239044189453,0.0033245086669921875,0
0.2488877773284912,-0.18463993072509766,-0.19119833409786224,1.0811456441879272,-0.08549128188335459,-0.9347874369067202,-0.006283543709677696,-0.04801268120444932,0.10674021796313418,0.0,0.0,-0.6,0.0,0.0004360675811767578,0.0006985664367675781,0.002470731735229492,0
0.25854945182800293,-0.1845817118883133,-0.19131581485271454,1.0808371305465698,-0.08549970459385214,-0.934776238456812,-0.006090768937090694,-0.047463978027369534,0.10678054179688858,0.0,0.0,-0.6,0.0,0.0003306865692138672,0.0005254745483398438,0.0018107891082763672,0
0.26879048347473145,-0.1845817118883133,-0.19131581485271454,1.0808371305465698,-0.08549970459385214,-0.9347663387655964,-0.005953598944884622,-0.047082421255830086,0.10680876848051658,0.0,0.0,-0.6,0.0,0.0004432201385498047,0.0007352828979492188,0.002307415008544922,0
0.2787587642669678,-0.1845368891954422,-0.19142942130565643,1.080607295036316,-0.08553514659816569,-0.9347488858296267,-0.005813264973447356,-0.046778090467280924,0.10684181791067376,0.0,0.0,-0.6,0.0,0.0003147125244140625,0.0005328655242919922,0.0018994808197021484,0
0.28846073150634766,-0.18449284136295319,-0.19175252318382263,1.0803701877593994,-0.08558826449087381,-0.9347223991072524,-0.005441108250889776,-0.0464587247275462,0.10688487172154927,0.0,0.0,-0.6,0.0,0.0003457069396972656,0.0006411075592041016,0.0019805431365966797,0
0.2985217571258545,-0.18450692296028137,-0.19185495376586914,1.0804344415664673,-0.085608692254919,-0.9347009202347699,-0.005108071566651636,-0.04620797667409463,0.10692266980067915,0.0,0.0,-0.6,0.0,0.0003345012664794922,0.0005316734313964844,0.0017528533935546875,0
0.3088970184326172,-0.18450692296028137,-0.19185495376586914,1.0804344415664673,-0.085608692254919,-0.934683719392161,-0.004869544919301938,-0.0460385468043305,0.10694912845607,0.0,0.0,-0.6,0.0,0.0002968311309814453,0.0004780292510986328,0.0018298625946044922,0
0.318941593170166,-0.18463632464408875,-0.1921435296535492,1.0810513496398926,-0.08569152337003877,-0.9346857266783509,-0.004590916119994156,-0.04612647815264388,0.10699871118301357,0.0,0.0,-0.6,0.0,0.00030994415283203125,0.0005099773406982422,0.0018045902252197266,0
0.3285822868347168,-0.18468424677848816,-0.19223172962665558,1.0813939571380615,-0.0857034913188565,-0.9346941173800305,-0.004320495173733862,-0.04626727836422178,0.10703790707268065,0.0,0.0,-0.6,0.0,0.0004291534423828125,0.0006625652313232422,0.0018863677978515625,0
0.3386547565460205,-0.18474644422531128,-0.19231602549552917,1.0817991495132446,-0.08572927390946898,-0.934712452676886,-0.004099311411502393,-0.04638059987303742,0.10707501266692729,0.0,0.0,-0.6,0.0,0.0003483295440673828,0.0005800724029541016,0.002086639404296875,0
0.3486924171447754,-0.18474644422531128,-0.19231602549552917,1.0817991495132446,-0.08572927390946898,-0.9347278074657143,-0.003948687893915262,-0.046455222330431666,0.10710098658289995,0.0,0.0,-0.6,0.0,0.0004603862762451172,0.0007169246673583984,0.002472400665283203,0
0.358309268951416,-0.18501493334770203,-0.1925465166568756,1.0833752155303955,-0.0858423644999815,-0.9347767266227811,-0.003726265564676866,-0.046634625628573616,0.10716157729552307,0.0,0.0,-0.6,0.0,0.0002830028533935547,0.00045418739318847656,0.0014271736145019531,0
0.36856532096862793,-0.1851300746202469,-0.1926155537366867,1.0840171575546265,-0.08587834661437556,-0.9348348630794047,-0.0035645076305801634,-0.04675313149531564,0.10721748408725702,0.0,0.0,-0.6,0.0,0.00036406517028808594,0.0005810260772705078,0.002027273178100586,0
0.37844181060791016,-0.18525615334510803,-0.19268180429935455,1.0847158432006836,-0.08591849289572175,-0.9349009054878008,-0.003369783582289917,-0.04683638126121904,0.10727167369697552,0.0,0.0,-0.6,0.0,0.0003185272216796875,0.0005419254302978516,0.001615285873413086,0
0.38920164108276367,-0.18525615334510803,-0.19268180429935455,1.0847158432006836,-0.08591849289572175,-0.934954398918803,-0.003249822000230304,-0.04687636809424101,0.10730960642377861,0.0,0.0,-0.6,0.0,0.0004000663757324219,0.0006730556488037109,0.002514362335205078,0
0.3986086845397949,-0.18568022549152374,-0.19286958873271942,1.08714759349823,-0.0859901395475576,-0.935051992318233,-0.002941656087541044,-0.04713057591206932,0.10736302682697917,0.0,0.0,-0.6,0.0,0.0006301403045654297,0.0012178421020507812,0.0034093856811523438,0
0.40839385986328125,-0.18583206832408905,-0.19292756915092468,1.0880614519119263,-0.08600948117087719,-0.9351536404465869,-0.0026645636880000215,-0.04738975955226695,0.10740767421796439,0.0,0.0,-0.6,0.0,0.00027370452880859375,0.0004413127899169922,0.0014905929565429688,0
0.41866445541381836,-0.18599554896354675,-0.19298392534255981,1.089024305343628,-0.08601791292972845,-0.9352597585487867,-0.00234003636221941,-0.047616630567800626,0.10744208930122326,0.0,0.0,-0.6,0.0,0.0003151893615722656,0.0014300346374511719,0.0029261112213134766,0
0.4288356304168701,-0.18599554896354675,-0.19298392534255981,1.089024305343628,-0.08601791292972845,-0.9353459479302598,-0.0021390383699962296,-0.047746205999271374,0.1074661798595045,0.0,0.0,-0.6,0.0,0.0003638267517089844,0.0005891323089599609,0.002171039581298828,0
0.4384338855743408,-0.18654383718967438,-0.19314295053482056,1.0921952724456787,-0.08606445748698009,-0.9354899801686636,-0.0017053632637536137,-0.048040752057055776,0.10750049745927072,0.0,0.0,-0.6,0.0,0.0002219676971435547,0.0003886222839355469,0.0013823509216308594,0
0.4487793445587158,-0.1867467314004898,-0.19319212436676025,1.0933409929275513,-0.08607947683320384,-0.9356328420081479,-0.0013565010764544309,-0.04836608027086654,0.10753015203394096,0.0,0.0,-0.6,0.0,0.0003345012664794922,0.0005695819854736328,0.0020558834075927734,0
0.4585452079772949,-0.18696071207523346,-0.1932397335767746,1.0945302248001099,-0.08609398451100253,-0.9357809292485395,-0.0010960738146654808,-0.048669198448623135,0.10755635061538464,0.0,0.0,-0.6,0.0,0.0003273487091064453,0.0005440711975097656,0.001917123794555664,0
0.46880054473876953,-0.18696071207523346,-0.1932397335767746,1.0945302248001099,-0.08609398451100253,-0.9359008339875752,-0.0009507336947548961,-0.048840215015054894,0.1075746896223952,0.0,0.0,-0.6,0.0,0.00038313865661621094,0.0006291866302490234,0.0022263526916503906,0
0.4784693717956543,-0.1873931586742401,-0.193327859044075,1.097023844718933,-0.08610280421878279,-0.9360621893959442,-0.0007494793787545921,-0.0492027974918302,0.10759083431772021,0.0,0.0,-0.6,0.0,0.00029730796813964844,0.0004987716674804688,0.0017976760864257812,0
0.4886131286621094,-0.18783962726593018,-0.19341367483139038,1.0996789932250977,-0.0861696287936738,-0.9362606689344566,-0.00037149071793924764,-0.04948028476297811,0.10762719482003179,0.0,0.0,-0.6,0.0,0.00036454200744628906,0.0006229877471923828,0.0020933151245117188,0
0.4986119270324707,-0.18807756900787354,-0.19345667958259583,1.1010656356811523,-0.08619157862745387,-0.936456651745314,-8.189209402189175e-05,-0.049811834187819544,0.10766087835931748,0.0,0.0,-0.6,0.0,0.0003311634063720703,0.0005676746368408203,0.0018718242645263672,0
0.5090639591217041,-0.18807756900787354,-0.19345667958259583,1.1010656356811523,-0.08619157862745387,-0.9366150841831016,7.1611399947256e-05,-0.049989029964871264,0.10768445683681742,0.0,0.0,-0.6,0.0,0.0003631114959716797,0.0005981922149658203,0.0021562576293945312,0
0.5185141563415527,-0.18765093386173248,-0.1936253011226654,1.0982820987701416,-0.08622148769495132,-0.9366757442260288,0.0002618770234007079,-0.04982622112399868,0.10771217767137896,0.0,0.0,-0.6,0.0,0.0003561973571777344,0.0006005764007568359,0.0019562244415283203,0
0.5287106037139893,-0.1873445361852646,-0.19368450343608856,1.096366286277771,-0.08623096294176277,-0.9366757866920652,0.0003599140328689706,-0.04947365915070633,0.10773513547312633,0.0,0.0,-0.6,0.0,0.0003600120544433594,0.0005750656127929688,0.0020170211791992188,0
0.5386841297149658,-0.18705937266349792,-0.19374136626720428,1.094573736190796,-0.08624430494706281,-0.9366314091271768,0.00041250458883140134,-0.048988043342767296,0.10775620918633703,0.0,0.0,-0.6,0.0,0.0004825592041015625,0.0008862018585205078,0.0030624866485595703,0
0.5489306449890137,-0.18705937266349792,-0.19374136626720428,1.094573736190796,-0.08624430494706281,-0.9365947924291165,0.00046002521618486274,-0.0486600440197676,0.10777096078558446,0.0,0.0,-0.6,0.0,0.00034689903259277344,0.0005404949188232422,0.00217437744140625,0
0.5589754581451416,-0.18629133701324463,-0.19389887154102325,1.0898966789245605,-0.08631877387473547,-0.9364506373002986,0.0004502232091906668,-0.047976665188307725,0.10780921275293501,0.0,0.0,-0.6,0.0,0.00032138824462890625,0.0005474090576171875,0.0018744468688964844,0
0.5686922073364258,-0.18607646226882935,-0.19394898414611816,1.0885628461837769,-0.08634196908449916,-0.9363011322342427,0.0005238123471828769,-0.04737657281410652,0.10784468733374178,0.0,0.0,-0.6,0.0,0.0003638267517089844,0.0005671977996826172,0.0020270347595214844,0
0.5787057876586914,-0.18588005006313324,-0.19399946928024292,1.0873353481292725,-0.08635744383725177,-0.9361441732897162,0.0007181062601228428,-0.046845681673199864,0.10787532257258874,0.0,0.0,-0.6,0.0,0.0004975795745849609,0.0008723735809326172,0.0029282569885253906,0
0.5893855094909668,-0.18588005006313324,-0.19399946928024292,1.0873353481292725,-0.08635744383725177,-0.9360174379843201,0.0008938553188649714,-0.046517961215007904,0.10789676723978155,0.0,0.0,-0.6,0.0,0.0003008842468261719,0.0005164146423339844,0.0022051334381103516,0
0.5985448360443115,-0.1854005753993988,-0.19414649903774261,1.0842628479003906,-0.08640206859042954,-0.9358409302328073,0.0012097834247246889,-0.045958091651047826,0.10792851278925818,0.0,0.0,-0.6,0.0,0.0003342628479003906,0.0005671977996826172,0.0018000602722167969,0
0.6085200309753418,-0.1852753460407257,-0.1941937804222107,1.0834389925003052,-0.0864069324704383,-0.9356780425395173,0.0015207146337940657,-0.04554053698714114,0.1079525586288951,0.0,0.0,-0.6,0.0,0.00037097930908203125,0.0005810260772705078,0.0020563602447509766,0
0.6187560558319092,-0.18514612317085266,-0.19424037635326385,1.0827056169509888,-0.08642059568218276,-0.9355244583760166,0.001802619633842615,-0.045228560216247986,0.10797451442104508,0.0,0.0,-0.6,0.0,0.00036835670471191406,0.0006203651428222656,0.002073526382446289,0
0.6289105415344238,-0.18514612317085266,-0.19424037635326385,1.0827056169509888,-0.08642059568218276,-0.9354011090994634,0.002039419831733962,-0.04505330236681082,0.10798988347555008,0.0,0.0,-0.6,0.0,0.0002276897430419922,0.00038695335388183594,0.001924753189086914,0
0.6390442848205566,-0.1848546415567398,-0.19437021017074585,1.0810322761535645,-0.08649826626011908,-0.9352551806371944,0.00235917374918765,-0.044694413558796164,0.10802976828042968,0.0,0.0,-0.6,0.0,0.0003261566162109375,0.0005376338958740234,0.0018780231475830078,0
0.6484870910644531,-0.18478704988956451,-0.19441014528274536,1.0806434154510498,-0.08650840779225108,-0.9351289285136761,0.002587184355332075,-0.0443888248854071,0.108061490718395,0.0,0.0,-0.6,0.0,0.0002601146697998047,0.00042176246643066406,0.0014886856079101562,0
0.6587092876434326,-0.18473348021507263,-0.19444887340068817,1.0803357362747192,-0.08650227333426239,-0.9350201025408794,0.002851761111294777,-0.04409697331679274,0.10808139600322487,0.0,0.0,-0.6,0.0,0.0004680156707763672,0.0008602142333984375,0.003050088882446289,0
0.6692559719085693,-0.18473348021507263,-0.19444887340068817,1.0803357362747192,-0.08650227333426239,-0.9349326733283229,0.0030650668671714596,-0.043923127917010064,0.1080953297026058,0.0,0.0,-0.6,0.0,0.0003910064697265625,0.0006010532379150391,0.002555370330810547,0
0.6785454750061035,-0.18466877937316895,-0.19453014433383942,1.0799564123153687,-0.08654815462560703,-0.9348521699108828,0.003483588772269902,-0.04368734357058062,0.10812228877642667,0.0,0.0,-0.6,0.0,0.0004169940948486328,0.0006859302520751953,0.0024220943450927734,0
0.6889364719390869,-0.18463903665542603,-0.19461265206336975,1.079896092414856,-0.08658168592992033,-0.934785969566085,0.003857034654775075,-0.04340922043305761,0.10815373436721876,0.0,0.0,-0.6,0.0,0.00048542022705078125,0.0008382797241210938,0.0029964447021484375,0
0.6985166072845459,-0.18463639914989471,-0.1946517378091812,1.079972267150879,-0.0865927233902846,-0.9347328678845115,0.00415773202107204,-0.043197394083603805,0.10817988532840991,0.0,0.0,-0.6,0.0,0.0005567073822021484,0.0009856224060058594,0.003080606460571289,0
0.7086236476898193,-0.18463639914989471,-0.1946517378091812,1.079972267150879,-0.0865927233902846,-0.9346903839937738,0.004382130053803007,-0.04306408497886596,0.10819819100124364,0.0,0.0,-0.6,0.0,0.00036215782165527344,0.0005767345428466797,0.00202178955078125,0
0.7185840606689453,-0.1846732795238495,-0.19472643733024597,1.0803288221359253,-0.08662459148523621,-0.9346633507408014,0.004548357674905882,-0.04295980519634579,0.1082229555078341,0.0,0.0,-0.6,0.0,0.00033211708068847656,0.0005335807800292969,0.001888275146484375,0
0.7284533977508545,-0.18476101756095886,-0.19479437172412872,1.0809482336044312,-0.08666200028383543,-0.9346550043186421,0.004678769565770783,-0.042948263850209854,0.10825431896192217,0.0,0.0,-0.6,0.0,0.00030875205993652344,0.0004863739013671875,0.0013515949249267578,0
0.7386672496795654,-0.18482573330402374,-0.19482508301734924,1.0813534259796143,-0.08669673561122512,-0.9346608249070364,0.004786421975401581,-0.04290567374220729,0.1082892991275549,0.0,0.0,-0.6,0.0,0.00036644935607910156,0.0005824565887451172,0.002017974853515625,0
0.748868465423584,-0.18482573330402374,-0.19482508301734924,1.0813534259796143,-0.08669673561122512,-0.9346656042570923,0.004860329951340676,-0.04287431178763401,0.10831378524349783,0.0,0.0,-0.6,0.0,0.00037384033203125,0.0006113052368164062,0.0022847652435302734,0
0.7585830688476562,-0.18498988449573517,-0.19488433003425598,1.0823509693145752,-0.08674119473088429,-0.9346967154016272,0.004974167794963665,-0.042810710679114045,0.10834759769453017,0.0,0.0,-0.6,0.0,0.0002734661102294922,0.00045871734619140625,0.0016067028045654297,0
0.768578052520752,-0.18514570593833923,-0.19494308531284332,1.0835827589035034,-0.0867767478432533,-0.9347558001223762,0.005152397011605456,-0.04263225064527828,0.10838459882739107,0.0,0.0,-0.6,0.0,0.00045180320739746094,0.0006868839263916016,0.0020639896392822266,0
0.778527021408081,-0.1852393001317978,-0.19497087597846985,1.0842840671539307,-0.08681497722772519,-0.9348221847172754,0.0053216098957909914,-0.04251992721818989,0.10842483563957078,0.0,0.0,-0.6,0.0,0.0003521442413330078,0.0005753040313720703,0.0019383430480957031,0
0.7887899875640869,-0.1852393001317978,-0.19497087597846985,1.0842840671539307,-0.08681497722772519,-0.9348754906232616,0.005422714259653252,-0.042422770064423444,0.10845300140809647,0.0,0.0,-0.6,0.0,0.0004029273986816406,0.0006034374237060547,0.0020160675048828125,0
0.7985689640045166,-0.185464009642601,-0.19502896070480347,1.0858527421951294,-0.08685915698050677,-0.9349632500470718,0.005719150367779936,-0.04250235587111152,0.10848928485335753,0.0,0.0,-0.6,0.0,0.0003426074981689453,0.0006561279296875,0.002054929733276367,0
0.8087160587310791,-0.18573401868343353,-0.1950865536928177,1.0876346826553345,-0.08688471088639996,-0.935087110821003,0.006078245102693722,-0.04255337022805382,0.10852426597975028,0.0,0.0,-0.6,0.0,0.0003514289855957031,0.0006556510925292969,0.002044200897216797,0
0.8186395168304443,-0.18588538467884064,-0.1951150894165039,1.0886013507843018,-0.08690097825028999,-0.9352096527057383,0.00631103877895162,-0.04263417843900456,0.10855485302968396,0.0,0.0,-0.6,0.0,0.0003490447998046875,0.0006208419799804688,0.0020236968994140625,0
0.8287804126739502,-0.18588538467884064,-0.1951150894165039,1.0886013507843018,-0.08690097825028999,-0.9353085389559926,0.006442243957722423,-0.042656906531779684,0.10857626396463749,0.0,0.0,-0.6,0.0,0.0003657341003417969,0.0005905628204345703,0.0021941661834716797,0
0.8386006355285645,-0.18634338676929474,-0.19518950581550598,1.0917428731918335,-0.08696206830203027,-0.9354728605978382,0.00661387567230329,-0.04281348748905949,0.10861416038850756,0.0,0.0,-0.6,0.0,0.000293731689453125,0.0004942417144775391,0.0017459392547607422,0
0.8487071990966797,-0.18650737404823303,-0.1952139139175415,1.092881202697754,-0.08699999053006771,-0.9356313687640773,0.006730031552233354,-0.04296905946056292,0.10865490872073072,0.0,0.0,-0.6,0.0,0.0003676414489746094,0.0006368160247802734,0.0021343231201171875,0
0.8585906028747559,-0.1866818070411682,-0.1952381283044815,1.0940635204315186,-0.08702311289386624,-0.9357902967381969,0.006871261843417813,-0.043089479579525164,0.10869210343971131,0.0,0.0,-0.6,0.0,0.00035643577575683594,0.0005595684051513672,0.0018453598022460938,0
0.8689172267913818,-0.1866818070411682,-0.1952381283044815,1.0940635204315186,-0.08702311289386624,-0.9359182687432447,0.006928642956915095,-0.043129672036857095,0.10871813974299772,0.0,0.0,-0.6,0.0,0.000377655029296875,0.0006122589111328125,0.002058267593383789,0
0.8784558773040771,-0.18726372718811035,-0.19531618058681488,1.0978645086288452,-0.08708434654556674,-0.9361150402033281,0.007232075473401415,-0.04341123227350268,0.10875932777468596,0.0,0.0,-0.6,0.0,0.00034046173095703125,0.0005562305450439453,0.0019185543060302734,0
0.8887526988983154,-0.18747760355472565,-0.19534337520599365,1.0992122888565063,-0.08709413318287075,-0.9363052159243971,0.007514123379687228,-0.0436545550050924,0.10879182938585673,0.0,0.0,-0.6,0.0,0.0003266334533691406,0.0005414485931396484,0.001947164535522461,0
0.8986737728118896,-0.18770110607147217,-0.19537271559238434,1.100584626197815,-0.08711399723118869,-0.9364941363813416,0.00781120051362346,-0.043948070419416854,0.1088220295317955,0.0,0.0,-0.6,0.0,0.00035643577575683594,0.0005786418914794922,0.0018999576568603516,0
0.9088931083679199,-0.18770110607147217,-0.19537271559238434,1.100584626197815,-0.08711399723118869,-0.9366468487345715,0.007970197208731523,-0.04410149072388179,0.10884316963395259,0.0,0.0,-0.6,0.0,0.0003733634948730469,0.0006997585296630859,0.0022122859954833984,0
0.9183876514434814,-0.18750371038913727,-0.19549433887004852,1.0998786687850952,-0.08717597897269784,-0.9367561655871255,0.008192951573300458,-0.04403376692575287,0.10888121085852853,0.0,0.0,-0.6,0.0,0.0003292560577392578,0.0005364418029785156,0.0017669200897216797,0
0.9286942481994629,-0.18676316738128662,-0.1956699788570404,1.096030592918396,-0.08721225037195572,-0.9367511067619867,0.008359476486792762,-0.043372656812740086,0.10892144149045332,0.0,0.0,-0.6,0.0,0.0003993511199951172,0.0006389617919921875,0.0020885467529296875,0
0.9386799335479736,-0.1864236742258072,-0.1957562267780304,1.0942914485931396,-0.08720737403857003,-0.936703187295469,0.00846770770580483,-0.04267836887459853,0.10894777430778115,0.0,0.0,-0.6,0.0,0.0002715587615966797,0.0004341602325439453,0.0014977455139160156,0
0.9487738609313965,-0.1864236742258072,-0.1957562267780304,1.0942914485931396,-0.08720737403857003,-0.9366634092246638,0.00855524442121676,-0.04220487021652266,0.10896620727991058,0.0,0.0,-0.6,0.0,0.00023603439331054688,0.000415802001953125,0.0016238689422607422,0
0.9585916996002197,-0.18553096055984497,-0.19600601494312286,1.0897655487060547,-0.08725817817870671,-0.9365100841683813,0.008648645306518855,-0.04124592123216436,0.10899816191295249,0.0,0.0,-0.6,0.0,0.00034117698669433594,0.0005679130554199219,0.0018796920776367188,0
0.9686417579650879,-0.18527190387248993,-0.19608639180660248,1.0884778499603271,-0.08727103213855944,-0.9363529621999684,0.008784253469556923,-0.0403890716693929,0.10902535039102655,0.0,0.0,-0.6,0.0,0.0002884864807128906,0.0004603862762451172,0.0015668869018554688,0
0.9786100387573242,-0.18500922620296478,-0.1961652785539627,1.087294101715088,-0.08728221659192166,-0.936195905875971,0.00889540020763806,-0.03960233391559846,0.10904857649568922,0.0,0.0,-0.6,0.0,0.00044727325439453125,0.0006978511810302734,0.0021843910217285156,0
0.9892518520355225,-0.18500922620296478,-0.1961652785539627,1.087294101715088,-0.08728221659192166,-0.9360684255055233,0.009013802839440522,-0.03909421356897621,0.10906483476895311,0.0,0.0,-0.6,0.0,0.000396728515625,0.0006451606750488281,0.0023610591888427734,0
0.9985527992248535,-0.184764102101326,-0.19624318182468414,1.08621346950531,-0.08728943218634962,-0.9359395783743387,0.009170862291047762,-0.03860632612733671,0.10907892140814829,0.0,0.0,-0.6,0.0,0.0002474784851074219,0.0003991127014160156,0.0015223026275634766,0
1.0086450576782227,-0.18413421511650085,-0.19647438824176788,1.0835601091384888,-0.08738594086743393,-0.9357666390895174,0.009373997452778744,-0.03785883872505121,0.10912497281099164,0.0,0.0,-0.6,0.0,0.0004265308380126953,0.0006451606750488281,0.0020439624786376953,0
1.0185229778289795,-0.1839592158794403,-0.19654878973960876,1.082863450050354,-0.08742812472738827,-0.935609527068378,0.00960360446764464,-0.03727079089516416,0.10917302774046478,0.0,0.0,-0.6,0.0,0.0003902912139892578,0.0006327629089355469,0.0020635128021240234,0
1.0287368297576904,-0.1839592158794403,-0.19654878973960876,1.082863450050354,-0.08742812472738827,-0.9354827026528333,0.009805540963405931,-0.03690183998955695,0.10920666619109602,0.0,0.0,-0.6,0.0,0.00041294097900390625,0.0006308555603027344,0.002087831497192383,0
1.0390520095825195,-0.18365660309791565,-0.19668924808502197,1.0817382335662842,-0.08744904569731742,-0.935352537050032,0.009968547519426081,-0.036463264423320235,0.10923805847026126,0.0,0.0,-0.6,0.0,0.0003561973571777344,0.0005972385406494141,0.0018720626831054688,0
1.0486371517181396,-0.18338871002197266,-0.19682073593139648,1.0809526443481445,-0.08746303124528536,-0.935223646001509,0.010156984197760227,-0.03598273106444886,0.10926527764616491,0.0,0.0,-0.6,0.0,0.0003066062927246094,0.0005023479461669922,0.0017230510711669922,0
1.05859375,-0.1832665205001831,-0.19688527286052704,1.080679178237915,-0.08748711110230807,-0.9351121070045678,0.01030815896989925,-0.0356479358089134,0.10929336101568099,0.0,0.0,-0.6,0.0,0.00035762786865234375,0.0005791187286376953,0.001935720443725586,0
1.0688889026641846,-0.1832665205001831,-0.19688527286052704,1.080679178237915,-0.08748711110230807,-0.9350222438942567,0.010443465287211387,-0.03544374129037676,0.1093130193743422,0.0,0.0,-0.6,0.0,0.0004055500030517578,0.0006465911865234375,0.0022444725036621094,0
1.0784733295440674,-0.18306474387645721,-0.19701221585273743,1.0803651809692383,-0.08751315808230173,-0.9349439540252793,0.010628245845262042,-0.035060513509221014,0.1093365478429027,0.0,0.0,-0.6,0.0,0.0003082752227783203,0.0005159378051757812,0.0016846656799316406,0
1.1254751682281494,-0.1829196959733963,-0.1971406787633896,1.0803494453430176,-0.08757249984569096,-0.9348822774622031,0.010879637708335681,-0.03463152774452476,0.10937527093216595,0.0,0.0,-0.6,0.0,0.00029158592224121094,0.0005154609680175781,0.0018889904022216797,0
1.128382682800293,-0.18275296688079834,-0.19744721055030823,1.0815783739089966,-0.08770331106147933,-0.934881580951381,0.011263453043690048,-0.03425023786133862,0.1094514313005711,0.0,0.0,-0.6,0.0,0.0003330707550048828,0.0005140304565429688,0.0015192031860351562,0
1.1386339664459229,-0.18274757266044617,-0.19750772416591644,1.082025408744812,-0.08773473801061546,-0.9348919006373608,0.01162759540674947,-0.03393542098020376,0.10951652866438061,0.0,0.0,-0.6,0.0,0.0004432201385498047,0.0008189678192138672,0.003205537796020508,0
1.1487667560577393,-0.18274757266044617,-0.19750772416591644,1.082025408744812,-0.08773473801061546,-0.9349002386588934,0.011879786099812726,-0.03371230244087917,0.10956209681904733,0.0,0.0,-0.6,0.0,0.00037288665771484375,0.0006275177001953125,0.0023021697998046875,0
1.1585233211517334,-0.18280526995658875,-0.19769001007080078,1.0837246179580688,-0.08781186730801328,-0.9349496151574644,0.012241223640811974,-0.03359560636660754,0.10962291801383804,0.0,0.0,-0.6,0.0,0.00033283233642578125,0.0005388259887695312,0.0018732547760009766,0
1.1692140102386475,-0.18285055458545685,-0.1977514624595642,1.0844066143035889,-0.08784360919719264,-0.9350074464759323,0.01258830123584528,-0.03356065937243528,0.1096773960586339,0.0,0.0,-0.6,0.0,0.0006206035614013672,0.0008761882781982422,0.0025594234466552734,0
1.1786930561065674,-0.18290862441062927,-0.19781410694122314,1.0851362943649292,-0.08785728303577658,-0.9350170138999702,0.012879252873710447,-0.03342781050432397,0.10972065837945998,0.0,0.0,-0.6,0.0,0.00033664703369140625,0.0005881786346435547,0.001975536346435547,0
1.1887943744659424,-0.18290862441062927,-0.19781410694122314,1.0851362943649292,-0.08785728303577658,-0.9350249947905468,0.013080556063718551,-0.03333244251803294,0.10975094200403823,0.0,0.0,-0.6,0.0,0.0011208057403564453,0.0013964176177978516,0.0028886795043945312,0
1.1990530490875244,-0.18304899334907532,-0.19796669483184814,1.0866504907608032,-0.08762746473241652,-0.9334237658958352,0.010929321375468213,-0.030373710595752498,0.10968595867748303,0.0,0.0,-0.6,0.0,0.0003631114959716797,0.0005857944488525391,0.00200653076171875,0
1.2083749771118164,-0.18307968974113464,-0.19799551367759705,1.0866364240646362,-0.08741939295540935,-0.9313394012718689,0.00864094869728894,-0.027242291830543504,0.10956244343251653,0.0,0.0,-0.6,0.0,0.0003032684326171875,0.00046563148498535156,0.0014348030090332031,0
1.2194511890411377,-0.18310335278511047,-0.1980103850364685,1.0863020420074463,-0.08720177763099847,-0.9288203371867119,0.006202092853960854,-0.024008910681052126,0.10939437701438616,0.0,0.0,-0.6,0.0,0.0004432201385498047,0.0007853507995605469,0.0032966136932373047,0
1.2286906242370605,-0.18310335278511047,-0.1980103850364685,1.0863020420074463,-0.08720177763099847,-0.9267844162633275,0.005170439070421974,-0.022425440634283336,0.10927673052169465,0.0,0.0,-0.6,0.0,0.0003466606140136719,0.0005469322204589844,0.0020380020141601562,0
1.2389206886291504,-0.18311728537082672,-0.1979549676179886,1.083272933959961,-0.0861654544515862,-0.922518367383157,0.0004784890740422961,-0.016465515664818704,0.10880575678453155,0.0,0.0,-0.6,0.0,0.00035834312438964844,0.0005664825439453125,0.0018434524536132812,0
1.2485814094543457,-0.18310239911079407,-0.1979038566350937,1.0815776586532593,-0.08572040546123687,-0.918171446607486,-0.0031747198659669274,-0.011617711018134694,0.1083091817971364,0.0,0.0,-0.6,0.0,0.0004343986511230469,0.0006632804870605469,0.0020928382873535156,0
1.2584264278411865,-0.18307864665985107,-0.19783678650856018,1.0795365571975708,-0.08523424338530912,-0.9137580224652718,-0.006039035592979925,-0.007532644580640267,0.10777926852748601,0.0,0.0,-0.6,0.0,0.0002636909484863281,0.00044226646423339844,0.0014569759368896484,0
1.268754005432129,-0.18307864665985107,-0.19783678650856018,1.0795365571975708,-0.08523424338530912,-0.9101929181603471,-0.006868339864830009,-0.005860119093815475,0.1074083292387315,0.0,0.0,-0.6,0.0,0.0005097389221191406,0.0008084774017333984,0.003317594528198242,0
1.2787320613861084,-0.18293845653533936,-0.1976599544286728,1.0744348764419556,-0.08414757603413446,-0.9055146257151581,-0.009301242396666319,-0.0017836585975084217,0.10674117147991315,0.0,0.0,-0.6,0.0,0.0003407001495361328,0.0005731582641601562,0.0019443035125732422,0
1.2884681224822998,-0.1827567219734192,-0.19742247462272644,1.0680084228515625,-0.08295019821885832,-0.8999462851008739,-0.01265550844189377,0.0035668035548049324,0.10582514436801041,0.0,0.0,-0.6,0.0,0.00030231475830078125,0.0005087852478027344,0.0016033649444580078,0
1.2992875576019287,-0.18265044689178467,-0.19728000462055206,1.0643123388290405,-0.0822855324823084,-0.894555739861914,-0.014876479137697214,0.007617141076248433,0.10493467573847383,0.0,0.0,-0.6,0.0,0.0004875659942626953,0.0007562637329101562,0.0029675960540771484,0
1.3087573051452637,-0.18265044689178467,-0.19728000462055206,1.0643123388290405,-0.0822855324823084,-0.8902031352660592,-0.015002936471317244,0.009005696322968094,0.10431134769779687,0.0,0.0,-0.6,0.0,0.00041484832763671875,0.0006387233734130859,0.0021514892578125,0
1.3185157775878906,-0.1819733828306198,-0.19676803052425385,1.0523730516433716,-0.08089535774442802,-0.8848346072017923,-0.0167359460483714,0.012694401099072276,0.10335370254261594,0.0,0.0,-0.6,0.0,0.0002808570861816406,0.000469207763671875,0.0015349388122558594,0
1.3287320137023926,-0.18084926903247833,-0.19602268934249878,1.0359017848968506,-0.07944107267052092,-0.8785802942305663,-0.01938694910962262,0.017779826967990055,0.10213799403127773,0.0,0.0,-0.6,0.0,0.0004227161407470703,0.0006401538848876953,0.0023522377014160156,0
1.3388268947601318,-0.1802646964788437,-0.19563618302345276,1.0273656845092773,-0.07869443361730076,-0.8725807208326295,-0.020844871185188157,0.021611959452811455,0.1010070084283794,0.0,0.0,-0.6,0.0,0.0005605220794677734,0.0010986328125,0.0032875537872314453,0
1.3486909866333008,-0.1802646964788437,-0.19563618302345276,1.0273656845092773,-0.07869443361730076,-0.8677377042432359,-0.020280605532631436,0.022696522676259934,0.10021531850635415,0.0,0.0,-0.6,0.0,0.00035190582275390625,0.0005328655242919922,0.0017962455749511719,0
1.3592283725738525,-0.17849460244178772,-0.1944180428981781,1.0006145238876343,-0.07641437305167487,-0.8610610282081637,-0.022403694096472415,0.027847780292327495,0.09880611284882494,0.0,0.0,-0.6,0.0,0.0003173351287841797,0.0005218982696533203,0.0018825531005859375,0
1.368452787399292,-0.17789965867996216,-0.19399213790893555,0.9913325905799866,-0.0756392225664592,-0.8547628645927237,-0.023272768814589423,0.031369198215878205,0.09752898745659651,0.0,0.0,-0.6,0.0,0.00041103363037109375,0.000675201416015625,0.0019979476928710938,0
1.3785736560821533,-0.1773027926683426,-0.19355621933937073,0.9818775653839111,-0.07485616359190705,-0.8487890005016675,-0.023381597531698956,0.03381751734914003,0.09634135256657976,0.0,0.0,-0.6,0.0,0.0003266334533691406,0.00054168701171875,0.0018296241760253906,0
1.3889427185058594,-0.1773027926683426,-0.19355621933937073,0.9818775653839111,-0.07485616359190705,-0.8439717282970952,-0.02187976407563963,0.03396845589090919,0.09551000814357037,0.0,0.0,-0.6,0.0,0.00039386749267578125,0.0006439685821533203,0.002220630645751953,0
1.3986353874206543,-0.17549259960651398,-0.19219970703125,0.9525349140167236,-0.072477915949766,-0.8375025585495268,-0.022591396132418874,0.03759199203229201,0.09403622418166299,0.0,0.0,-0.6,0.0,0.00033283233642578125,0.0005266666412353516,0.0017886161804199219,0
1.4085943698883057,-0.17486387491226196,-0.19173501431941986,0.9424494504928589,-0.07171350536309237,-0.8314547858400214,-0.022226150633112642,0.03988260756216622,0.09271792143832276,0.0,0.0,-0.6,0.0,0.00036144256591796875,0.0005965232849121094,0.0020809173583984375,0
1.4187836647033691,-0.17423377931118011,-0.19126491248607635,0.9322260022163391,-0.0709247179020745,-0.8257654822118132,-0.021183403882884477,0.04126270101829753,0.09149931422010085,0.0,0.0,-0.6,0.0,0.0005176067352294922,0.0009639263153076172,0.0033631324768066406,0
1.4289238452911377,-0.17423377931118011,-0.19126491248607635,0.9322260022163391,-0.0709247179020745,-0.8211818312090555,-0.01893272654508925,0.04075677674789689,0.09064628916734939,0.0,0.0,-0.6,0.0,0.0003440380096435547,0.0005767345428466797,0.0024728775024414062,0
1.4389114379882812,-0.1723421812057495,-0.18981598317623138,0.9007961750030518,-0.0685930561909429,-0.8151570255052891,-0.018516371681023262,0.04300381487142973,0.08917479848874452,0.0,0.0,-0.6,0.0,0.0003464221954345703,0.0005457401275634766,0.0019197463989257812,0
1.448408603668213,-0.1717122346162796,-0.18932385742664337,0.8900890946388245,-0.0678041326271361,-0.8095512936859705,-0.017326318383524265,0.04411742070648714,0.08784890867729853,0.0,0.0,-0.6,0.0,0.0002639293670654297,0.0004444122314453125,0.0014607906341552734,0
1.458587646484375,-0.17108213901519775,-0.188825324177742,0.8792771100997925,-0.06702221764825812,-0.8043020752442092,-0.015820469629652962,0.04456463581440116,0.08662756769220699,0.0,0.0,-0.6,0.0,0.0003802776336669922,0.0006000995635986328,0.002093791961669922,0
1.4686894416809082,-0.17108213901519775,-0.188825324177742,0.8792771100997925,-0.06702221764825812,-0.8000762248172906,-0.01333022776123072,0.04352580430070008,0.08577262900263957,0.0,0.0,-0.6,0.0,0.00044083595275878906,0.0006871223449707031,0.002279043197631836,0
1.4785025119781494,-0.16915374994277954,-0.1873047798871994,0.8462626338005066,-0.06475921493641708,-0.794568572303968,-0.012244967260092117,0.044569230975429884,0.08432554590300304,0.0,0.0,-0.6,0.0,0.0003266334533691406,0.0005602836608886719,0.0018353462219238281,0
1.4886329174041748,-0.16850592195987701,-0.18679413199424744,0.8350882530212402,-0.06399614917950835,-0.7894606653162473,-0.010517178413374387,0.044764991325168,0.0830264380744168,0.0,0.0,-0.6,0.0,0.00040531158447265625,0.0006349086761474609,0.0020265579223632812,0
1.4984323978424072,-0.16785818338394165,-0.18628166615962982,0.8238406181335449,-0.06326437759701842,-0.784697075131451,-0.008462465634525334,0.044506076509777226,0.08184264825097486,0.0,0.0,-0.6,0.0,0.0003573894500732422,0.0005986690521240234,0.0019159317016601562,0
1.5086214542388916,-0.16785818338394165,-0.18628166615962982,0.8238406181335449,-0.06326437759701842,-0.7808653381649893,-0.005683562660647817,0.04310193223648154,0.08101399537456513,0.0,0.0,-0.6,0.0,0.0004000663757324219,0.0006313323974609375,0.001968860626220703,0
1.5188541412353516,-0.16721002757549286,-0.18576717376708984,0.8125265836715698,-0.06252110449410499,-0.7771484277076774,-0.003193962105938353,0.04201220795382778,0.08015521094748433,0.0,0.0,-0.6,0.0,0.00038123130798339844,0.0006136894226074219,0.002364635467529297,0
1.5285415649414062,-0.16527697443962097,-0.18421770632266998,0.7782469391822815,-0.06036298631639934,-0.7723580686519349,-0.001826550334225217,0.042331706368548126,0.07874476753188529,0.0,0.0,-0.6,0.0,0.0003364086151123047,0.0005524158477783203,0.001950979232788086,0
1.5387108325958252,-0.16463543474674225,-0.18370209634304047,0.7667252421379089,-0.059676558618120434,-0.7679334712862098,6.536068075421535e-05,0.04200632736641616,0.07750004675411612,0.0,0.0,-0.6,0.0,0.0004210472106933594,0.0006744861602783203,0.0022602081298828125,0
1.5486187934875488,-0.16463543474674225,-0.18370209634304047,0.7667252421379089,-0.059676558618120434,-0.7643753345686459,0.0026799557102335173,0.04064126518260602,0.07662874220967657,0.0,0.0,-0.6,0.0,0.0004267692565917969,0.0006749629974365234,0.002259492874145508,0
1.558774709701538,-0.16263414919376373,-0.18216580152511597,0.7319513559341431,-0.057630772950566525,-0.7598919481168928,0.004173396562864024,0.04055381370293709,0.07525165940323145,0.0,0.0,-0.6,0.0,0.0004124641418457031,0.0006890296936035156,0.002913951873779297,0
1.5686531066894531,-0.1619725227355957,-0.18165700137615204,0.7203118801116943,-0.05695798669760145,-0.7557787637039899,0.006123055468388217,0.03992242156368281,0.07403540659386272,0.0,0.0,-0.6,0.0,0.0003914833068847656,0.0006117820739746094,0.0023386478424072266,0
1.578446626663208,-0.16131427884101868,-0.18115104734897614,0.7086570262908936,-0.05629821186891679,-0.7519768289907898,0.008354878294576882,0.03892409693969362,0.07293661406654499,0.0,0.0,-0.6,0.0,0.00031185150146484375,0.0005257129669189453,0.00179290771484375,0
1.5897951126098633,-0.16131427884101868,-0.18115104734897614,0.7086570262908936,-0.05629821186891679,-0.7489227021321432,0.011069892758313316,0.03725030057950015,0.07216745929742338,0.0,0.0,-0.6,0.0,0.00036144256591796875,0.0006058216094970703,0.0023016929626464844,0
1.5985825061798096,-0.16001221537590027,-0.18014799058437347,0.6853170394897461,-0.054935615447438184,-0.7455027296368691,0.013004988722771376,0.036105864646776016,0.07111807730098582,0.0,0.0,-0.6,0.0,0.0003979206085205078,0.0006711483001708984,0.0020830631256103516,0
1.6084494590759277,-0.15872812271118164,-0.17916135489940643,0.6619579195976257,-0.053597224985218364,-0.7418482455725952,0.014695949114732099,0.03529702198291809,0.06988161348014713,0.0,0.0,-0.6,0.0,0.00040030479431152344,0.0014977455139160156,0.003134012222290039,0
1.6186952590942383,-0.15806333720684052,-0.17867527902126312,0.6502788066864014,-0.05295634832448251,-0.7384768600749366,0.016591853201087678,0.0341889437919376,0.06877576005778407,0.0,0.0,-0.6,0.0,0.00037860870361328125,0.0005965232849121094,0.0023050308227539062,0
1.6286940574645996,-0.15806333720684052,-0.17867527902126312,0.6502788066864014,-0.05295634832448251,-0.7357696670338152,0.01898983834292121,0.0325444267311507,0.0680016626621299,0.0,0.0,-0.6,0.0,0.0004105567932128906,0.0006442070007324219,0.002235889434814453,0
1.6386260986328125,-0.15674827992916107,-0.17771440744400024,0.6269443035125732,-0.05169240381028214,-0.7327658555176705,0.02065041481997225,0.031424265137013976,0.06698581529234775,0.0,0.0,-0.6,0.0,0.0004391670227050781,0.0007295608520507812,0.003142118453979492,0
1.6485776901245117,-0.1554536670446396,-0.17677438259124756,0.6036674976348877,-0.05044337919958303,-0.7295708571221423,0.02199612040339601,0.030390517365510645,0.06580633790448721,0.0,0.0,-0.6,0.0,0.00038695335388183594,0.0006270408630371094,0.0022237300872802734,0
1.658452033996582,-0.15481726825237274,-0.17631252110004425,0.5920575261116028,-0.0498389920097267,-0.7266263327354178,0.023591142740099304,0.02899542356509346,0.0647540585367887,0.0,0.0,-0.6,0.0,0.0002894401550292969,0.0004949569702148438,0.001604318618774414,0
1.669189214706421,-0.15481726825237274,-0.17631252110004425,0.5920575261116028,-0.0498389920097267,-0.7242630969187998,0.025687699496972277,0.02725769336219557,0.0640174629793997,0.0,0.0,-0.6,0.0,0.0004019737243652344,0.0006167888641357422,0.002350330352783203,0
1.6786715984344482,-0.15356868505477905,-0.17540553212165833,0.5688451528549194,-0.048648239107545524,-0.7216449894603828,0.027185313497817984,0.02583638659327009,0.06305531375090949,0.0,0.0,-0.6,0.0,0.00035119056701660156,0.0005960464477539062,0.002023458480834961,0
1.688570261001587,-0.15232428908348083,-0.1745172142982483,0.5457507967948914,-0.04747565799638781,-0.7188677924523709,0.028200350796009386,0.024583746027937756,0.06194209137428222,0.0,0.0,-0.6,0.0,0.0012280941009521484,0.0014421939849853516,0.0026373863220214844,0
1.6986191272735596,-0.15170006453990936,-0.17407885193824768,0.5342546701431274,-0.046909110341871105,-0.7163159207376959,0.02939986447203176,0.02307804099212818,0.060950380340200214,0.0,0.0,-0.6,0.0,0.00038814544677734375,0.0006005764007568359,0.002227783203125,0
1.7085258960723877,-0.15170006453990936,-0.17407885193824768,0.5342546701431274,-0.046909110341871105,-0.7142685159479485,0.031125127652132326,0.021356076353624687,0.06025618261634251,0.0,0.0,-0.6,0.0,0.00039458274841308594,0.0006175041198730469,0.0019719600677490234,0
1.7183527946472168,-0.15062889456748962,-0.17361405491828918,0.49442002177238464,-0.04520359578014954,-0.7115502297817418,0.032141636291399094,0.01952700406131031,0.05913067624899696,0.0,0.0,-0.6,0.0,0.00035572052001953125,0.0006284713745117188,0.0029358863830566406,0
1.7285082340240479,-0.15040330588817596,-0.17359058558940887,0.4804074466228485,-0.04467416406961432,-0.7089980769394403,0.033509944686545126,0.01747220859116541,0.058144284900403374,0.0,0.0,-0.6,0.0,0.00035190582275390625,0.0005862712860107422,0.002115488052368164,0
1.73862624168396,-0.15017879009246826,-0.1735638529062271,0.46652132272720337,-0.04416706026740622,-0.706601771856261,0.03514061730230212,0.015315493355840882,0.05726364703055981,0.0,0.0,-0.6,0.0,0.00033855438232421875,0.0005884170532226562,0.0019626617431640625,0
1.748680830001831,-0.15017879009246826,-0.1735638529062271,0.46652132272720337,-0.04416706026740622,-0.7046809286639081,0.03715145829283575,0.013163116674627518,0.056647200521669286,0.0,0.0,-0.6,0.0,0.00026035308837890625,0.0004367828369140625,0.0015802383422851562,0
1.7584600448608398,-0.14947429299354553,-0.17347010970115662,0.42557787895202637,-0.04260129228083968,-0.7021578977233434,0.03826592564899618,0.010698252037853124,0.0556285249704844,0.0,0.0,-0.6,0.0,0.0003509521484375,0.0005762577056884766,0.0018324851989746094,0
1.768592357635498,-0.14923939108848572,-0.1734335571527481,0.41216927766799927,-0.04208669755157351,-0.6998254744684465,0.03964600230896943,0.008143528205355821,0.054722479061178476,0.0,0.0,-0.6,0.0,0.00025725364685058594,0.00044918060302734375,0.0017921924591064453,0
1.7786228656768799,-0.14900751411914825,-0.1733950525522232,0.398880273103714,-0.041547227275240635,-0.6976616670457438,0.0411429148395791,0.005622059977996341,0.05388594557104028,0.0,0.0,-0.6,0.0,0.00032520294189453125,0.0005195140838623047,0.0018243789672851562,0
1.7891035079956055,-0.14900751411914825,-0.1733950525522232,0.398880273103714,-0.041547227275240635,-0.6959281633007881,0.04302030088707442,0.00325323892499458,0.053300372127943516,0.0,0.0,-0.6,0.0,0.00033164024353027344,0.0005478858947753906,0.0019991397857666016,0
1.7983460426330566,-0.14832572638988495,-0.17326922714710236,0.35974740982055664,-0.040043503755611144,-0.6937347095041982,0.04401785471852814,0.0007590222151175972,0.052326574397913925,0.0,0.0,-0.6,0.0,0.00026488304138183594,0.00041794776916503906,0.0013692378997802734,0
1.8087735176086426,-0.14810623228549957,-0.17322340607643127,0.34693875908851624,-0.039571983236100255,-0.6917318885725499,0.045060590663579675,-0.0017434661238808348,0.0514680957920782,0.0,0.0,-0.6,0.0,0.0003635883331298828,0.0006012916564941406,0.0020792484283447266,0
1.8187646865844727,-0.14789101481437683,-0.1731734573841095,0.33425459265708923,-0.03909631029067394,-0.6898927464032212,0.04610475520231067,-0.004180818386170404,0.05068878341345757,0.0,0.0,-0.6,0.0,0.0003399848937988281,0.0014433860778808594,0.0029456615447998047,0
1.8286755084991455,-0.14789101481437683,-0.1731734573841095,0.33425459265708923,-0.03909631029067394,-0.6884197260186666,0.04757887472294121,-0.006424180440900802,0.050143264748423094,0.0,0.0,-0.6,0.0,0.00032901763916015625,0.0005240440368652344,0.00213623046875,0
1.8384881019592285,-0.1472182422876358,-0.1730118691921234,0.29693424701690674,-0.03768809466488869,-0.6865811752935784,0.04773179854163169,-0.008762536268502538,0.049233320823230335,0.0,0.0,-0.6,0.0,0.0003132820129394531,0.0005273818969726562,0.0018544197082519531,0
1.848479986190796,-0.1470038741827011,-0.1729530245065689,0.28474047780036926,-0.03720078732392277,-0.6849133800150271,0.048120705183755066,-0.011023740646518659,0.04841361982273238,0.0,0.0,-0.6,0.0,0.0004818439483642578,0.0008013248443603516,0.0031287670135498047,0
1.85866117477417,-0.14679399132728577,-0.17289234697818756,0.2726723253726959,-0.03673695204054182,-0.6833937537108865,0.04856731133479124,-0.013129636534123457,0.04766589089111595,0.0,0.0,-0.6,0.0,0.0003561973571777344,0.0006008148193359375,0.0022068023681640625,0
1.86863112449646,-0.14679399132728577,-0.17289234697818756,0.2726723253726959,-0.03673695204054182,-0.6821763513762378,0.04952209458075606,-0.015069743459134888,0.04714248063898487,0.0,0.0,-0.6,0.0,0.00034880638122558594,0.0005600452423095703,0.002116680145263672,0
1.8784804344177246,-0.14638952910900116,-0.17276467382907867,0.24890977144241333,-0.03586245894071553,-0.680853435069461,0.04961050203437244,-0.016887770987464745,0.04644815855005783,0.0,0.0,-0.6,0.0,0.0003669261932373047,0.0006034374237060547,0.00206756591796875,0
1.8886864185333252,-0.14600634574890137,-0.1726331263780594,0.22559449076652527,-0.03498964919811826,-0.6794777201951859,0.04939582696329371,-0.01856703352647624,0.04563482943433423,0.0,0.0,-0.6,0.0,0.0003917217254638672,0.0006151199340820312,0.002073526382446289,0
1.8986358642578125,-0.145798921585083,-0.17256847023963928,0.2141241431236267,-0.034578014598626444,-0.67823807107254,0.049330948294497565,-0.020102290990070753,0.04491113607851897,0.0,0.0,-0.6,0.0,0.0006833076477050781,0.0010585784912109375,0.003472566604614258,0
1.908684253692627,-0.145798921585083,-0.17256847023963928,0.2141241431236267,-0.034578014598626444,-0.6772441323029315,0.04983003256338971,-0.02157524699775636,0.044404550729448704,0.0,0.0,-0.6,0.0,0.0003612041473388672,0.0005748271942138672,0.0020852088928222656,0
1.9191882610321045,-0.14520806074142456,-0.1723681092262268,0.1804749071598053,-0.03337034350778734,-0.6760832607805706,0.04889146277320179,-0.022664619975847254,0.043597064326033746,0.0,0.0,-0.6,0.0,0.00036787986755371094,0.0006067752838134766,0.002058744430541992,0
1.9284567832946777,-0.14502036571502686,-0.17229750752449036,0.1695125252008438,-0.03300038691271398,-0.6750455991282898,0.048165497174835925,-0.023632603022285596,0.04289309012049146,0.0,0.0,-0.6,0.0,0.0003707408905029297,0.0006120204925537109,0.0019185543060302734,0
1.9386305809020996,-0.14483746886253357,-0.17222550511360168,0.15867818892002106,-0.032610356819521166,-0.6741198476224121,0.04760067444147443,-0.024585920024812608,0.0422540468916651,0.0,0.0,-0.6,0.0,0.00035834312438964844,0.0005767345428466797,0.001943349838256836,0
1.9488413333892822,-0.14483746886253357,-0.17222550511360168,0.15867818892002106,-0.032610356819521166,-0.6733764833819829,0.047623933845477674,-0.025562552400713364,0.041806716631486454,0.0,0.0,-0.6,0.0,0.0005266666412353516,0.0007655620574951172,0.0024361610412597656,0
1.9586212635040283,-0.14448677003383636,-0.17207419872283936,0.1373993158340454,-0.031863587502952255,-0.6726138797093274,0.04657827554829261,-0.026229509005026647,0.04121354695564821,0.0,0.0,-0.6,0.0,0.0003685951232910156,0.0005936622619628906,0.0020139217376708984,0
1.9687697887420654,-0.14412760734558105,-0.17191526293754578,0.11663065105676651,-0.031093238379527835,-0.6718598064578846,0.04493679197430273,-0.026832850150661423,0.04050944726127739,0.0,0.0,-0.6,0.0,0.00046133995056152344,0.0007259845733642578,0.0023207664489746094,0
1.9786553382873535,-0.14394141733646393,-0.17183339595794678,0.1064341813325882,-0.030738422166701314,-0.6711875154666408,0.04341804828337496,-0.027303003229022377,0.03988352139540725,0.0,0.0,-0.6,0.0,0.00032258033752441406,0.00054931640625,0.0017800331115722656,0
1.9891045093536377,-0.14394141733646393,-0.17183339595794678,0.1064341813325882,-0.030738422166701314,-0.6706451732925319,0.04266432694642694,-0.02786350481324999,0.03944537328929774,0.0,0.0,-0.6,0.0,0.00034427642822265625,0.0005600452423095703,0.002020120620727539,0
1.9987716674804688,-0.14358370006084442,-0.17166058719158173,0.08641668409109116,-0.030024315400391445,-0.6701078441190135,0.0410871596056679,-0.02803892856188879,0.03887087957765528,0.0,0.0,-0.6,0.0,0.00032973289489746094,0.0005426406860351562,0.001965761184692383,0
2.0086910724639893,-0.1432439535856247,-0.17147724330425262,0.06690367311239243,-0.029319561833999464,-0.6696055839033136,0.038914356474677864,-0.02792676775797814,0.038204451392108874,0.0,0.0,-0.6,0.0,0.00033926963806152344,0.0005464553833007812,0.0018842220306396484,0
2.018700361251831,-0.1430816352367401,-0.1713830530643463,0.05733637884259224,-0.02898800924068075,-0.6691702972282122,0.03709599902548574,-0.02783253658666982,0.03761361943973183,0.0,0.0,-0.6,0.0,0.0005960464477539062,0.0010492801666259766,0.003392934799194336,0
2.028848171234131,-0.1430816352367401,-0.1713830530643463,0.05733637884259224,-0.02898800924068075,-0.6688169160085546,0.036023724841713844,-0.02791916104883763,0.03720003707306779,0.0,0.0,-0.6,0.0,0.0005319118499755859,0.0009264945983886719,0.0032825469970703125,0
2.038499593734741,-0.14260098338127136,-0.1710931807756424,0.029324881732463837,-0.02796160249773856,-0.6684807928157128,0.03383818091415916,-0.027486075477698563,0.0365256268877998,0.0,0.0,-0.6,0.0,0.0003135204315185547,0.0005397796630859375,0.0018002986907958984,0
2.048520088195801,-0.1424354761838913,-0.17099475860595703,0.020237036049365997,-0.027631975633901535,-0.6682043573196902,0.031991154557323764,-0.027146498814350436,0.03592992968417327,0.0,0.0,-0.6,0.0,0.00040841102600097656,0.0006837844848632812,0.0020172595977783203,0
2.0585544109344482,-0.14227616786956787,-0.1708945780992508,0.011273326352238655,-0.027313420079783747,-0.6679753936322044,0.03024928261016878,-0.026766996889154213,0.035393483308840734,0.0,0.0,-0.6,0.0,0.0003199577331542969,0.0005321502685546875,0.0018851757049560547,0
2.0686323642730713,-0.14227616786956787,-0.1708945780992508,0.011273326352238655,-0.027313420079783747,-0.6677874617039322,0.029133761864310645,-0.026582028315793045,0.03501797084610779,0.0,0.0,-0.6,0.0,0.00044465065002441406,0.0006914138793945312,0.002176523208618164,0
2.0787971019744873,-0.14197205007076263,-0.17068736255168915,-0.0062875086441636086,-0.026713008853746743,-0.6676456166089662,0.027430967894103372,-0.025780261032431737,0.03452995791243076,0.0,0.0,-0.6,0.0,0.0005044937133789062,0.0009322166442871094,0.003179788589477539,0
2.0887386798858643,-0.14168228209018707,-0.17047283053398132,-0.02335995063185692,-0.02610924945197017,-0.6675615859025311,0.02537781557017698,-0.024646598481860744,0.03396193908318968,0.0,0.0,-0.6,0.0,0.00038123130798339844,0.0006144046783447266,0.0020372867584228516,0
2.098663091659546,-0.14154300093650818,-0.1703634411096573,-0.03174084424972534,-0.025792118114701015,-0.6675081130441299,0.023507094342778995,-0.02346280229937353,0.03344540165124595,0.0,0.0,-0.6,0.0,0.00036144256591796875,0.00058746337890625,0.0019614696502685547,0
2.108793020248413,-0.14154300093650818,-0.1703634411096573,-0.03174084424972534,-0.025792118114701015,-0.6674595681409626,0.022216127368197818,-0.022649631045277865,0.03308382544888525,0.0,0.0,-0.6,0.0,0.0004372596740722656,0.0006685256958007812,0.0023193359375,0
2.1185739040374756,-0.14110738039016724,-0.1705954372882843,-0.05168627202510834,-0.025186204991285613,-0.6673341839694956,0.020480391352584417,-0.021247185105647482,0.03260350468595205,0.0,0.0,-0.6,0.0,0.00030684471130371094,0.0005338191986083984,0.0019218921661376953,0
2.12850284576416,-0.14053301513195038,-0.17124274373054504,-0.07443523406982422,-0.02458853022325586,-0.6670517764322152,0.01862947649506796,-0.019208446688812206,0.03204315211388794,0.0,0.0,-0.6,0.0,0.00043845176696777344,0.0007202625274658203,0.0021255016326904297,0
2.138437509536743,-0.14025580883026123,-0.17154571413993835,-0.0855046808719635,-0.024318063899881476,-0.6667436686596825,0.01714590416682745,-0.017261741805249052,0.03154948044217739,0.0,0.0,-0.6,0.0,0.00036263465881347656,0.0006008148193359375,0.0018284320831298828,0
2.1484792232513428,-0.14025580883026123,-0.17154571413993835,-0.0855046808719635,-0.024318063899881476,-0.6664903249943118,0.016247068458144363,-0.01601057838669271,0.031203910271979923,0.0,0.0,-0.6,0.0,0.0003590583801269531,0.0005619525909423828,0.0016884803771972656,0
2.1587696075439453,-0.13971702754497528,-0.17211665213108063,-0.10704931616783142,-0.023796066304364174,-0.6661474987341914,0.01521955249914936,-0.013875909052224984,0.03076626205452238,0.0,0.0,-0.6,0.0,0.0004069805145263672,0.0006256103515625,0.002115488052368164,0
2.168736696243286,-0.1391972154378891,-0.17263983190059662,-0.12781788408756256,-0.02324960275629448,-0.6657581289872188,0.014104120069633606,-0.01139511583418517,0.030254984471776162,0.0,0.0,-0.6,0.0,0.00038909912109375,0.0006442070007324219,0.002081632614135742,0
2.1786837577819824,-0.13892151415348053,-0.17288440465927124,-0.1379184126853943,-0.022975072674795784,-0.665394994119957,0.013229523204251036,-0.00922297034885921,0.029794141383291794,0.0,0.0,-0.6,0.0,0.0003724098205566406,0.0006086826324462891,0.002131223678588867,0
2.1890017986297607,-0.13892151415348053,-0.17288440465927124,-0.1379184126853943,-0.022975072674795784,-0.6650984166702743,0.012785292531135417,-0.007835483757009435,0.029471551221352577,0.0,0.0,-0.6,0.0,0.00044274330139160156,0.0006706714630126953,0.0022001266479492188,0
2.1988306045532227,-0.13812756538391113,-0.17354343831539154,-0.1671241670846939,-0.022200085680958496,-0.6647617399626111,0.011903647321944459,-0.005257919979988945,0.028955117985306308,0.0,0.0,-0.6,0.0,0.00034046173095703125,0.0005440711975097656,0.0019044876098632812,0
2.2088205814361572,-0.137869730591774,-0.17374162375926971,-0.17650106549263,-0.02196116249198344,-0.6644634836216082,0.011257382845021608,-0.0029738210733195715,0.028504018524208266,0.0,0.0,-0.6,0.0,0.0004658699035644531,0.0006773471832275391,0.0021142959594726562,0
2.218421459197998,-0.13761454820632935,-0.17392882704734802,-0.18570423126220703,-0.02172905716330056,-0.6642014918009015,0.010705209974372425,-0.0008646358181402091,0.028101209403183374,0.0,0.0,-0.6,0.0,0.00042176246643066406,0.0007023811340332031,0.0020029544830322266,0
2.2286367416381836,-0.13761454820632935,-0.17392882704734802,-0.18570423126220703,-0.02172905716330056,-0.6639869936101506,0.01043981009849393,0.0005170139816080218,0.02781924301846611,0.0,0.0,-0.6,0.0,0.00041961669921875,0.0005919933319091797,0.001827239990234375,0
2.238706111907959,-0.13711264729499817,-0.1742716133594513,-0.20359621942043304,-0.021248755989892783,-0.6637997755684217,0.009993965856441673,0.0022684211282194273,0.027441753609135956,0.0,0.0,-0.6,0.0,0.00035071372985839844,0.0005733966827392578,0.0020308494567871094,0
