time,x,y,z,yaw,throttle,roll_rate,pitch_rate,yaw_rate,x_ref,y_ref,z_ref,yaw_ref,pred_time,nr_time,ctrl_callback_time,metadata
1.1920928955078125e-06,0.026023883372545242,-0.06578680127859116,1.1471974849700928,-0.23918905200543847,-0.7504534274540293,0.05802282875772202,0.046961378681300875,0.08969589450194974,0.0,0.0,-0.6,0.0,0.003112316131591797,0.00426483154296875,0.006551027297973633,Sim
0.010169267654418945,0.02628982812166214,-0.06582238525152206,1.1474320888519287,-0.23923354671842986,-0.7934239212756296,0.08720533159719779,0.09368897881512053,0.15249970617071323,0.0,0.0,-0.6,0.0,0.0026993751525878906,0.003253459930419922,0.004285097122192383,Nonlinear
0.02041149139404297,0.02628982812166214,-0.06582238525152206,1.1474320888519287,-0.23923354671842986,-0.8264162872369042,0.09552224450134633,0.13482849028517627,0.19646237433886649,0.0,0.0,-0.6,0.0,0.0015575885772705078,0.001987457275390625,0.0034279823303222656,1x Speed
0.029863357543945312,0.026564480736851692,-0.06594999134540558,1.1479945182800293,-0.23931674449858936,-0.8520412892270662,0.09058134790286068,0.16867677686286056,0.22726744122414674,0.0,0.0,-0.6,0.0,0.0005090236663818359,0.0008330345153808594,0.0017695426940917969,0OrderHold
0.04017949104309082,0.026701055467128754,-0.06604740023612976,1.1483935117721558,-0.23934609772591253,-0.872087480944082,0.07832879828646676,0.19495375493779596,0.24884199550409833,0.0,0.0,-0.6,0.0,0.0007443428039550781,0.0034465789794921875,0.004756450653076172,QuatYawError
0.05060744285583496,0.026968184858560562,-0.06630430370569229,1.1494200229644775,-0.23941124010781376,-0.8878611706964239,0.0629200907444968,0.2145689044692577,0.26396861189328386,0.0,0.0,-0.6,0.0,0.0004832744598388672,0.0009093284606933594,0.0025992393493652344,NoPyJoules
0.06009936332702637,0.026968184858560562,-0.06630430370569229,1.1494200229644775,-0.23941124010781376,-0.900295851707154,0.04696684106775817,0.22861763385519804,0.2745572433657183,0.0,0.0,-0.6,0.0,0.0004551410675048828,0.0006885528564453125,0.0012502670288085938,0
0.06989431381225586,0.027235573157668114,-0.06663533300161362,1.1506496667861938,-0.23936311757565806,-0.9099055784216319,0.03139432774302583,0.23850345710383553,0.2819512394468672,0.0,0.0,-0.6,0.0,0.0002994537353515625,0.000579833984375,0.0014998912811279297,0
0.079803466796875,0.02737114392220974,-0.06682337075471878,1.151211142539978,-0.23921308350323534,-0.9171542511300019,0.016875679210758665,0.24495963219789463,0.28707077392644414,0.0,0.0,-0.6,0.0,0.0006010532379150391,0.0008692741394042969,0.0016551017761230469,0
0.08976078033447266,0.027686215937137604,-0.06723115593194962,1.1518995761871338,-0.23851768705195622,-0.9218573624528642,0.0019337885343231297,0.24809181371671912,0.2903936743929912,0.0,0.0,-0.6,0.0,0.0002598762512207031,0.0004706382751464844,0.0011601448059082031,0
0.1003272533416748,0.027686215937137604,-0.06723115593194962,1.1518995761871338,-0.23851768705195622,-0.9255827279520765,-0.009772510270026007,0.25002262910629314,0.29271970471960734,0.0,0.0,-0.6,0.0,0.0003376007080078125,0.0006296634674072266,0.001695394515991211,0
0.10973381996154785,0.028027376160025597,-0.06766676157712936,1.1517505645751953,-0.23724226681353194,-0.9272139376202511,-0.022768682655129307,0.24884666757716797,0.29386964335879845,0.0,0.0,-0.6,0.0,0.00017952919006347656,0.0003085136413574219,0.0007441043853759766,0
0.11969137191772461,0.028208496049046516,-0.06789059191942215,1.1512924432754517,-0.23640264959625112,-0.9277581089814496,-0.034293469370830165,0.24625500891243915,0.2943597439497526,0.0,0.0,-0.6,0.0,0.00018405914306640625,0.0003540515899658203,0.0007793903350830078,0
0.12968993186950684,0.028591634705662727,-0.06834860146045685,1.1494964361190796,-0.23428488274009,-0.9266069815978574,-0.04635900319793179,0.2404217042480195,0.2939086517923673,0.0,0.0,-0.6,0.0,0.0001461505889892578,0.0002636909484863281,0.0006704330444335938,0
0.13966798782348633,0.028591634705662727,-0.06834860146045685,1.1494964361190796,-0.23428488274009,-0.9256518237647338,-0.05456115198179158,0.23644794960380164,0.2935928872821912,0.0,0.0,-0.6,0.0,0.00016808509826660156,0.00031065940856933594,0.0007700920104980469,0
0.14967989921569824,0.028998713940382004,-0.06880546361207962,1.146468162536621,-0.23168087246288777,-0.923204580520081,-0.06353183703209457,0.22907569604582226,0.2923953482711013,0.0,0.0,-0.6,0.0,0.0001518726348876953,0.0002872943878173828,0.0007054805755615234,0
0.15982389450073242,0.028998713940382004,-0.06880546361207962,1.146468162536621,-0.23168087246288777,-0.9212122439777979,-0.06931628313191171,0.22416858142908905,0.29155707096335465,0.0,0.0,-0.6,0.0,0.00017213821411132812,0.00029397010803222656,0.0007777214050292969,0
0.16967082023620605,0.029462780803442,-0.06925618648529053,1.1421928405761719,-0.22863643479560553,-0.917877201333586,-0.07590856093189798,0.21580276949262778,0.28982861272270205,0.0,0.0,-0.6,0.0,0.00020575523376464844,0.0003707408905029297,0.0008006095886230469,0
0.17984223365783691,0.029462780803442,-0.06925618648529053,1.1421928405761719,-0.22863643479560553,-0.9151729818757632,-0.07988549717061733,0.21031376712725497,0.2886186919542447,0.0,0.0,-0.6,0.0,0.0001590251922607422,0.0002911090850830078,0.0008292198181152344,0
0.1897139549255371,0.030165890231728554,-0.0699048563838005,1.1334024667739868,-0.22347460166083205,-0.9103443078025446,-0.0855932409396194,0.19797916071674007,0.2858360599907861,0.0,0.0,-0.6,0.0,0.0001304149627685547,0.00023794174194335938,0.0005497932434082031,0
0.19998455047607422,0.03039504401385784,-0.07011247426271439,1.1298396587371826,-0.22159647783361025,-0.9055407126840858,-0.089596838638976,0.18694750486876346,0.28318392118115676,0.0,0.0,-0.6,0.0,0.00021123886108398438,0.00033783912658691406,0.0009467601776123047,0
0.2098255157470703,0.030840115621685982,-0.0705103650689125,1.1217702627182007,-0.21768973808192432,-0.8998898074919505,-0.09308642229130358,0.17358568739920213,0.27986239660753465,0.0,0.0,-0.6,0.0,0.0001919269561767578,0.0003376007080078125,0.0010139942169189453,0
0.21970248222351074,0.030840115621685982,-0.0705103650689125,1.1217702627182007,-0.21768973808192432,-0.8953105581658897,-0.09455158285205528,0.1649806189735211,0.2775373294059982,0.0,0.0,-0.6,0.0,0.0001983642578125,0.00033020973205566406,0.0007822513580322266,0
0.22975993156433105,0.03129364177584648,-0.07089169323444366,1.1124964952468872,-0.21359051994032463,-0.8898532640744347,-0.09573864961138173,0.15314077445035065,0.2743725755618236,0.0,0.0,-0.6,0.0,0.00016546249389648438,0.00028896331787109375,0.0007464885711669922,0
0.23977303504943848,0.03150607645511627,-0.07107649743556976,1.1074182987213135,-0.211473090059954,-0.8845605685018354,-0.09598537488731936,0.142289865634287,0.27136321166576227,0.0,0.0,-0.6,0.0,0.00018072128295898438,0.00031280517578125,0.0008330345153808594,0
0.2504923343658447,0.03171750158071518,-0.07018615305423737,1.0927168130874634,-0.20719114390591373,-0.8784581771889934,-0.09641745449152857,0.12854291691734476,0.26765092713080646,0.0,0.0,-0.6,0.0,0.00015020370483398438,0.000270843505859375,0.0015020370483398438,0
0.2601301670074463,0.03171750158071518,-0.07018615305423737,1.0927168130874634,-0.20719114390591373,-0.8735196100030544,-0.09575026856704336,0.1197337770263369,0.26505232795628475,0.0,0.0,-0.6,0.0,0.00016260147094726562,0.00031304359436035156,0.0008234977722167969,0
0.26969408988952637,0.03169975429773331,-0.06810880452394485,1.0735182762145996,-0.2028165448669272,-0.8676432660987253,-0.09575998762294824,0.10712831418433245,0.2615928338945005,0.0,0.0,-0.6,0.0,0.00014495849609375,0.0002624988555908203,0.0006299018859863281,0
0.2796761989593506,0.03166740760207176,-0.06709982454776764,1.063657283782959,-0.2005957111618971,-0.8619648635722945,-0.09539795949917461,0.09562708195503004,0.258338375411865,0.0,0.0,-0.6,0.0,0.0001990795135498047,0.0003669261932373047,0.0007977485656738281,0
0.28970813751220703,0.031561702489852905,-0.06514403969049454,1.043453335762024,-0.19616783531268764,-0.8555664916785645,-0.09486040525023214,0.08152819647988271,0.2543998010305673,0.0,0.0,-0.6,0.0,0.0002727508544921875,0.0005168914794921875,0.0011429786682128906,0
0.2998812198638916,0.031561702489852905,-0.06514403969049454,1.043453335762024,-0.19616783531268764,-0.8503936698204414,-0.09354662211165213,0.07245480271276289,0.2516427989636577,0.0,0.0,-0.6,0.0,0.0002899169921875,0.0004992485046386719,0.0011022090911865234,0
0.309798002243042,0.03138460963964462,-0.06327106058597565,1.022646188735962,-0.19173065291338087,-0.8444599135361923,-0.09207121015911446,0.060205447996781014,0.2480489541170818,0.0,0.0,-0.6,0.0,0.00018405914306640625,0.0003294944763183594,0.0009050369262695312,0
0.31969738006591797,0.03126341849565506,-0.06236498802900314,1.0120314359664917,-0.1895196331373231,-0.8388115336954631,-0.0901206141921332,0.04922353487397774,0.24470413030845675,0.0,0.0,-0.6,0.0,0.00021409988403320312,0.0003685951232910156,0.0008087158203125,0
0.3297543525695801,0.030953016132116318,-0.06061825156211853,0.9904076457023621,-0.18511806898099087,-0.8325774379184859,-0.08754326312827035,0.03619490500620126,0.24071216708379528,0.0,0.0,-0.6,0.0,0.00016617774963378906,0.00029921531677246094,0.0007152557373046875,0
0.33983445167541504,0.030953016132116318,-0.06061825156211853,0.9904076457023621,-0.18511806898099087,-0.8275456570737806,-0.08490797892601515,0.027725142612345644,0.23791779282653105,0.0,0.0,-0.6,0.0,0.0002474784851074219,0.0003807544708251953,0.0008997917175292969,0
0.34965062141418457,0.03054262325167656,-0.0589546374976635,0.968280553817749,-0.18075169590267964,-0.8218791025129444,-0.081888973084415,0.016598738209434964,0.23432434094208018,0.0,0.0,-0.6,0.0,0.0001361370086669922,0.0002455711364746094,0.0005877017974853516,0
0.3598191738128662,0.030311239883303642,-0.058155253529548645,0.9570436477661133,-0.17860102183582124,-0.8165286248355103,-0.07860875678485117,0.006583517192714468,0.2310024218478924,0.0,0.0,-0.6,0.0,0.00018668174743652344,0.00033855438232421875,0.0008485317230224609,0
0.36969661712646484,0.029763124883174896,-0.05662081763148308,0.9342702627182007,-0.17439288004718148,-0.8106904848563833,-0.07469793778085802,-0.005158573149628561,0.22709902531122164,0.0,0.0,-0.6,0.0,0.00015163421630859375,0.0002703666687011719,0.0007045269012451172,0
0.38028550148010254,0.029763124883174896,-0.05662081763148308,0.9342702627182007,-0.17439288004718148,-0.8059860271861802,-0.0712233342525433,-0.012936069338853301,0.22436664773555093,0.0,0.0,-0.6,0.0,0.00015401840209960938,0.0002703666687011719,0.0007493495941162109,0
0.38982295989990234,0.029104776680469513,-0.05517183616757393,0.9111334681510925,-0.17025286171390722,-0.800732197706181,-0.06693532497736222,-0.02281714448980874,0.2209014765576043,0.0,0.0,-0.6,0.0,0.0001537799835205078,0.0002779960632324219,0.0007061958312988281,0
0.39970922470092773,0.02873270772397518,-0.054483186453580856,0.899445116519928,-0.168222793097209,-0.7957995349782923,-0.0625312875924363,-0.03172139069357762,0.2177145810017796,0.0,0.0,-0.6,0.0,0.0001773834228515625,0.0003268718719482422,0.0008172988891601562,0
0.409651517868042,0.027900012210011482,-0.053178004920482635,0.8758621215820312,-0.16417812927512415,-0.7904733546905908,-0.05718241442137793,-0.04190240769847661,0.213967005179421,0.0,0.0,-0.6,0.0,0.00014090538024902344,0.00025463104248046875,0.0006241798400878906,0
0.4198939800262451,0.027900012210011482,-0.053178004920482635,0.8758621215820312,-0.16417812927512415,-0.7861886339339584,-0.052779734500538654,-0.04881660338510193,0.21134370210376888,0.0,0.0,-0.6,0.0,0.0001838207244873047,0.00034117698669433594,0.0008528232574462891,0
0.4295811653137207,0.02696686051785946,-0.051970224827528,0.8519885540008545,-0.1602226347526646,-0.7814535634128511,-0.04752512175520245,-0.05721005989980361,0.20802407950489074,0.0,0.0,-0.6,0.0,0.00013065338134765625,0.0002391338348388672,0.0005533695220947266,0
0.43991518020629883,0.02696686051785946,-0.051970224827528,0.8519885540008545,-0.1602226347526646,-0.7776488640742817,-0.04324376345976335,-0.0629998646670275,0.20570034368567505,0.0,0.0,-0.6,0.0,0.00018167495727539062,0.00032210350036621094,0.0010197162628173828,0
0.44981932640075684,0.02537250518798828,-0.050337690860033035,0.815850555896759,-0.15456726835296625,-0.7727593311010927,-0.03738526910337727,-0.07174269370753872,0.20195296621233863,0.0,0.0,-0.6,0.0,0.00021219253540039062,0.0003845691680908203,0.0009748935699462891,0
0.4597339630126953,0.02537250518798828,-0.050337690860033035,0.815850555896759,-0.15456726835296625,-0.7688314801472085,-0.032658173317936405,-0.07786990600942897,0.199329801981002,0.0,0.0,-0.6,0.0,0.0001506805419921875,0.0002694129943847656,0.0006487369537353516,0
0.46984267234802246,0.02416398748755455,-0.04936859384179115,0.7915942668914795,-0.1508488783362333,-0.7645359946021876,-0.027060156381887468,-0.08476472426104543,0.1960991907627921,0.0,0.0,-0.6,0.0,0.0001938343048095703,0.0003535747528076172,0.0009176731109619141,0
0.4798274040222168,0.023516304790973663,-0.04892111197113991,0.7794334292411804,-0.1490284955809707,-0.7605372976869863,-0.021694089335750174,-0.09097386734140792,0.19315511937682142,0.0,0.0,-0.6,0.0,0.0001499652862548828,0.0002830028533935547,0.0007023811340332031,0
0.4903109073638916,0.0221323873847723,-0.04810032621026039,0.7550337314605713,-0.14545248636239516,-0.756272539877668,-0.01562717314834952,-0.09759848836000566,0.18975326594967656,0.0,0.0,-0.6,0.0,0.00027441978454589844,0.000530242919921875,0.0011525154113769531,0
0.49977779388427734,0.0221323873847723,-0.04810032621026039,0.7550337314605713,-0.14545248636239516,-0.752851705151325,-0.010790807702283817,-0.10245852331997901,0.18737196855067415,0.0,0.0,-0.6,0.0,0.00023221969604492188,0.0004374980926513672,0.0009875297546386719,0
0.5096776485443115,0.020676448941230774,-0.04738951846957207,0.7305775880813599,-0.1419790514608061,-0.7491045593350711,-0.00501343183657504,-0.10780160445076217,0.18440252228327716,0.0,0.0,-0.6,0.0,0.00017261505126953125,0.0002989768981933594,0.0007245540618896484,0
0.5198802947998047,0.019907617941498756,-0.0470748171210289,0.718349277973175,-0.14027701418015298,-0.7456182781565688,0.0004806388168020169,-0.11261641149328817,0.1816856459158541,0.0,0.0,-0.6,0.0,0.00016808509826660156,0.00029659271240234375,0.0007786750793457031,0
0.5298781394958496,0.018289536237716675,-0.04652787372469902,0.6939160823822021,-0.13692671234320675,-0.7419066308171967,0.006686882086290999,-0.11747175158584042,0.17852746926980353,0.0,0.0,-0.6,0.0,0.00016307830810546875,0.0002875328063964844,0.0006935596466064453,0
0.5398623943328857,0.018289536237716675,-0.04652787372469902,0.6939160823822021,-0.13692671234320675,-0.7389329693538801,0.011606206038810818,-0.12125645291445816,0.17631674561756722,0.0,0.0,-0.6,0.0,0.00018739700317382812,0.00033164024353027344,0.0008747577667236328,0
0.5498342514038086,0.016570519655942917,-0.04608872905373573,0.6695407032966614,-0.13361405714382962,-0.7356949848713991,0.017121640590913728,-0.12514592419110976,0.17352699336123595,0.0,0.0,-0.6,0.0,0.00015735626220703125,0.0003056526184082031,0.0008091926574707031,0
0.5598430633544922,0.0156729593873024,-0.04590940102934837,0.6573858261108398,-0.13201076344212384,-0.7326912414252577,0.022310920595877713,-0.1285782087158172,0.17097293164366414,0.0,0.0,-0.6,0.0,0.00025153160095214844,0.0004334449768066406,0.0009388923645019531,0
0.5696573257446289,0.014751735143363476,-0.045754656195640564,0.6452039480209351,-0.13043832867885952,-0.7298904276604901,0.02698901620611323,-0.1316529875026853,0.16859542540513958,0.0,0.0,-0.6,0.0,0.0001952648162841797,0.0003192424774169922,0.0007147789001464844,0
0.5798943042755127,0.013826822862029076,-0.04562430828809738,0.6330527067184448,-0.12885812024220716,-0.7272604156494805,0.031502493990248535,-0.13451217457595616,0.16633859287442765,0.0,0.0,-0.6,0.0,0.00021195411682128906,0.0003597736358642578,0.0008070468902587891,0
0.5896024703979492,0.011902188882231712,-0.04544869437813759,0.6088536977767944,-0.1257575929252151,-0.7244271423329379,0.03668847755948892,-0.13699150121465029,0.16359611235905777,0.0,0.0,-0.6,0.0,0.00013184547424316406,0.00024247169494628906,0.0006155967712402344,0
0.5999155044555664,0.0109049491584301,-0.045401789247989655,0.5968145728111267,-0.12424294328794022,-0.7218128124570474,0.04158440702436883,-0.13916680110791368,0.16110838238432051,0.0,0.0,-0.6,0.0,0.0001456737518310547,0.00026226043701171875,0.0006597042083740234,0
0.6099283695220947,0.00884492788463831,-0.045386750251054764,0.5728703141212463,-0.1212780399253653,-0.7190681926478489,0.04670443916074596,-0.14082808485107676,0.15825513264103921,0.0,0.0,-0.6,0.0,0.00018525123596191406,0.0003490447998046875,0.0008497238159179688,0
0.6195943355560303,0.00884492788463831,-0.045386750251054764,0.5728703141212463,-0.1212780399253653,-0.7168712579580068,0.05084801456881557,-0.1425775854543256,0.15625785782074145,0.0,0.0,-0.6,0.0,0.00012540817260742188,0.00022983551025390625,0.0005514621734619141,0
0.6296429634094238,0.006702167447656393,-0.045475032180547714,0.5491230487823486,-0.11835284715904826,-0.7145067011218891,0.055306102323386605,-0.14353160338407703,0.1537628181591646,0.0,0.0,-0.6,0.0,0.00015163421630859375,0.0003077983856201172,0.0006792545318603516,0
0.6399459838867188,0.006702167447656393,-0.045475032180547714,0.5491230487823486,-0.11835284715904826,-0.7126142318855023,0.0589435731827923,-0.1447607161254115,0.15201629039606004,0.0,0.0,-0.6,0.0,0.00016069412231445312,0.0002841949462890625,0.0007848739624023438,0
0.6495349407196045,0.002808635588735342,-0.04520880803465843,0.5106180310249329,-0.11413530646607108,-0.7101570724450599,0.06321518745832928,-0.14473426346865728,0.14921214320202147,0.0,0.0,-0.6,0.0,0.00020051002502441406,0.0003216266632080078,0.0006737709045410156,0
0.6600072383880615,0.002808635588735342,-0.04520880803465843,0.5106180310249329,-0.11413530646607108,-0.7081879655407236,0.06677580919423913,-0.1453761828099124,0.14724924016619365,0.0,0.0,-0.6,0.0,0.00023937225341796875,0.0003871917724609375,0.0008511543273925781,0
0.6695358753204346,-0.0005820821388624609,-0.04440663009881973,0.4812469184398651,-0.11139338313144305,-0.7058997535168717,0.06953964976876624,-0.14550270698289372,0.14484698679062907,0.0,0.0,-0.6,0.0,0.00018596649169921875,0.0003368854522705078,0.0006747245788574219,0
0.6797654628753662,-0.0005820821388624609,-0.04440663009881973,0.4812469184398651,-0.11139338313144305,-0.7040650190020257,0.07204207668473489,-0.14625609440635362,0.14316540942773318,0.0,0.0,-0.6,0.0,0.0001990795135498047,0.00035572052001953125,0.0007789134979248047,0
0.689824104309082,-0.005688155069947243,-0.04347939416766167,0.4382500946521759,-0.10737833237526169,-0.7016220931479549,0.07407562862182228,-0.14576416927731262,0.14048266124013903,0.0,0.0,-0.6,0.0,0.0002186298370361328,0.00039196014404296875,0.0008552074432373047,0
0.6997368335723877,-0.005688155069947243,-0.04347939416766167,0.4382500946521759,-0.10737833237526169,-0.6996600022293568,0.07614010895404888,-0.146207332702708,0.13860473750882232,0.0,0.0,-0.6,0.0,0.00020647048950195312,0.0003371238708496094,0.0007479190826416016,0
0.7096779346466064,-0.009105582721531391,-0.043042004108428955,0.41028180718421936,-0.10483941941191038,-0.6974958353096066,0.0776249723588268,-0.1459602791316026,0.1363380985356443,0.0,0.0,-0.6,0.0,0.0001933574676513672,0.00034236907958984375,0.0007550716400146484,0
0.7197341918945312,-0.010800101794302464,-0.0428718626499176,0.3965057134628296,-0.10356669736658881,-0.6954794544416865,0.07896831452544413,-0.14581592129955714,0.13427418048742387,0.0,0.0,-0.6,0.0,0.00019359588623046875,0.0003345012664794922,0.0007853507995605469,0
0.7296652793884277,-0.014191737398505211,-0.042626503854990005,0.36937272548675537,-0.10109039932307524,-0.6933416809454669,0.07978639833590773,-0.14469908081345503,0.1319008260873523,0.0,0.0,-0.6,0.0,0.00018310546875,0.00031447410583496094,0.0006992816925048828,0
0.7397704124450684,-0.014191737398505211,-0.042626503854990005,0.36937272548675537,-0.10109039932307524,-0.691621397253344,0.0809777639748487,-0.1447205837631267,0.13023947800730148,0.0,0.0,-0.6,0.0,0.00015115737915039062,0.00027489662170410156,0.0007646083831787109,0
0.7495412826538086,-0.01757992058992386,-0.042511798441410065,0.34279635548591614,-0.09869149019320779,-0.6897644865810126,0.08201254115069156,-0.1434976266888327,0.128176943427566,0.0,0.0,-0.6,0.0,0.00012040138244628906,0.0002262592315673828,0.0005233287811279297,0
0.7597622871398926,-0.01927264779806137,-0.0425020307302475,0.3297169804573059,-0.0975103071557746,-0.6880496166207128,0.082903407747302,-0.14237527563072372,0.12629022558271355,0.0,0.0,-0.6,0.0,0.0001697540283203125,0.0002956390380859375,0.0006940364837646484,0
0.769697904586792,-0.020964020863175392,-0.04252055659890175,0.31676024198532104,-0.0963420844364052,-0.6864608145127612,0.08364248743580813,-0.14127329574841516,0.12453143957155317,0.0,0.0,-0.6,0.0,0.00016188621520996094,0.0002968311309814453,0.0007460117340087891,0
0.7797238826751709,-0.022652681916952133,-0.04256806895136833,0.30394405126571655,-0.09516969253886373,-0.6849873399188381,0.08428228314558034,-0.1400926703397274,0.1228606424021599,0.0,0.0,-0.6,0.0,0.00012826919555664062,0.00023508071899414062,0.0005664825439453125,0
0.7897014617919922,-0.025990795344114304,-0.042750101536512375,0.2787304222583771,-0.09291466811963378,-0.6834358151272716,0.08454363184148118,-0.13759673531177166,0.12084545022637312,0.0,0.0,-0.6,0.0,0.00014400482177734375,0.00026416778564453125,0.0007174015045166016,0
0.7997593879699707,-0.027654146775603294,-0.042882539331912994,0.2663322389125824,-0.09181521197376953,-0.6820152194847163,0.08484172367231739,-0.1353369677826255,0.11902251964862341,0.0,0.0,-0.6,0.0,0.00016498565673828125,0.0002930164337158203,0.0007429122924804688,0
0.8096599578857422,-0.029311783611774445,-0.043040789663791656,0.25407326221466064,-0.09072892471445411,-0.6807146507405213,0.08503164883042054,-0.13310490951376613,0.11733911052195543,0.0,0.0,-0.6,0.0,0.00014519691467285156,0.0002613067626953125,0.0006487369537353516,0
0.8197801113128662,-0.030962463468313217,-0.04322531074285507,0.24195407330989838,-0.08964303718597103,-0.6795169693993471,0.08522192484996978,-0.13075445846575467,0.11575351631010677,0.0,0.0,-0.6,0.0,0.00016570091247558594,0.00029277801513671875,0.0007898807525634766,0
0.8296010494232178,-0.03260592371225357,-0.04343585669994354,0.22997233271598816,-0.08857593958362643,-0.6784040264071153,0.08536973901318948,-0.1283392141585478,0.11424343876093092,0.0,0.0,-0.6,0.0,0.00013399124145507812,0.0002541542053222656,0.0006222724914550781,0
0.83976149559021,-0.03424190729856491,-0.04367208853363991,0.2180996984243393,-0.08750951447691822,-0.677370190064821,0.08549153494018169,-0.12581409081112926,0.1127864750614949,0.0,0.0,-0.6,0.0,0.00014448165893554688,0.0002620220184326172,0.0006923675537109375,0
0.8497714996337891,-0.0374918207526207,-0.04422219842672348,0.19477128982543945,-0.08541592030261966,-0.6763013242456142,0.08522073305212863,-0.12188814908034971,0.11098150265652748,0.0,0.0,-0.6,0.0,0.00014853477478027344,0.0002694129943847656,0.0007281303405761719,0
0.8598217964172363,-0.039083901792764664,-0.044532954692840576,0.18331551551818848,-0.08439108236387362,-0.6753253486843289,0.08502273517876312,-0.11824220311181052,0.10933370774602348,0.0,0.0,-0.6,0.0,0.0001327991485595703,0.00028896331787109375,0.0006306171417236328,0
0.8697555065155029,-0.04224357381463051,-0.04522833973169327,0.1608179807662964,-0.08236366005612754,-0.6743478158580911,0.08465728618119776,-0.11342927902202804,0.10741996794326285,0.0,0.0,-0.6,0.0,0.00014472007751464844,0.0002624988555908203,0.0006568431854248047,0
0.8798375129699707,-0.043810777366161346,-0.045610461384058,0.14977595210075378,-0.08135552633082264,-0.6734712885619678,0.084262452984832,-0.10913702045007004,0.10570229993434122,0.0,0.0,-0.6,0.0,0.0001575946807861328,0.0002834796905517578,0.0007517337799072266,0
0.8906214237213135,-0.04691390320658684,-0.04643779620528221,0.1281028687953949,-0.07944201899329734,-0.6726135414665266,0.08347723215890772,-0.10360466499677899,0.10378236707652061,0.0,0.0,-0.6,0.0,0.000156402587890625,0.0002868175506591797,0.0007264614105224609,0
0.8997673988342285,-0.04691390320658684,-0.04643779620528221,0.1281028687953949,-0.07944201899329734,-0.6719071958128274,0.08324640208920299,-0.1001771661139149,0.10243841407605227,0.0,0.0,-0.6,0.0,0.00015091896057128906,0.00027680397033691406,0.0007634162902832031,0
0.9096360206604004,-0.04997149854898453,-0.04734419658780098,0.10686597228050232,-0.07755542061484261,-0.6712197974562861,0.08245896403297034,-0.09517119364788025,0.10079017258379849,0.0,0.0,-0.6,0.0,0.0001392364501953125,0.0002503395080566406,0.0005614757537841797,0
0.9197299480438232,-0.051482316106557846,-0.04782538861036301,0.09645285457372665,-0.0766104234754804,-0.6706059487229478,0.08168555758833321,-0.09055177251913488,0.09928202961196299,0.0,0.0,-0.6,0.0,0.0001575946807861328,0.0002827644348144531,0.0007305145263671875,0
0.9296383857727051,-0.05441179871559143,-0.04883906617760658,0.07603529840707779,-0.07476989278900807,-0.6700288890234072,0.08052903030767038,-0.08463689736449305,0.09753613052425084,0.0,0.0,-0.6,0.0,0.00018095970153808594,0.00031757354736328125,0.0007512569427490234,0
0.9396460056304932,-0.05441179871559143,-0.04883906617760658,0.07603529840707779,-0.07476989278900807,-0.6695466320873871,0.0799372977408236,-0.08079886594188923,0.09631400116285484,0.0,0.0,-0.6,0.0,0.00014591217041015625,0.00026297569274902344,0.0006382465362548828,0
0.9498584270477295,-0.057291824370622635,-0.04992368072271347,0.056161560118198395,-0.07297364392704579,-0.6691099706310303,0.07897055583727576,-0.07534360380596039,0.09478491728663678,0.0,0.0,-0.6,0.0,0.0001628398895263672,0.0002989768981933594,0.0008170604705810547,0
0.9599244594573975,-0.05871080607175827,-0.05049161612987518,0.0464274100959301,-0.0720764352909695,-0.6687322761205432,0.07811005922133837,-0.07027654023395588,0.09337810533475828,0.0,0.0,-0.6,0.0,0.00016045570373535156,0.00030803680419921875,0.0007672309875488281,0
0.9696698188781738,-0.061504531651735306,-0.051678385585546494,0.02732500620186329,-0.07029759967230026,-0.668408035575215,0.07684642745913202,-0.06392325512659291,0.09172627361144219,0.0,0.0,-0.6,0.0,0.00014162063598632812,0.0002567768096923828,0.0006315708160400391,0
0.9799602031707764,-0.061504531651735306,-0.051678385585546494,0.02732500620186329,-0.07029759967230026,-0.6681280133229099,0.07607786923330465,-0.05963830314311688,0.09056999140511927,0.0,0.0,-0.6,0.0,0.00015854835510253906,0.0002789497375488281,0.0008182525634765625,0
0.989631175994873,-0.06423274427652359,-0.05292542278766632,0.008719789795577526,-0.06859899217073981,-0.667903930020444,0.07479780644907406,-0.053725841353851,0.08912361604760734,0.0,0.0,-0.6,0.0,0.0001342296600341797,0.00024580955505371094,0.0006167888641357422,0
0.9997565746307373,-0.06553986668586731,-0.0535680390894413,-0.00038289104122668505,-0.06774709551691505,-0.6677197779235631,0.07364436455647516,-0.04817284591029067,0.0877916920521696,0.0,0.0,-0.6,0.0,0.0001468658447265625,0.0002620220184326172,0.0006577968597412109,0
1.0098464488983154,-0.06683012843132019,-0.054225943982601166,-0.009354077279567719,-0.06688786512424781,-0.6675769728420535,0.0725809496418176,-0.04285711627047184,0.08653713385811292,0.0,0.0,-0.6,0.0,0.00018978118896484375,0.00034332275390625,0.00086212158203125,0
1.0196547508239746,-0.06810203194618225,-0.054897163063287735,-0.018193066120147705,-0.06604318854402219,-0.6674726173230842,0.07143581320711036,-0.037653813012395884,0.08534218940468856,0.0,0.0,-0.6,0.0,0.0001361370086669922,0.0002486705780029297,0.0006031990051269531,0
1.0297703742980957,-0.07059158384799957,-0.05627795681357384,-0.0354866161942482,-0.06441395053790064,-0.6674189043836332,0.06992720338753008,-0.031265527916624826,0.08389476403499116,0.0,0.0,-0.6,0.0,0.0001533031463623047,0.0002760887145996094,0.0006830692291259766,0
1.0396418571472168,-0.07180879265069962,-0.056987326592206955,-0.043943703174591064,-0.06361126685154402,-0.6673867390620374,0.06855475920435582,-0.02542957104723346,0.08258055989382185,0.0,0.0,-0.6,0.0,0.00016427040100097656,0.0002923011779785156,0.0007264614105224609,0
1.0496852397918701,-0.07300666719675064,-0.057707320898771286,-0.05231867730617523,-0.06282177644252022,-0.6673787372353537,0.06716182913878072,-0.019976562342372085,0.08136455809162159,0.0,0.0,-0.6,0.0,0.00015091896057128906,0.00027441978454589844,0.0006964206695556641,0
1.059840202331543,-0.07527274638414383,-0.05779925733804703,-0.0644611045718193,-0.06204143698821862,-0.6672639975753799,0.06519718480471225,-0.015484825779940894,0.08022072953471426,0.0,0.0,-0.6,0.0,0.00015306472778320312,0.0002703666687011719,0.0006859302520751953,0
1.0697121620178223,-0.07749572396278381,-0.05791496858000755,-0.07637719064950943,-0.061248214645552315,-0.6670664249683194,0.06276760227129388,-0.01180397646222667,0.07912259116638129,0.0,0.0,-0.6,0.0,0.0001900196075439453,0.00034928321838378906,0.0008449554443359375,0
1.0797407627105713,-0.07965045422315598,-0.05804959312081337,-0.08807072788476944,-0.06051211726383802,-0.6668110395783046,0.06015557840109368,-0.008696816460866164,0.0780778577904054,0.0,0.0,-0.6,0.0,0.00015044212341308594,0.0002722740173339844,0.0006937980651855469,0
1.0901901721954346,-0.08383429795503616,-0.058383695781230927,-0.11080886423587799,-0.0590813734175245,-0.6664443664342306,0.05641019123218533,-0.00534943254877669,0.07681001548485564,0.0,0.0,-0.6,0.0,0.0002040863037109375,0.00035572052001953125,0.0009777545928955078,0
1.0997300148010254,-0.08586589992046356,-0.05858016386628151,-0.12185928225517273,-0.05836971227166607,-0.6660744431819537,0.05295462078979865,-0.0027072216577811803,0.07565565294127388,0.0,0.0,-0.6,0.0,0.0001666545867919922,0.00030303001403808594,0.0007710456848144531,0
1.1096394062042236,-0.08785782754421234,-0.05879584699869156,-0.13270169496536255,-0.05764492354225119,-0.6657049674197396,0.049776167557605076,-0.0004744937798790206,0.07457580338723606,0.0,0.0,-0.6,0.0,0.00016188621520996094,0.00028586387634277344,0.0006875991821289062,0
1.1197443008422852,-0.089808888733387,-0.05903074890375137,-0.14334024488925934,-0.05692673745662641,-0.6653459653555731,0.04685585474404143,0.0015259194721324405,0.07355058891729671,0.0,0.0,-0.6,0.0,0.00015115737915039062,0.00028252601623535156,0.0007038116455078125,0
1.1296746730804443,-0.09359143674373627,-0.05955475568771362,-0.16407771408557892,-0.05553042648279273,-0.6649685793301883,0.04319151263919462,0.0036298456744729584,0.0723093221731562,0.0,0.0,-0.6,0.0,0.0001571178436279297,0.00028443336486816406,0.0007238388061523438,0
1.1397979259490967,-0.09542561322450638,-0.05984224006533623,-0.17414934933185577,-0.054818106506932716,-0.6646199126036411,0.039983106562179294,0.005285285621081047,0.07117331546130927,0.0,0.0,-0.6,0.0,0.000156402587890625,0.0003139972686767578,0.0008151531219482422,0
1.1496074199676514,-0.09893514215946198,-0.06045978516340256,-0.193714901804924,-0.05345428078286062,-0.6642784397149529,0.03633472569078766,0.007365882959822416,0.06986667611648599,0.0,0.0,-0.6,0.0,0.0001289844512939453,0.00023984909057617188,0.0005614757537841797,0
1.1597764492034912,-0.10063169151544571,-0.06079133599996567,-0.20321564376354218,-0.052763978899876135,-0.6639753063048748,0.03309283188386185,0.009101661899604693,0.06869316536899084,0.0,0.0,-0.6,0.0,0.00016427040100097656,0.00033020973205566406,0.0007450580596923828,0
1.1707184314727783,-0.10390952974557877,-0.061495814472436905,-0.2216677963733673,-0.051419484856790404,-0.6637026265559492,0.029547885859525308,0.011090835134126892,0.06736752257959017,0.0,0.0,-0.6,0.0,0.00017762184143066406,0.00032329559326171875,0.0016560554504394531,0
1.1796984672546387,-0.10390952974557877,-0.061495814472436905,-0.2216677963733673,-0.051419484856790404,-0.6634716004957247,0.027184533426587353,0.012340581744741367,0.06643957262700964,0.0,0.0,-0.6,0.0,0.00014829635620117188,0.0002644062042236328,0.000705718994140625,0
1.1898858547210693,-0.1070411428809166,-0.06225365027785301,-0.23943199217319489,-0.05008776219430888,-0.6632811593680962,0.024344254197818826,0.013673573612062213,0.06529061166177273,0.0,0.0,-0.6,0.0,0.00020241737365722656,0.0003597736358642578,0.0009393692016601562,0
1.199845552444458,-0.10855527222156525,-0.06265152990818024,-0.24806611239910126,-0.04944000644505879,-0.6631249759890665,0.021923229055006398,0.01477408549276072,0.06424343058013537,0.0,0.0,-0.6,0.0,0.0001621246337890625,0.000293731689453125,0.0007624626159667969,0
1.209716558456421,-0.1100357174873352,-0.06306164711713791,-0.25652816891670227,-0.04879054534914634,-0.6630047299858768,0.019694354693732437,0.01568454041490185,0.06326685591202477,0.0,0.0,-0.6,0.0,0.00015544891357421875,0.00027823448181152344,0.0006690025329589844,0
1.2198691368103027,-0.11145642399787903,-0.06347984820604324,-0.2648184299468994,-0.04812687482481472,-0.6629258121882923,0.017585984048713553,0.016649044805477856,0.06233437719772299,0.0,0.0,-0.6,0.0,0.00024390220642089844,0.0004711151123046875,0.0010852813720703125,0
1.2295970916748047,-0.11419206112623215,-0.06434707343578339,-0.2808912992477417,-0.046853692598356485,-0.6629168079504012,0.015225182650603335,0.017922352215675254,0.0612041987627909,0.0,0.0,-0.6,0.0,0.00014901161193847656,0.00026869773864746094,0.0006392002105712891,0
1.239758014678955,-0.11550817638635635,-0.06479474902153015,-0.288676917552948,-0.046229224753503634,-0.6629444114232195,0.013107177344239034,0.01908700152293912,0.06017889841651674,0.0,0.0,-0.6,0.0,0.00014734268188476562,0.00027561187744140625,0.0006973743438720703,0
1.2500910758972168,-0.11803726106882095,-0.06571692228317261,-0.3037557005882263,-0.04497871515039386,-0.6630504463509936,0.010919691896144265,0.020613719629678205,0.0589922470729606,0.0,0.0,-0.6,0.0,0.0002129077911376953,0.0003609657287597656,0.0009095668792724609,0
1.2597484588623047,-0.11803726106882095,-0.06571692228317261,-0.3037557005882263,-0.04497871515039386,-0.6631281163080004,0.009326798756791516,0.02175071955722759,0.05816159113247095,0.0,0.0,-0.6,0.0,0.0001800060272216797,0.00033783912658691406,0.0008094310760498047,0
1.2698354721069336,-0.12042933702468872,-0.06667523086071014,-0.3182636499404907,-0.04378671446356449,-0.6632947822123323,0.007750398907223772,0.023167688888293802,0.05713313171656738,0.0,0.0,-0.6,0.0,0.00018453598022460938,0.000347137451171875,0.0009098052978515625,0
1.2797017097473145,-0.12157797813415527,-0.06716765463352203,-0.32527756690979004,-0.043190296692948986,-0.6634906754408163,0.006373540034956257,0.024458556780969514,0.05618955346145234,0.0,0.0,-0.6,0.0,0.00016117095947265625,0.00030517578125,0.0007636547088623047,0
1.2899091243743896,-0.12372729927301407,-0.06817011535167694,-0.3388339579105377,-0.042051546425696994,-0.6637835955767191,0.005118972274384964,0.02609082670102476,0.055102017332654095,0.0,0.0,-0.6,0.0,0.00033164024353027344,0.0006184577941894531,0.0012943744659423828,0
1.2998919486999512,-0.12372729927301407,-0.06817011535167694,-0.3388339579105377,-0.042051546425696994,-0.6640131164753987,0.004091574026193286,0.027401749543751984,0.054340742042495,0.0,0.0,-0.6,0.0,0.00038170814514160156,0.0006723403930664062,0.001295328140258789,0
1.3096284866333008,-0.12574943900108337,-0.0692022368311882,-0.3517765402793884,-0.04088650684130804,-0.6643453463667317,0.0029825803178000236,0.029054391664378204,0.053370959495237985,0.0,0.0,-0.6,0.0,0.00012946128845214844,0.0002467632293701172,0.0005712509155273438,0
1.319697618484497,-0.12671390175819397,-0.06972621381282806,-0.35802289843559265,-0.04031924754152996,-0.6646881382302687,0.0019133241717832997,0.030571871108611395,0.05247938947474121,0.0,0.0,-0.6,0.0,0.00015473365783691406,0.00027871131896972656,0.0007123947143554688,0
1.3296637535095215,-0.12855425477027893,-0.07079018652439117,-0.3701162040233612,-0.03920409931422254,-0.6651218179254361,0.000974857120911885,0.03227428558444804,0.05143710987515244,0.0,0.0,-0.6,0.0,0.00014257431030273438,0.00025725364685058594,0.0006496906280517578,0
1.339721918106079,-0.12855425477027893,-0.07079018652439117,-0.3701162040233612,-0.03920409931422254,-0.6654648920230017,0.00010328853101145778,0.0337044539178754,0.05070751415543962,0.0,0.0,-0.6,0.0,0.00015687942504882812,0.0002772808074951172,0.0006961822509765625,0
1.349717617034912,-0.13027580082416534,-0.07187915593385696,-0.38167527318000793,-0.03810412586475237,-0.6659091610075161,-0.0005360700581543166,0.035431096161988807,0.0497843071080908,0.0,0.0,-0.6,0.0,0.00015282630920410156,0.000278472900390625,0.0007030963897705078,0
1.3599660396575928,-0.13107343018054962,-0.07242847979068756,-0.387243390083313,-0.03757061826896869,-0.6663545933525599,-0.0011522361256194194,0.03711749816126934,0.04893799682652693,0.0,0.0,-0.6,0.0,0.00015664100646972656,0.000278472900390625,0.0007040500640869141,0
1.3697617053985596,-0.13258154690265656,-0.07354457676410675,-0.3979693353176117,-0.03650172471089726,-0.6668925999545317,-0.0014692614054704091,0.039095557400988,0.04794474454515545,0.0,0.0,-0.6,0.0,0.0002040863037109375,0.0003380775451660156,0.0007317066192626953,0
1.379927396774292,-0.13258154690265656,-0.07354457676410675,-0.3979693353176117,-0.03650172471089726,-0.6673201174789896,-0.0019525644563542657,0.04076404192770548,0.047249467948194776,0.0,0.0,-0.6,0.0,0.00015163421630859375,0.0002760887145996094,0.0007643699645996094,0
1.389622449874878,-0.13397575914859772,-0.0746847465634346,-0.4081595838069916,-0.03545612398460476,-0.6678587159785485,-0.0021918534769454667,0.04261826006442745,0.04637067405796324,0.0,0.0,-0.6,0.0,0.00013756752014160156,0.00024890899658203125,0.0005831718444824219,0
1.3997106552124023,-0.13397575914859772,-0.0746847465634346,-0.4081595838069916,-0.03545612398460476,-0.668287135737482,-0.0026194947850099455,0.04419457639191513,0.0457555183348006,0.0,0.0,-0.6,0.0,0.0001418590545654297,0.0002579689025878906,0.0006947517395019531,0
1.4098200798034668,-0.1352609097957611,-0.07583864033222198,-0.417885422706604,-0.03441888812090158,-0.6688248594848164,-0.002916493643474875,0.045966565231490675,0.044935945879698624,0.0,0.0,-0.6,0.0,0.00014829635620117188,0.0002677440643310547,0.0007061958312988281,0
1.4198663234710693,-0.13586220145225525,-0.07641983032226562,-0.4225837290287018,-0.03390014499541811,-0.669358282156515,-0.003235498730156572,0.04772726662555373,0.04416771648907159,0.0,0.0,-0.6,0.0,0.0001475811004638672,0.0002739429473876953,0.0007312297821044922,0
1.4297914505004883,-0.13695496320724487,-0.0775880515575409,-0.4316040873527527,-0.032950769466695035,-0.6699878756288618,-0.0033541714075994333,0.0496759607699527,0.043273940092360096,0.0,0.0,-0.6,0.0,0.00016117095947265625,0.00028133392333984375,0.0007147789001464844,0
1.4397757053375244,-0.13744769990444183,-0.07817436754703522,-0.4359310567378998,-0.032464195193436234,-0.6705938531784711,-0.003558193605219944,0.05162830171787646,0.042465831262190765,0.0,0.0,-0.6,0.0,0.0001780986785888672,0.0003075599670410156,0.0007772445678710938,0
1.4496595859527588,-0.1397363245487213,-0.078304722905159,-0.4484703838825226,-0.03148613791487561,-0.6711440180870276,-0.004588217902035218,0.05275615803178615,0.04153338360161282,0.0,0.0,-0.6,0.0,0.00014495849609375,0.0002613067626953125,0.0006422996520996094,0
1.4600458145141602,-0.1397363245487213,-0.078304722905159,-0.4484703838825226,-0.03148613791487561,-0.6715816088252383,-0.005571254402096859,0.05380918438656664,0.04088067023920742,0.0,0.0,-0.6,0.0,0.00014925003051757812,0.0002684593200683594,0.0007188320159912109,0
1.4696550369262695,-0.14321963489055634,-0.07745899260044098,-0.46446746587753296,-0.030557978189020864,-0.6718735798648623,-0.007883462387050708,0.05318630993969541,0.04007571098832812,0.0,0.0,-0.6,0.0,0.00013828277587890625,0.00025200843811035156,0.0005812644958496094,0
1.4798333644866943,-0.1448841243982315,-0.07707397639751434,-0.47216740250587463,-0.030099672519296374,-0.6720828886481542,-0.010265151528070435,0.05198674345182462,0.03934037488656592,0.0,0.0,-0.6,0.0,0.00018668174743652344,0.00034117698669433594,0.0008265972137451172,0
1.489762544631958,-0.14649897813796997,-0.0767117291688919,-0.4796559512615204,-0.029630647287230354,-0.6722270635961768,-0.012740445718386598,0.05051612409734305,0.03864975515330762,0.0,0.0,-0.6,0.0,0.00015687942504882812,0.0002772808074951172,0.000736236572265625,0
1.4997377395629883,-0.14806360006332397,-0.076371930539608,-0.48693856596946716,-0.029145858773203782,-0.672321993058355,-0.015114724941214262,0.04884115072157376,0.03798452564726597,0.0,0.0,-0.6,0.0,0.0001475811004638672,0.0002627372741699219,0.0006754398345947266,0
1.5099034309387207,-0.15104691684246063,-0.07575826346874237,-0.5009068250656128,0.08064196537064781,-0.6723745202359431,-0.026240994202668323,0.03995250882058918,-0.003651569060865112,0.0,0.0,-0.6,0.0,0.00015664100646972656,0.00027942657470703125,0.00070953369140625,0
1.5197491645812988,-0.15104691684246063,-0.07575826346874237,-0.5009068250656128,0.08064196537064781,-0.6724080269163837,-0.03381048543731717,0.03346380831839647,-0.032796835356569354,0.0,0.0,-0.6,0.0,0.00016427040100097656,0.00029754638671875,0.0007703304290771484,0
1.529585361480713,-0.15518303215503693,-0.07497362792491913,-0.5204231142997742,0.08189743140095918,-0.6724311879504591,-0.040786627706300364,0.026689562090423384,-0.05366932152497357,0.0,0.0,-0.6,0.0,0.0001480579376220703,0.0002694129943847656,0.0006465911865234375,0
1.5398712158203125,-0.15518303215503693,-0.07497362792491913,-0.5204231142997742,0.08189743140095918,-0.6724493573871474,-0.04558937935365619,0.021864437438283545,-0.06828006184283925,0.0,0.0,-0.6,0.0,0.00017142295837402344,0.00029969215393066406,0.0007452964782714844,0
1.549678087234497,-0.15772317349910736,-0.07453141361474991,-0.5325444340705872,0.08270322868586169,-0.6724815276935672,-0.04972953886136699,0.01712313121059015,-0.07880975404718421,0.0,0.0,-0.6,0.0,0.0001366138458251953,0.00025081634521484375,0.0006000995635986328,0
1.5597012042999268,-0.15893137454986572,-0.0743354856967926,-0.5383538007736206,0.08311242315651748,-0.67252568137311,-0.052892698881813,0.01306379931526657,-0.08633398651671548,0.0,0.0,-0.6,0.0,0.00015044212341308594,0.00027871131896972656,0.0006604194641113281,0
1.570044994354248,-0.16124752163887024,-0.07398531585931778,-0.5494433045387268,0.08385505374318794,-0.6725981562130399,-0.05543200014524847,0.008984479747531407,-0.09187943571539077,0.0,0.0,-0.6,0.0,0.0002086162567138672,0.00035762786865234375,0.0008161067962646484,0
1.5796732902526855,-0.16124752163887024,-0.07398531585931778,-0.5494433045387268,0.08385505374318794,-0.6726603512030154,-0.057220125909220335,0.006149155562544019,-0.09576125015447187,0.0,0.0,-0.6,0.0,0.0001418590545654297,0.0002570152282714844,0.0006306171417236328,0
1.5897691249847412,-0.16342376172542572,-0.07368890941143036,-0.5598621964454651,0.0864577247058886,-0.6727608497516325,-0.058745078965854465,0.003172092362123174,-0.09945452187284125,0.0,0.0,-0.6,0.0,0.0001735687255859375,0.00030231475830078125,0.0008084774017333984,0
1.5996956825256348,-0.16445526480674744,-0.07356159389019012,-0.5648353099822998,0.08767217963879283,-0.6728747194712665,-0.05976555436606823,0.0005500848116531515,-0.10249523267553313,0.0,0.0,-0.6,0.0,0.0001518726348876953,0.0002772808074951172,0.0007088184356689453,0
1.6097850799560547,-0.1664140224456787,-0.07334285229444504,-0.5743182897567749,0.08996310486579442,-0.6730522461096548,-0.06032357293719261,-0.002336733436425146,-0.1054828271975483,0.0,0.0,-0.6,0.0,0.0001423358917236328,0.00026226043701171875,0.0006330013275146484,0
1.6199262142181396,-0.1664140224456787,-0.07334285229444504,-0.5743182897567749,0.08996310486579442,-0.6731995175518545,-0.06076961526524019,-0.004279531701345513,-0.10757414336295462,0.0,0.0,-0.6,0.0,0.00016927719116210938,0.00030803680419921875,0.0008885860443115234,0
1.6296381950378418,-0.16823852062225342,-0.0731717124581337,-0.5832348465919495,0.0920584886702785,-0.6734130812845939,-0.06027320524882017,-0.006299832347851217,-0.10982383360542042,0.0,0.0,-0.6,0.0,0.00015592575073242188,0.0002803802490234375,0.0006694793701171875,0
1.64003324508667,-0.1690996289253235,-0.07310551404953003,-0.587472677230835,0.09304929166185873,-0.6736455485454317,-0.059512286582140056,-0.007944691844057288,-0.11177016789699275,0.0,0.0,-0.6,0.0,0.00022745132446289062,0.0003857612609863281,0.0012135505676269531,0
1.6497082710266113,-0.17072580754756927,-0.07300000637769699,-0.5955132246017456,0.09518455247268036,-0.6739656348119718,-0.05815687642999589,-0.009507815739883815,-0.11393332470514789,0.0,0.0,-0.6,0.0,0.0002002716064453125,0.00037288665771484375,0.0008494853973388672,0
1.6598784923553467,-0.17072580754756927,-0.07300000637769699,-0.5955132246017456,0.09518455247268036,-0.6742268821681214,-0.057312455604103696,-0.010450886523077133,-0.11544753447085977,0.0,0.0,-0.6,0.0,0.00015091896057128906,0.0002722740173339844,0.00069427490234375,0
1.6696746349334717,-0.17222556471824646,-0.07293691486120224,-0.6029884815216064,0.09732303927512076,-0.6745819398634018,-0.05545739515904827,-0.011366742112726959,-0.11730941385777673,0.0,0.0,-0.6,0.0,0.00022172927856445312,0.0003879070281982422,0.0009016990661621094,0
1.6797800064086914,-0.17292729020118713,-0.07292385399341583,-0.6065203547477722,0.09829467576802368,-0.6749467423273275,-0.05351279311920044,-0.011832231999690029,-0.11897709311345671,0.0,0.0,-0.6,0.0,0.00018024444580078125,0.0003178119659423828,0.0008065700531005859,0
1.689936876296997,-0.17423738539218903,-0.07293302565813065,-0.6132121086120605,0.10008564194119435,-0.6753986795729987,-0.050740293876511446,-0.012175961390162703,-0.12081608090737211,0.0,0.0,-0.6,0.0,0.0002009868621826172,0.0003731250762939453,0.0008819103240966797,0
1.6997747421264648,-0.17423738539218903,-0.07293302565813065,-0.6132121086120605,0.10008564194119435,-0.6757645826577117,-0.04894509190756855,-0.012198795016835354,-0.1221033723631093,0.0,0.0,-0.6,0.0,0.00014925003051757812,0.0002675056457519531,0.0007274150848388672,0
1.7097201347351074,-0.17543275654315948,-0.07298747450113297,-0.6194073557853699,0.10177426349087675,-0.676234409103451,-0.046297812615691374,-0.011927502458307034,-0.12363770946325375,0.0,0.0,-0.6,0.0,0.00013756752014160156,0.00025343894958496094,0.0006284713745117188,0
1.719780683517456,-0.17598886787891388,-0.07302991300821304,-0.6223119497299194,0.10256354286307819,-0.6767040212117235,-0.043730451139078384,-0.011525917504603399,-0.12500772519793296,0.0,0.0,-0.6,0.0,0.0001819133758544922,0.0003261566162109375,0.0008234977722167969,0
1.7297942638397217,-0.1770152598619461,-0.07315126061439514,-0.6277507543563843,0.10407163418003346,-0.67727437413119,-0.04033903249922688,-0.010640511398937095,-0.12653227045606674,0.0,0.0,-0.6,0.0,0.00014543533325195312,0.00026726722717285156,0.0006732940673828125,0
1.7397778034210205,-0.1770152598619461,-0.07315126061439514,-0.6277507543563843,0.10407163418003346,-0.67773332573743,-0.03814766079826301,-0.009744652528090626,-0.1275994521367582,0.0,0.0,-0.6,0.0,0.0001468658447265625,0.0002677440643310547,0.0006992816925048828,0
1.7497060298919678,-0.1779285967350006,-0.07331807911396027,-0.6327066421508789,0.10537311684698657,-0.678299922153753,-0.03495266167823971,-0.008627349466541232,-0.12883453531334946,0.0,0.0,-0.6,0.0,0.0001862049102783203,0.0003559589385986328,0.0008494853973388672,0
1.7597541809082031,-0.1783444881439209,-0.0734192430973053,-0.635009229183197,0.10595516413139941,-0.6788600468320586,-0.031929742528478064,-0.007364047167681515,-0.1299173612686183,0.0,0.0,-0.6,0.0,0.00019407272338867188,0.00034546852111816406,0.0008001327514648438,0
1.7695560455322266,-0.17909377813339233,-0.07366003096103668,-0.6393646597862244,0.1069590303191841,-0.6795192068951995,-0.02805453728041902,-0.00562758095595471,-0.13105178925772573,0.0,0.0,-0.6,0.0,0.00015664100646972656,0.00027751922607421875,0.0006842613220214844,0
1.779867172241211,-0.17909377813339233,-0.07366003096103668,-0.6393646597862244,0.1069590303191841,-0.6800482626939259,-0.025551922230390805,-0.00409769972933903,-0.13184588885010126,0.0,0.0,-0.6,0.0,0.0001690387725830078,0.0002925395965576172,0.0007314682006835938,0
1.7898318767547607,-0.17973798513412476,-0.07394793629646301,-0.6432753205299377,0.10777036887845871,-0.6806824937035947,-0.022249472501333523,-0.0021164016488561125,-0.13270601052449205,0.0,0.0,-0.6,0.0,0.00024271011352539062,0.000453948974609375,0.0011453628540039062,0
1.799912452697754,-0.1800214797258377,-0.0741090327501297,-0.6450693607330322,0.10804920278030779,-0.6812918298444076,-0.01915875461391016,-4.098044605718894e-05,-0.13341265840975913,0.0,0.0,-0.6,0.0,0.00024271011352539062,0.000469207763671875,0.0010952949523925781,0
1.8096120357513428,-0.18051061034202576,-0.07446815073490143,-0.6483530402183533,0.10844914776873026,-0.6819854062781745,-0.015379517441864693,0.0024160595562776077,-0.13405729130010458,0.0,0.0,-0.6,0.0,0.00014591217041015625,0.0002639293670654297,0.0006728172302246094,0
1.8198473453521729,-0.18051061034202576,-0.07446815073490143,-0.6483530402183533,0.10844914776873026,-0.6825408812501157,-0.012956930881652399,0.0044587632332617685,-0.1345085343233466,0.0,0.0,-0.6,0.0,0.0001709461212158203,0.00032639503479003906,0.0008969306945800781,0
1.8296902179718018,-0.18090234696865082,-0.07487449049949646,-0.6512358784675598,0.10868561934721876,-0.6832101069272446,-0.009770443499104458,0.006828024266259529,-0.13491308128154925,0.0,0.0,-0.6,0.0,0.00015091896057128906,0.0002703666687011719,0.0006568431854248047,0
1.839782476425171,-0.18090234696865082,-0.07487449049949646,-0.6512358784675598,0.10868561934721876,-0.6837458333670581,-0.0077575323359142575,0.008792458992060114,-0.13519626415229122,0.0,0.0,-0.6,0.0,0.0001876354217529297,0.0003650188446044922,0.0008833408355712891,0
1.8496804237365723,-0.18130500614643097,-0.07557245343923569,-0.6549537181854248,0.10873110990869073,-0.6845124026577066,-0.004023395939623618,0.011583175014956554,-0.13541155112236267,0.0,0.0,-0.6,0.0,0.0001800060272216797,0.00030040740966796875,0.0007169246673583984,0
1.8599610328674316,-0.18130500614643097,-0.07557245343923569,-0.6549537181854248,0.10873110990869073,-0.685126128035823,-0.0016588009385155767,0.013880785463621367,-0.13556225200141273,0.0,0.0,-0.6,0.0,0.0002009868621826172,0.0003528594970703125,0.000789642333984375,0
1.8697831630706787,-0.1843254715204239,-0.07273685932159424,-0.6655420660972595,0.10866422656304467,-0.6855466377082298,-0.0014128781988088858,0.014862851507612034,-0.13564266136213057,0.0,0.0,-0.6,0.0,0.0002694129943847656,0.000522613525390625,0.0011129379272460938,0
1.8799731731414795,-0.1843254715204239,-0.07273685932159424,-0.6655420660972595,0.10866422656304467,-0.6858823167438669,-0.0013812925358900128,0.01573599255707928,-0.1356989479146331,0.0,0.0,-0.6,0.0,0.0003192424774169922,0.0006291866302490234,0.001251220703125,0
1.8898329734802246,-0.18845917284488678,-0.06884118169546127,-0.6799735426902771,0.10852307858552467,-0.6860747859419151,-0.0033533463274210496,0.015378758633351312,-0.13568541800981493,0.0,0.0,-0.6,0.0,0.00025081634521484375,0.0004749298095703125,0.001047372817993164,0
1.899965524673462,-0.18845917284488678,-0.06884118169546127,-0.6799735426902771,0.10852307858552467,-0.6862271107717912,-0.004798631500383827,0.0152141357173574,-0.1356759470764422,0.0,0.0,-0.6,0.0,0.00024962425231933594,0.0004968643188476562,0.0010652542114257812,0
1.909677267074585,-0.19095255434513092,-0.06646531075239182,-0.6886962056159973,0.10817610601084114,-0.686313605268644,-0.007087690129337914,0.014668138269840435,-0.1355392027075751,0.0,0.0,-0.6,0.0,0.0002598762512207031,0.0004820823669433594,0.0010128021240234375,0
1.9199695587158203,-0.19095255434513092,-0.06646531075239182,-0.6886962056159973,0.10817610601084114,-0.6863809648498311,-0.008719437721423664,0.014325578465280866,-0.1354434816493681,0.0,0.0,-0.6,0.0,0.0003120899200439453,0.0005519390106201172,0.0011403560638427734,0
1.9297521114349365,-0.19433459639549255,-0.06321143358945847,-0.700523316860199,0.10734911057366645,-0.6864166968172325,-0.011655901234749938,0.012888248145679994,-0.13506635361968294,0.0,0.0,-0.6,0.0,0.00024390220642089844,0.0004630088806152344,0.0010027885437011719,0
1.93998122215271,-0.19433459639549255,-0.06321143358945847,-0.700523316860199,0.10734911057366645,-0.6864441729140021,-0.013723795512278009,0.011899328876456929,-0.13480236399890325,0.0,0.0,-0.6,0.0,0.0002818107604980469,0.0005095005035400391,0.0011205673217773438,0
1.9499428272247314,-0.19635941088199615,-0.06123863533139229,-0.7075958847999573,0.10653029065106416,-0.6864748944706611,-0.016289501232064043,0.010758354578969488,-0.13431051379338182,0.0,0.0,-0.6,0.0,0.00026917457580566406,0.0005056858062744141,0.0010876655578613281,0
1.959798812866211,-0.19730442762374878,-0.06030890718102455,-0.7109012007713318,0.10605634057997246,-0.686506137143766,-0.018576085287576462,0.009774960965254974,-0.13378848737285748,0.0,0.0,-0.6,0.0,0.00018405914306640625,0.000324249267578125,0.0007402896881103516,0
1.9697685241699219,-0.19906653463840485,-0.05855964869260788,-0.7170681357383728,0.10502786361701738,-0.6865569106020535,-0.021108947918967957,0.008774730785704399,-0.13303739001738252,0.0,0.0,-0.6,0.0,0.0001761913299560547,0.00036597251892089844,0.0009100437164306641,0
1.979801893234253,-0.19906653463840485,-0.05855964869260788,-0.7170681357383728,0.10502786361701738,-0.6865965180689532,-0.022898296787076042,0.008098759188817563,-0.1325116218685498,0.0,0.0,-0.6,0.0,0.00015234947204589844,0.00026917457580566406,0.0007326602935791016,0
1.9898810386657715,-0.2006581574678421,-0.05694596841931343,-0.7227399945259094,0.10387774102959993,-0.6866706525782885,-0.024993347993591944,0.00752844156273129,-0.13171228819408565,0.0,0.0,-0.6,0.0,0.0001575946807861328,0.000278472900390625,0.0007443428039550781,0
1.9996356964111328,-0.20139381289482117,-0.05618981271982193,-0.7253655791282654,0.10326012473916549,-0.6867621452506629,-0.02671179405009806,0.006934481164129915,-0.1309211485130478,0.0,0.0,-0.6,0.0,0.00016832351684570312,0.00028777122497558594,0.0006678104400634766,0
2.0097131729125977,-0.20275069773197174,-0.05477900803089142,-0.7302097082138062,0.10193047425232914,-0.6869045748046393,-0.02828345322162151,0.006345678803368997,-0.12986873180375796,0.0,0.0,-0.6,0.0,0.00018978118896484375,0.0003409385681152344,0.0008220672607421875,0
2.0199131965637207,-0.20275069773197174,-0.05477900803089142,-0.7302097082138062,0.10193047425232914,-0.6870181785217832,-0.029424890071761873,0.00599644528970493,-0.12913204010725474,0.0,0.0,-0.6,0.0,0.0002243518829345703,0.0003561973571777344,0.0009171962738037109,0
2.0296688079833984,-0.20395666360855103,-0.0534997321665287,-0.7345322370529175,0.10050375903814636,-0.6871959655057839,-0.030418386975559923,0.005576472885380923,-0.12808133771438426,0.0,0.0,-0.6,0.0,0.00014925003051757812,0.00027298927307128906,0.0006501674652099609,0
2.0397706031799316,-0.2045055776834488,-0.052907444536685944,-0.7365039587020874,0.09974717256553628,-0.6873804648768248,-0.03126480221196674,0.005233748940586542,-0.1270621261121461,0.0,0.0,-0.6,0.0,0.00018453598022460938,0.0003097057342529297,0.0008234977722167969,0
2.049812078475952,-0.2054976224899292,-0.051811691373586655,-0.7401317358016968,0.0981712610302438,-0.6876296582912398,-0.03186025561064601,0.0049994632857540845,-0.125757711164845,0.0,0.0,-0.6,0.0,0.00015807151794433594,0.0002791881561279297,0.0007262229919433594,0
2.059826374053955,-0.2054976224899292,-0.051811691373586655,-0.7401317358016968,0.0981712610302438,-0.6878292249330415,-0.032345591577950236,0.0049426123603904465,-0.12484462070173383,0.0,0.0,-0.6,0.0,0.00015854835510253906,0.00028586387634277344,0.0007104873657226562,0
2.069770336151123,-0.2063533365726471,-0.05083680525422096,-0.7433290481567383,0.09651172901984896,-0.6881010851693165,-0.032486325110351724,0.005004006553455078,-0.12358313287365612,0.0,0.0,-0.6,0.0,0.00017189979553222656,0.00030422210693359375,0.0007658004760742188,0
2.0798702239990234,-0.20673038065433502,-0.050392601639032364,-0.7447534203529358,0.09565291219438926,-0.6883808387631508,-0.03250739493950384,0.005248923460366431,-0.12237803508445645,0.0,0.0,-0.6,0.0,0.00017547607421875,0.0003151893615722656,0.0008029937744140625,0
2.089681386947632,-0.20738689601421356,-0.0495876669883728,-0.7472654581069946,0.09384319347847339,-0.68873417249343,-0.032329664192927404,0.005568045241545912,-0.12085582211354327,0.0,0.0,-0.6,0.0,0.00014901161193847656,0.00026798248291015625,0.0006680488586425781,0
2.099890947341919,-0.20738689601421356,-0.0495876669883728,-0.7472654581069946,0.09384319347847339,-0.6890169102151144,-0.03229943129139118,0.005940848723469681,-0.11979027303390519,0.0,0.0,-0.6,0.0,0.00015974044799804688,0.0002808570861816406,0.0007443428039550781,0
2.109668016433716,-0.2079135626554489,-0.04888972267508507,-0.7493442893028259,0.09198016829471438,-0.689378313030613,-0.031819317428519615,0.006817882918054826,-0.11834575423425045,0.0,0.0,-0.6,0.0,0.00014710426330566406,0.0002665519714355469,0.0006387233734130859,0
2.119769811630249,-0.20812740921974182,-0.048581719398498535,-0.7502277493476868,0.09100509841915817,-0.6897409414963618,-0.0311695436304832,0.007818182958406195,-0.11696893987115861,0.0,0.0,-0.6,0.0,0.0001628398895263672,0.0002837181091308594,0.0007343292236328125,0
2.129805088043213,-0.20846055448055267,-0.04804857820272446,-0.7517427206039429,0.08904978244829795,-0.6901856194963942,-0.029912477068113504,0.009150637624336318,-0.1152719263279215,0.0,0.0,-0.6,0.0,0.00016355514526367188,0.00030231475830078125,0.0007266998291015625,0
2.1399481296539307,-0.20846055448055267,-0.04804857820272446,-0.7517427206039429,0.08904978244829795,-0.6905407220018488,-0.029148352609496303,0.0102675004751301,-0.11408401684765385,0.0,0.0,-0.6,0.0,0.0002505779266357422,0.0004715919494628906,0.001094818115234375,0
2.1496591567993164,-0.20867593586444855,-0.04761814698576927,-0.7528612017631531,0.08709566242208858,-0.6909794514215045,-0.027948360559337474,0.011480631646957224,-0.11251968520163977,0.0,0.0,-0.6,0.0,0.00017642974853515625,0.00030803680419921875,0.0007665157318115234,0
2.1598520278930664,-0.20867593586444855,-0.04761814698576927,-0.7528612017631531,0.08709566242208858,-0.6913299893617673,-0.027222820042402902,0.01250881325019227,-0.11142465304943025,0.0,0.0,-0.6,0.0,0.0001575946807861328,0.00028014183044433594,0.0007109642028808594,0
2.1706321239471436,-0.2087918370962143,-0.04715711623430252,-0.7538415193557739,0.08413959060937276,-0.6918504408160319,-0.025158183195488938,0.014041216855261818,-0.10954960361311783,0.0,0.0,-0.6,0.0,0.0001399517059326172,0.0002548694610595703,0.0006194114685058594,0
2.180016040802002,-0.2087918370962143,-0.04715711623430252,-0.7538415193557739,0.08413959060937276,-0.6922666803053921,-0.023846879387314054,0.015321732181129458,-0.1082370690076963,0.0,0.0,-0.6,0.0,0.0001537799835205078,0.00027441978454589844,0.0007348060607910156,0
2.18973708152771,-0.208730548620224,-0.04697483032941818,-0.7540491223335266,0.08217121707773435,-0.6927689069053029,-0.02185589428872335,0.016916721562989005,-0.10658015470953944,0.0,0.0,-0.6,0.0,0.00013399124145507812,0.0002498626708984375,0.0005884170532226562,0
2.1997811794281006,-0.2086591273546219,-0.046919193118810654,-0.7540575861930847,0.0811683918563836,-0.6932501348449988,-0.01999556980670235,0.01851386355877088,-0.10504425524282032,0.0,0.0,-0.6,0.0,0.0001418590545654297,0.0002586841583251953,0.0006778240203857422,0
2.2097299098968506,-0.20843921601772308,-0.04687797278165817,-0.7538256645202637,0.07915172156595425,-0.693810417952063,-0.01763459429471392,0.02032330125554689,-0.10321287425720573,0.0,0.0,-0.6,0.0,0.00015664100646972656,0.0002818107604980469,0.0007736682891845703,0
