time,x,y,z,yaw,throttle,roll_rate,pitch_rate,yaw_rate,x_ref,y_ref,z_ref,yaw_ref,pred_time,nr_time,metadata
4.76837158203125e-07,0.006035281345248222,-0.00925350934267044,0.0736965611577034,-0.005749277804929725,-0.7141683829601039,0.01774329988639863,-0.011100883401657248,0.0021559791768485954,0.0,0.0,-0.6,0.0,0.00014781951904296875,0.0003504753112792969,Sim
0.010248422622680664,0.005979220382869244,-0.009170114994049072,0.07430192083120346,-0.005747980524777234,-0.734250576264289,0.027503070333419814,-0.017922636214289626,0.0029100854086883715,0.0,0.0,-0.6,0.0,0.00010585784912109375,0.00030732154846191406,Nonlinear
0.01990222930908203,0.0059482865035533905,-0.009131111204624176,0.07461482286453247,-0.00575187976925437,-0.7499311325598712,0.03348520421453817,-0.023797056415990364,0.003930077518408303,0.0,0.0,-0.6,0.0,8.320808410644531e-05,0.00024008750915527344,1stOrderHold
0.03005671501159668,0.005915999412536621,-0.009094021283090115,0.07493248581886292,-0.005761883297263748,-0.7614687312347425,0.035842988636036556,-0.027795319742435383,0.004554763260957794,0.0,0.0,-0.6,0.0,0.00012421607971191406,0.0002970695495605469,QuatYawError
0.04032301902770996,0.005882715806365013,-0.009059716947376728,0.07525528967380524,-0.005772662297701524,-0.7698194977976891,0.03614350266722104,-0.0307217067241295,0.005134442634416254,0.0,0.0,-0.6,0.0,9.751319885253906e-05,0.0002543926239013672,NoPyJoules
0.050043344497680664,0.005810808390378952,-0.008997791446745396,0.07592000812292099,-0.005780004024891348,-0.7758612390211778,0.035252817015766366,-0.03276402431230091,0.005558723572715162,0.0,0.0,-0.6,0.0,8.273124694824219e-05,0.0002319812774658203,0
0.06080508232116699,0.005864141043275595,-0.00887264870107174,0.07586830109357834,-0.005780597661336637,-0.7802141179209942,0.03357224427508321,-0.034084766304043675,0.005910332295497265,0.0,0.0,-0.6,0.0,8.296966552734375e-05,0.00023984909057617188,0
0.07010936737060547,0.005913246888667345,-0.008750692009925842,0.0758303552865982,-0.005782590012990293,-0.7833548342150853,0.03171631005800429,-0.0349335459570345,0.006182640808745732,0.0,0.0,-0.6,0.0,9.512901306152344e-05,0.00025963783264160156,0
0.08013463020324707,0.005957857705652714,-0.008632822893559933,0.07578682899475098,-0.00578218559139838,-0.785586590890367,0.02981760834744138,-0.03541335868665557,0.006400860183259437,0.0,0.0,-0.6,0.0,0.0001347064971923828,0.00048732757568359375,0
0.09016156196594238,0.006036422681063414,-0.008407912217080593,0.07560965418815613,-0.005784853412943021,-0.7868504149306316,0.027264422730674042,-0.03522789065703715,0.006573545377055457,0.0,0.0,-0.6,0.0,0.00012803077697753906,0.00043463706970214844,0
0.09997892379760742,0.006072834599763155,-0.00829996820539236,0.07542350888252258,-0.005760267937080587,-0.7874303813325401,0.024870156172975874,-0.034721702727247124,0.006701142422515485,0.0,0.0,-0.6,0.0,8.320808410644531e-05,0.0002582073211669922,0
0.10993790626525879,0.006111849099397659,-0.008197817020118237,0.07515092194080353,-0.005724831707653783,-0.7874803762671737,0.022549969774878845,-0.034009279593416514,0.0067929526202199966,0.0,0.0,-0.6,0.0,9.870529174804688e-05,0.0002713203430175781,0
0.12004590034484863,0.006146645173430443,-0.008098028600215912,0.07478106766939163,-0.005721564619888112,-0.7871140736423733,0.02026404177631544,-0.033153867458710885,0.006868519997415458,0.0,0.0,-0.6,0.0,0.000110626220703125,0.00029659271240234375,0
0.12990665435791016,0.006206123623996973,-0.007903683930635452,0.0737241730093956,-0.005745605439014813,-0.786080617529655,0.01687786946026446,-0.03159224743136004,0.0069361174558029625,0.0,0.0,-0.6,0.0,8.130073547363281e-05,0.0002453327178955078,0
0.1400899887084961,0.006231172475963831,-0.007809583563357592,0.07302895933389664,-0.00574956391705801,-0.7847846332463685,0.014125969283862911,-0.029994652983568446,0.006987709577523194,0.0,0.0,-0.6,0.0,8.678436279296875e-05,0.00025463104248046875,0
0.15010523796081543,0.006254017353057861,-0.007716973777860403,0.07218996435403824,-0.005716186570038441,-0.7833460640045623,0.011626427149402485,-0.02833232691583243,0.007016909425428569,0.0,0.0,-0.6,0.0,9.107589721679688e-05,0.0002644062042236328,0
0.16006875038146973,0.006274362560361624,-0.0076270075514912605,0.07123619318008423,-0.005699869584851044,-0.7818189136074615,0.009364299343262019,-0.026579437036685437,0.00703906774535226,0.0,0.0,-0.6,0.0,8.630752563476562e-05,0.00025463104248046875,0
0.17006373405456543,0.006293029990047216,-0.007539390120655298,0.07016834616661072,-0.005678205526529163,-0.780226664169922,0.007210926561381788,-0.0246925363823466,0.007048919082221726,0.0,0.0,-0.6,0.0,9.012222290039062e-05,0.0002818107604980469,0
0.18001127243041992,0.006329791154712439,-0.0073709748685359955,0.06769083440303802,-0.00560393241151177,-0.7782238676145179,0.004261426781966271,-0.022126555078402343,0.00703227004396781,0.0,0.0,-0.6,0.0,7.677078247070312e-05,0.0002541542053222656,0
0.1899731159210205,0.006346907466650009,-0.007289574947208166,0.06628255546092987,-0.005583854416063964,-0.7761868853204815,0.0021689488776632402,-0.019811612828692787,0.007022361600190324,0.0,0.0,-0.6,0.0,8.726119995117188e-05,0.0002593994140625,0
0.20017743110656738,0.006362701300531626,-0.007208831142634153,0.06476224213838577,-0.005544670505646927,-0.7741915085904397,0.0001713723322943569,-0.01746239192536947,0.006998372515072942,0.0,0.0,-0.6,0.0,0.0001068115234375,0.0002951622009277344,0
0.20993709564208984,0.006393947638571262,-0.0070457737892866135,0.06139025837182999,-0.005496037222421554,-0.771883127947366,-0.0026790062171320526,-0.014422229454184162,0.0069682708987502265,0.0,0.0,-0.6,0.0,8.559226989746094e-05,0.0002601146697998047,0
0.22015786170959473,0.006409068126231432,-0.006965085864067078,0.05952999368309975,-0.005471671149122554,-0.7696244796595704,-0.004559922162283201,-0.0117778785137592,0.006940201875759064,0.0,0.0,-0.6,0.0,8.96453857421875e-05,0.0002608299255371094,0
0.23006176948547363,0.00642402283847332,-0.006882635876536369,0.05756465718150139,-0.0054377072314288006,-0.7674746731420529,-0.0063360582520423075,-0.009250583691849876,0.006907105682864049,0.0,0.0,-0.6,0.0,9.322166442871094e-05,0.0002751350402832031,0
0.24009156227111816,0.006439784076064825,-0.006799884606152773,0.05549795553088188,-0.005380248158059813,-0.765435977634365,-0.007756168094284643,-0.006767651170302416,0.006864150704790521,0.0,0.0,-0.6,0.0,8.487701416015625e-05,0.00025963783264160156,0
0.25015974044799805,0.006457578390836716,-0.006718754768371582,0.0533321388065815,-0.00534191769682442,-0.7634842185480114,-0.008980122955718242,-0.004346740440753265,0.0068231588719882535,0.0,0.0,-0.6,0.0,8.96453857421875e-05,0.0002913475036621094,0
0.26014161109924316,0.00650648633018136,-0.0065513900481164455,0.04870982840657234,-0.0052380082628997295,-0.7612597893197725,-0.011099697915709344,-0.0012663228275159098,0.006754811450459971,0.0,0.0,-0.6,0.0,0.00012302398681640625,0.0004787445068359375,0
0.2701904773712158,0.006533364299684763,-0.0064673335291445255,0.046259500086307526,-0.0051873305440816725,-0.7591038334397038,-0.01227422331586032,0.001394713432453515,0.006697538566887501,0.0,0.0,-0.6,0.0,0.00013566017150878906,0.0005147457122802734,0
0.28027796745300293,0.006562382448464632,-0.006382819730788469,0.043720394372940063,-0.005154596472857568,-0.7570658634490434,-0.013309101760645753,0.003927273901810045,0.006641296183393192,0.0,0.0,-0.6,0.0,0.00015282630920410156,0.0004982948303222656,0
0.2900869846343994,0.006624938920140266,-0.0062134359031915665,0.0383581779897213,-0.005095004985066963,-0.7548211980993509,-0.014914386186207744,0.006968711525522656,0.006579219031998354,0.0,0.0,-0.6,0.0,0.0001392364501953125,0.00048732757568359375,0
0.30011415481567383,0.006660914048552513,-0.006128758657723665,0.035542283207178116,-0.005052171778158735,-0.7526847889598088,-0.015821303511174306,0.009677394038435335,0.0065217447421965615,0.0,0.0,-0.6,0.0,0.00011539459228515625,0.0004584789276123047,0
0.3102715015411377,0.006699686404317617,-0.006043518427759409,0.032651856541633606,-0.005011270547781179,-0.75070023447461,-0.016502929134132153,0.012191221606539496,0.006464563776386164,0.0,0.0,-0.6,0.0,0.00012993812561035156,0.0005133152008056641,0
0.32009434700012207,0.00674095144495368,-0.005957846995443106,0.029689935967326164,-0.0049701759727417425,-0.7488481173769397,-0.01694028207656704,0.014547711491434833,0.006409023971282115,0.0,0.0,-0.6,0.0,0.00012993812561035156,0.0004496574401855469,0
0.3303084373474121,0.006835064850747585,-0.005785915534943342,0.02355451136827469,-0.004860823624578607,-0.7468134432937483,-0.01798081213681543,0.01747308998800432,0.006328564570900878,0.0,0.0,-0.6,0.0,0.00013256072998046875,0.0004665851593017578,0
0.3400614261627197,0.006888680160045624,-0.005699683912098408,0.020387889817357063,-0.004819164576872364,-0.7448755197601411,-0.018243864430408954,0.01996149222584797,0.006265342706091179,0.0,0.0,-0.6,0.0,8.034706115722656e-05,0.00025010108947753906,0
0.35005640983581543,0.0069466400891542435,-0.0056131454184651375,0.017159266397356987,-0.004771912017677435,-0.7430689463636901,-0.018406482513127227,0.022300280642462735,0.006197334553576259,0.0,0.0,-0.6,0.0,0.00012731552124023438,0.000438690185546875,0
0.36103081703186035,0.007009339984506369,-0.00552620692178607,0.013870978727936745,-0.004722298711572332,-0.741381138696487,-0.018359950390328995,0.02438730198866135,0.006132799057723222,0.0,0.0,-0.6,0.0,9.369850158691406e-05,0.0002701282501220703,0
0.37004637718200684,0.007143980357795954,-0.005349081940948963,0.0071340687572956085,-0.004651252891436056,-0.7395339576952252,-0.018562584002776317,0.026635472354660274,0.006059766598243333,0.0,0.0,-0.6,0.0,0.00012636184692382812,0.00044417381286621094,0
0.3801863193511963,0.0072149853222072124,-0.005259896162897348,0.0036860352847725153,-0.004614849367575836,-0.737773986445175,-0.018207701641444304,0.028425394464888853,0.005997966492429234,0.0,0.0,-0.6,0.0,0.00013113021850585938,0.00048804283142089844,0
0.38996052742004395,0.007288715336471796,-0.005169799085706472,0.0001887662074295804,-0.004579357777981612,-0.7361364302382861,-0.017830064053610182,0.030070110983240184,0.005937465748478497,0.0,0.0,-0.6,0.0,0.00013017654418945312,0.000476837158203125,0
0.4000546932220459,0.007363582961261272,-0.005079601425677538,-0.003354630433022976,-0.004530855583056029,-0.7346118769939203,-0.01735772315880011,0.03151098015762695,0.0058764721279637114,0.0,0.0,-0.6,0.0,0.00013327598571777344,0.00045561790466308594,0
0.4102613925933838,0.00744091859087348,-0.00498890969902277,-0.006941154133528471,-0.004473571042017917,-0.7331826814898169,-0.016837216307224716,0.03281045829725445,0.005812467397511493,0.0,0.0,-0.6,0.0,0.0001385211944580078,0.0004940032958984375,0
0.42006444931030273,0.007605930790305138,-0.0048108347691595554,-0.014235343784093857,-0.004346751281308558,-0.7316108758311005,-0.016275604406690923,0.034201616894321205,0.005721160564407033,0.0,0.0,-0.6,0.0,0.00012421607971191406,0.0004527568817138672,0
0.4302337169647217,0.007693854160606861,-0.004722621291875839,-0.017939502373337746,-0.004280597797536169,-0.7301055450552598,-0.015662975525578413,0.03548032373949991,0.005641993960747549,0.0,0.0,-0.6,0.0,0.00013947486877441406,0.0004799365997314453,0
0.4402456283569336,0.007786015514284372,-0.004635590594261885,-0.02170538902282715,-0.00423459787159467,-0.7287065708259738,-0.014907435448396376,0.036604547830242265,0.005565078285652106,0.0,0.0,-0.6,0.0,0.000148773193359375,0.00048804283142089844,0
0.4501314163208008,0.007980410940945148,-0.004464590921998024,-0.029325416311621666,-0.004125300144830264,-0.7272052861931023,-0.014129646126732365,0.03776168864655191,0.005469462840551231,0.0,0.0,-0.6,0.0,0.00012946128845214844,0.00044608116149902344,0
0.4604661464691162,0.008199700154364109,-0.004216388799250126,-0.03298867493867874,-0.004046060850459091,-0.7257899398036335,-0.013387486456152698,0.03871415808173943,0.005379362213093319,0.0,0.0,-0.6,0.0,0.00012946128845214844,0.0004482269287109375,0
0.46996235847473145,0.008419608697295189,-0.003973027691245079,-0.036681532859802246,-0.003994889744457532,-0.7244877851856644,-0.012728756069299628,0.039568858312570836,0.005295172422947169,0.0,0.0,-0.6,0.0,0.00012373924255371094,0.0004658699035644531,0
0.48019886016845703,0.008640017360448837,-0.003734214697033167,-0.040400680154561996,-0.003944825744157275,-0.7232907408191243,-0.012169390929203255,0.04036680543241062,0.005215396776673142,0.0,0.0,-0.6,0.0,0.0001361370086669922,0.00047850608825683594,0
0.49013710021972656,0.009086471982300282,-0.0032663163729012012,-0.04790906235575676,-0.003865919396541304,-0.7220167247094407,-0.01194280655926531,0.041306314191298724,0.0051284189935701,0.0,0.0,-0.6,0.0,0.0001342296600341797,0.00044465065002441406,0
0.5000786781311035,0.00931268185377121,-0.0030350072775036097,-0.05169351398944855,-0.0038381413813875502,-0.7208159350676268,-0.011668925757274325,0.04204187132519123,0.00505963853760546,0.0,0.0,-0.6,0.0,0.00012564659118652344,0.0004584789276123047,0
0.5101330280303955,0.00954119861125946,-0.0028050977271050215,-0.05552424490451813,-0.003783723019902466,-0.719710073083104,-0.0115075894764288,0.04274352790234224,0.004984716268374864,0.0,0.0,-0.6,0.0,0.0001270771026611328,0.0004496574401855469,0
0.5202212333679199,0.00977230817079544,-0.0025780946016311646,-0.059370607137680054,-0.0037282359662560017,-0.718690717411212,-0.011219363830000844,0.04335107247848403,0.004913612669439108,0.0,0.0,-0.6,0.0,9.393692016601562e-05,0.0002734661102294922,0
0.5301985740661621,0.010238569229841232,-0.0021351107861846685,-0.06710494309663773,-0.0036524510675387434,-0.7175945241546626,-0.010852998564610368,0.04382735206834034,0.004834084278561921,0.0,0.0,-0.6,0.0,0.000133514404296875,0.0004546642303466797,0
0.5402259826660156,0.010470288805663586,-0.001918442198075354,-0.07098961621522903,-0.003607654593997316,-0.7165600277491238,-0.010442117930591015,0.044140970972731786,0.004764564404549351,0.0,0.0,-0.6,0.0,0.0001385211944580078,0.00046443939208984375,0
0.5501065254211426,0.010702461935579777,-0.001704643596895039,-0.07488289475440979,-0.0035734055180882255,-0.7156051599095579,-0.010068540865869951,0.04433493709224333,0.0046995541083720204,0.0,0.0,-0.6,0.0,0.00014019012451171875,0.000469207763671875,0
0.5603091716766357,0.010934456251561642,-0.0014927375596016645,-0.07878448069095612,-0.0035413111970585233,-0.7147185913107493,-0.00973379435888729,0.044397993577120994,0.004640433178419421,0.0,0.0,-0.6,0.0,0.00013375282287597656,0.0004665851593017578,0
0.5701451301574707,0.011398902162909508,-0.0010796358110383153,-0.08660552650690079,-0.003451669690357783,-0.7137702046851275,-0.009141505765267437,0.044198610579768476,0.004563371684261167,0.0,0.0,-0.6,0.0,0.00013947486877441406,0.0004856586456298828,0
0.5799877643585205,0.011630750261247158,-0.000877255923114717,-0.09052920341491699,-0.0033866694664565137,-0.7128707736064538,-0.008726227770775996,0.04391773061912901,0.004491332751859397,0.0,0.0,-0.6,0.0,8.58306884765625e-05,0.0002665519714355469,0
0.5901262760162354,0.011863172985613346,-0.0006776574300602078,-0.09445532411336899,-0.003330250855105968,-0.7120399064470724,-0.008367838875916352,0.04360933152133299,0.004417990623306937,0.0,0.0,-0.6,0.0,0.00014066696166992188,0.0004608631134033203,0
0.60009765625,0.012096202000975609,-0.0004806123615708202,-0.09838218241930008,-0.0032919708528868137,-0.7112707470883846,-0.008052848976895368,0.04315967591639783,0.00435275225114077,0.0,0.0,-0.6,0.0,0.00010132789611816406,0.00029587745666503906,0
0.6099765300750732,0.012562980875372887,-9.355436486657709e-05,-0.10623583197593689,-0.003265570262003277,-0.7104419267346402,-0.007637776549403984,0.04257842211414945,0.004294348854307925,0.0,0.0,-0.6,0.0,8.797645568847656e-05,0.00025844573974609375,0
0.6200761795043945,0.01280025765299797,9.356308146379888e-05,-0.11015937477350235,-0.0032619154567964576,-0.7096606680358507,-0.007369698247047032,0.042046607805917235,0.004249703683205711,0.0,0.0,-0.6,0.0,9.012222290039062e-05,0.0002684593200683594,0
0.6299967765808105,0.013038120232522488,0.0002772434090729803,-0.11407960206270218,-0.003212395950959353,-0.7089407362751539,-0.007033006436558439,0.04145476890541645,0.004195066869739525,0.0,0.0,-0.6,0.0,9.846687316894531e-05,0.000278472900390625,0
0.6400001049041748,0.013275818899273872,0.00045721916831098497,-0.11799564957618713,-0.0031809487271465143,-0.7082751624199913,-0.006669570300002541,0.04080912605049158,0.0041485254662107715,0.0,0.0,-0.6,0.0,9.322166442871094e-05,0.00027370452880859375,0
0.6502110958099365,0.013750116340816021,0.0008057787199504673,-0.12582796812057495,-0.0031167647908197154,-0.7075598418163682,-0.005926931686730469,0.03985559890588055,0.004089044114139992,0.0,0.0,-0.6,0.0,9.489059448242188e-05,0.0002753734588623047,0
0.6600565910339355,0.013985097408294678,0.0009743379196152091,-0.12974068522453308,-0.003073398240068473,-0.7068826604738908,-0.005495217000801369,0.03894609618563514,0.004035673693148443,0.0,0.0,-0.6,0.0,8.511543273925781e-05,0.0002579689025878906,0
0.6701409816741943,0.014218639582395554,0.0011402632808312774,-0.13364368677139282,-0.0030427473967427365,-0.706261819465916,-0.005175821906513387,0.038058119063502316,0.003984681506329477,0.0,0.0,-0.6,0.0,9.655952453613281e-05,0.0002734661102294922,0
0.6801261901855469,0.014451129361987114,0.0013038682518526912,-0.1375359743833542,-0.003033367908980302,-0.7056911731738703,-0.004992143019582532,0.037194224757796344,0.003944637285684886,0.0,0.0,-0.6,0.0,0.00011205673217773438,0.0003006458282470703,0
0.6900656223297119,0.014922733418643475,0.0016201918479055166,-0.14528430998325348,-0.002979048955601082,-0.7050892791530781,-0.004381260513998732,0.03591291591284596,0.0038924049355554256,0.0,0.0,-0.6,0.0,8.487701416015625e-05,0.00025653839111328125,0
0.7000408172607422,0.015155348926782608,0.0017724642530083656,-0.14913901686668396,-0.002941567101238291,-0.7045259705344401,-0.004020144313338867,0.03473622107849464,0.003846052440398467,0.0,0.0,-0.6,0.0,9.441375732421875e-05,0.0002803802490234375,0
0.7099406719207764,0.015386185608804226,0.0019202283583581448,-0.1529790461063385,-0.002895529365554846,-0.7040126919743879,-0.0036612412211877695,0.033578594651271325,0.0037942835936669336,0.0,0.0,-0.6,0.0,8.320808410644531e-05,0.0002682209014892578,0
0.72007155418396,0.015615562908351421,0.002063855528831482,-0.15680451691150665,-0.0028515115247976647,-0.703540154643504,-0.0034126418249376396,0.032465900985127596,0.0037434344337220157,0.0,0.0,-0.6,0.0,0.00014257431030273438,0.0004756450653076172,0
0.7302894592285156,0.01606731489300728,0.0023420238867402077,-0.1644483208656311,-0.0027909930572408313,-0.70304045937852,-0.002573214473786816,0.030906546715610855,0.003684823706051439,0.0,0.0,-0.6,0.0,0.00013828277587890625,0.00046253204345703125,0
0.740241527557373,0.016288043931126595,0.002475552959367633,-0.16824528574943542,-0.002768120857591916,-0.702563447542231,-0.0022089486166318793,0.029497570008252996,0.003637935670517679,0.0,0.0,-0.6,0.0,0.00012540817260742188,0.00045180320739746094,0
0.7501778602600098,0.016506297513842583,0.002608481328934431,-0.17202608287334442,-0.0027387962311090116,-0.7021189956439075,-0.002031043936973978,0.02813524795963499,0.0035900143684650743,0.0,0.0,-0.6,0.0,0.00014090538024902344,0.00046372413635253906,0
0.7604193687438965,0.016721496358513832,0.0027408343739807606,-0.1757889986038208,-0.0027264445844164937,-0.7017129545697841,-0.0018574238484102938,0.0268105546648119,0.0035521992328001475,0.0,0.0,-0.6,0.0,0.00010228157043457031,0.0002880096435546875,0
0.7699508666992188,0.017141694203019142,0.0029982614796608686,-0.18325936794281006,-0.0026453962483132874,-0.7012819158480222,-0.001120926137713115,0.02498986682381298,0.0034917983535603086,0.0,0.0,-0.6,0.0,8.511543273925781e-05,0.0002608299255371094,0
0.7801599502563477,0.017345231026411057,0.0031225760467350483,-0.18696682155132294,-0.0026137460051099924,-0.700869668436488,-0.0008519798335800031,0.023394566240559904,0.003445553907142403,0.0,0.0,-0.6,0.0,8.96453857421875e-05,0.0002675056457519531,0
0.7899353504180908,0.017544236034154892,0.003244265913963318,-0.19065575301647186,-0.0025819972246820225,-0.7004892099328027,-0.0006296235572782424,0.0218461661399407,0.0033963222505017086,0.0,0.0,-0.6,0.0,7.62939453125e-05,0.000247955322265625,0
0.8000776767730713,0.017738979309797287,0.003363867988809943,-0.19433626532554626,-0.002554449137151771,-0.7001396940856838,-0.0006060275349478974,0.020400972478703226,0.003352575081607354,0.0,0.0,-0.6,0.0,0.00010275840759277344,0.0002963542938232422,0
0.8101902008056641,0.018116261810064316,0.0035915321204811335,-0.20162726938724518,-0.002488515042032308,-0.6997901647755598,8.363455514572059e-05,0.018568623841717573,0.003295307207000289,0.0,0.0,-0.6,0.0,9.393692016601562e-05,0.00027441978454589844,0
0.8199379444122314,0.01829899102449417,0.0036995315458625555,-0.2052384614944458,-0.0024458032574690334,-0.6994635509594379,0.00022484852185213216,0.01697994888277836,0.0032439350225635668,0.0,0.0,-0.6,0.0,8.320808410644531e-05,0.00025963783264160156,0
0.8301677703857422,0.018481146544218063,0.003805482992902398,-0.20882649719715118,-0.0024030006170623255,-0.6991665699027863,0.0004414193892200729,0.015414328819570652,0.003189860011745723,0.0,0.0,-0.6,0.0,9.369850158691406e-05,0.0002849102020263672,0
0.8401370048522949,0.01865791715681553,0.003908218815922737,-0.21239234507083893,-0.0023727727641109694,-0.6988936047095764,0.0005299954539291242,0.013930661292244878,0.003141618048549866,0.0,0.0,-0.6,0.0,9.894371032714844e-05,0.0002944469451904297,0
0.8499970436096191,0.018994951620697975,0.004104927182197571,-0.21945226192474365,-0.0023323295177885375,-0.6986091245493546,0.0011459966165496653,0.012039373364561018,0.0030906408902741586,0.0,0.0,-0.6,0.0,8.678436279296875e-05,0.00026488304138183594,0
0.8602583408355713,0.019428376108407974,0.004361725877970457,-0.22338584065437317,-0.0023112890351666884,-0.6983252936071783,0.0009666589411282614,0.010665093125141087,0.0030480240167759178,0.0,0.0,-0.6,0.0,0.00010800361633300781,0.0002925395965576172,0
0.8699243068695068,0.01985293999314308,0.004611871670931578,-0.22729648649692535,-0.0023015941814366545,-0.6980496261629904,0.0006354044389960416,0.009538050645851786,0.003011630535506273,0.0,0.0,-0.6,0.0,8.893013000488281e-05,0.00027370452880859375,0
0.8800482749938965,0.020267389714717865,0.004855046048760414,-0.23117320239543915,-0.0022842928894411673,-0.6977825627710025,0.00023506356029889266,0.008537808578801325,0.0029774889268392034,0.0,0.0,-0.6,0.0,8.988380432128906e-05,0.0002684593200683594,0
0.890634298324585,0.021069511771202087,0.005325648933649063,-0.23882439732551575,-0.0021895317216671984,-0.6974754880192333,-0.0004123567464288058,0.0076795813259347475,0.002917266207446114,0.0,0.0,-0.6,0.0,0.00011801719665527344,0.0002989768981933594,0
0.9001166820526123,0.021459143608808517,0.005552676040679216,-0.24259886145591736,-0.0021643129436596993,-0.697181725691868,-0.0010067712669914754,0.006885364664515128,0.002874781650872249,0.0,0.0,-0.6,0.0,0.0001327991485595703,0.00046443939208984375,0
0.9100103378295898,0.021837858483195305,0.0057745627127587795,-0.24633854627609253,-0.0021423731189757667,-0.6969123341257951,-0.0015251959989765187,0.00609695450522643,0.002830606670027338,0.0,0.0,-0.6,0.0,7.319450378417969e-05,0.00023484230041503906,0
0.9198813438415527,0.022205639630556107,0.005990356672555208,-0.25004303455352783,-0.0021224124755763146,-0.6966667320476234,-0.002033651235450084,0.005351419524671645,0.0027927905906559745,0.0,0.0,-0.6,0.0,7.772445678710938e-05,0.0002429485321044922,0
0.9301459789276123,0.022909779101610184,0.006409825757145882,-0.2573513388633728,-0.0020703140825376787,-0.6963950043387246,-0.00256033077588223,0.004575038408199177,0.0027445568221907872,0.0,0.0,-0.6,0.0,9.036064147949219e-05,0.0002655982971191406,0
0.9401919841766357,0.02324828691780567,0.006609378848224878,-0.26096969842910767,-0.0020296968492337663,-0.6961458418158817,-0.003157369819287859,0.004086237882208471,0.00269920791295903,0.0,0.0,-0.6,0.0,9.751319885253906e-05,0.0002827644348144531,0
0.9500443935394287,0.023579183965921402,0.006803927477449179,-0.2645529508590698,-0.0019687687166331804,-0.6959195976124456,-0.0037919247391528274,0.003706496685473775,0.00264360592603988,0.0,0.0,-0.6,0.0,8.535385131835938e-05,0.0002586841583251953,0
0.9602024555206299,0.023900654166936874,0.006993603426963091,-0.2681015729904175,-0.001957831742306572,-0.6957175509510555,-0.004217791077487551,0.0033062862555835013,0.002604171747014584,0.0,0.0,-0.6,0.0,9.059906005859375e-05,0.0002703666687011719,0
0.9699530601501465,0.024514688178896904,0.00735526392236352,-0.27509304881095886,-0.0019527371261596365,-0.6955134570750404,-0.004519498536471636,0.0028365112378583718,0.002568998607878927,0.0,0.0,-0.6,0.0,8.869171142578125e-05,0.0002665519714355469,0
0.9800827503204346,0.024807143956422806,0.007528333459049463,-0.27853477001190186,-0.001899299348755402,-0.6953286637197889,-0.004838206072958272,0.0024576843279102297,0.002522846879996003,0.0,0.0,-0.6,0.0,9.202957153320312e-05,0.0002720355987548828,0
0.99056077003479,0.025090839713811874,0.007696758024394512,-0.2819405198097229,-0.0018755941230434805,-0.6951671792747501,-0.005182076866052875,0.0021238714332960347,0.0024854937168975297,0.0,0.0,-0.6,0.0,9.369850158691406e-05,0.00028228759765625,0
0.9999158382415771,0.025366051122546196,0.007861304096877575,-0.2853100299835205,-0.0018699411186820106,-0.6950273168142542,-0.005549624112199206,0.0018600818058900359,0.0024541471284184914,0.0,0.0,-0.6,0.0,7.748603820800781e-05,0.00026106834411621094,0
1.0100831985473633,0.02588927000761032,0.00817785318940878,-0.29194289445877075,-0.0018012228706449612,-0.6948982861961744,-0.0056872439369780115,0.0015367868407752771,0.002404332872352466,0.0,0.0,-0.6,0.0,9.1552734375e-05,0.00026988983154296875,0
1.0201528072357178,0.026138434186577797,0.008328855969011784,-0.29520589113235474,-0.0017935027639528539,-0.6947894814141929,-0.005759005696182985,0.0011928268432046215,0.002373031536752156,0.0,0.0,-0.6,0.0,9.059906005859375e-05,0.00028014183044433594,0
1.0300321578979492,0.0263783298432827,0.008474449627101421,-0.29843273758888245,-0.0017676465427355894,-0.6946919515258659,-0.0057417018232717165,0.0008141390571789992,0.0023349449967124637,0.0,0.0,-0.6,0.0,8.630752563476562e-05,0.0002684593200683594,0
1.040273904800415,0.02660929225385189,0.008615908212959766,-0.3016262650489807,-0.0017491615362905464,-0.6945967686332074,-0.005746762540149511,0.0004466543697108446,0.0023037273628215725,0.0,0.0,-0.6,0.0,0.000133514404296875,0.0004589557647705078,0
1.0500776767730713,0.02704998105764389,0.008887714706361294,-0.30791184306144714,-0.001697527064939597,-0.6944978543585054,-0.0057277131647354386,-1.5129760859077684e-05,0.0022601079751892626,0.0,0.0,-0.6,0.0,0.00013494491577148438,0.00046324729919433594,0
1.0601301193237305,0.027258068323135376,0.009017792530357838,-0.3110015094280243,-0.0016782416088303067,-0.694412504905484,-0.00566920889231208,-0.0004915154623587937,0.002226682971615157,0.0,0.0,-0.6,0.0,8.726119995117188e-05,0.00032138824462890625,0
1.0700511932373047,0.027456659823656082,0.009142668917775154,-0.314055860042572,-0.0016449596147549233,-0.6943446729278353,-0.005465234358729709,-0.0009807639378956495,0.002187236686914644,0.0,0.0,-0.6,0.0,9.918212890625e-05,0.0002796649932861328,0
1.0800766944885254,0.027646450325846672,0.009262735024094582,-0.3170744776725769,-0.0016211844199807517,-0.6942902531223014,-0.005359750242556324,-0.0013830686289112487,0.002152816037978214,0.0,0.0,-0.6,0.0,0.0001308917999267578,0.0004818439483642578,0
1.090012550354004,0.028004564344882965,0.009491347707808018,-0.3230274021625519,-0.0015658954120551653,-0.6942475917717981,-0.005052044828052136,-0.0018059742931260377,0.0021062292332331882,0.0,0.0,-0.6,0.0,0.00013780593872070312,0.00045871734619140625,0
1.1003212928771973,0.028170354664325714,0.009599629789590836,-0.3259508013725281,-0.001524760152214512,-0.6942161094873183,-0.004747611335548336,-0.0022585759243212724,0.0020624509020044338,0.0,0.0,-0.6,0.0,0.00014090538024902344,0.00046896934509277344,0
1.1100456714630127,0.0283307246863842,0.009705747477710247,-0.3288387060165405,-0.0015048711120168117,-0.6941906991308552,-0.004519573204946261,-0.0027132561274819593,0.002023364714339472,0.0,0.0,-0.6,0.0,0.00012731552124023438,0.00045013427734375,0
1.1201083660125732,0.028482383117079735,0.009809384122490883,-0.33169201016426086,-0.0014689919522244549,-0.6941717372024592,-0.004436492263369443,-0.0031259853502321926,0.0019809074478045387,0.0,0.0,-0.6,0.0,9.560585021972656e-05,0.0002872943878173828,0
1.1299114227294922,0.028764711692929268,0.010008677840232849,-0.33729103207588196,-0.0014194839856590928,-0.6941686061864378,-0.004230083662608455,-0.0036061811590176636,0.0019338017513725633,0.0,0.0,-0.6,0.0,9.632110595703125e-05,0.0002913475036621094,0
1.140028953552246,0.028894180431962013,0.010103236883878708,-0.34003764390945435,-0.0013834551842902337,-0.6941761043046212,-0.003979561255028596,-0.004131801354746686,0.0018889439138208245,0.0,0.0,-0.6,0.0,8.869171142578125e-05,0.00027370452880859375,0
1.1501641273498535,0.029015304520726204,0.010193554684519768,-0.3427499532699585,-0.0013611575295242103,-0.6941871985302346,-0.003718593361728131,-0.004638519047809882,0.0018483950563892666,0.0,0.0,-0.6,0.0,0.0001366138458251953,0.000457763671875,0
1.160008430480957,0.029129814356565475,0.01027858816087246,-0.3454378843307495,-0.0013429988258856374,-0.6942080046671958,-0.003499526540500886,-0.004998517978300711,0.0018116931992806467,0.0,0.0,-0.6,0.0,8.726119995117188e-05,0.0002684593200683594,0
1.1699974536895752,0.029340451583266258,0.010435494594275951,-0.3507072627544403,-0.0013426134629065966,-0.694247199875245,-0.003114663633764859,-0.005382739756779035,0.001784510938074444,0.0,0.0,-0.6,0.0,9.751319885253906e-05,0.0002830028533935547,0
1.1801724433898926,0.029437126591801643,0.010506929829716682,-0.3532904088497162,-0.0013114046072776732,-0.6942932669481016,-0.0026061329842544463,-0.005764459248145191,0.001750448175803409,0.0,0.0,-0.6,0.0,0.00010037422180175781,0.0002875328063964844,0
1.189971923828125,0.029525872319936752,0.010572276078164577,-0.35584020614624023,-0.0012815849200033726,-0.6943379600344661,-0.0020899126092562515,-0.006145380039686875,0.0017178300348585141,0.0,0.0,-0.6,0.0,8.463859558105469e-05,0.0002551078796386719,0
1.2002179622650146,0.029607368633151054,0.010632818564772606,-0.35835742950439453,-0.0012591368001305214,-0.6943782404913406,-0.0016989573089281852,-0.006478822110222783,0.0016860736737806194,0.0,0.0,-0.6,0.0,9.107589721679688e-05,0.00027441978454589844,0
1.2100193500518799,0.02968226559460163,0.010689325630664825,-0.3608423173427582,-0.0012408684242621521,-0.6944195635172012,-0.0012776607136565743,-0.006790040227141777,0.0016566919571220043,0.0,0.0,-0.6,0.0,9.560585021972656e-05,0.00028061866760253906,0
1.220130443572998,0.029813459143042564,0.010790764354169369,-0.3657120168209076,-0.0011850305366695507,-0.6944819048853399,-0.0008874952393877484,-0.00702769100987658,0.0016143544220670008,0.0,0.0,-0.6,0.0,0.00010013580322265625,0.0002758502960205078,0
1.2301843166351318,0.02986961044371128,0.010836614295840263,-0.3681533932685852,-0.0011720025259293852,-0.6945447333913914,-0.0005293458704332903,-0.007280537418981741,0.001584367179939672,0.0,0.0,-0.6,0.0,0.00010132789611816406,0.00028228759765625,0
1.2398920059204102,0.029919743537902832,0.010878462344408035,-0.370562344789505,-0.0011589076178357802,-0.694601001283888,-0.00019648284346951504,-0.007450794799554516,0.0015541429173907529,0.0,0.0,-0.6,0.0,7.653236389160156e-05,0.0002498626708984375,0
1.2501320838928223,0.02996390499174595,0.010916275903582573,-0.37293875217437744,-0.0011554096444496625,-0.6946559408224037,0.00015460083985678597,-0.007646745077247678,0.0015317571507342707,0.0,0.0,-0.6,0.0,9.417533874511719e-05,0.00028014183044433594,0
1.260333776473999,0.02999289333820343,0.010929525829851627,-0.3783671259880066,-0.0011027406592819039,-0.6947005918257165,0.0006662070677199604,-0.007907075284705155,0.001493592771074472,0.0,0.0,-0.6,0.0,9.036064147949219e-05,0.0002841949462890625,0
1.2699906826019287,0.029976127669215202,0.01090722344815731,-0.3814014792442322,-0.0010885852809652272,-0.6947175061531248,0.001303061216490497,-0.008266236414053144,0.0014670919529950193,0.0,0.0,-0.6,0.0,8.916854858398438e-05,0.00026154518127441406,0
1.2800376415252686,0.0299534872174263,0.010882285423576832,-0.3843855559825897,-0.0010989972820955591,-0.6947153450268597,0.0018999902234264556,-0.008604921458081496,0.001448363634210156,0.0,0.0,-0.6,0.0,9.775161743164062e-05,0.0002753734588623047,0
1.289985179901123,0.02989354357123375,0.010825233533978462,-0.3902004361152649,-0.0010731539010105844,-0.6947012033792909,0.0027753841390961375,-0.00906662813959925,0.001422842168400781,0.0,0.0,-0.6,0.0,9.226799011230469e-05,0.0002713203430175781,0
1.3000092506408691,0.029855405911803246,0.010792171582579613,-0.39305222034454346,-0.0010347689298829904,-0.6946774266491987,0.003581637254806672,-0.009522025551137004,0.0013929603796199491,0.0,0.0,-0.6,0.0,8.893013000488281e-05,0.0002689361572265625,0
1.3100855350494385,0.029811864718794823,0.01075548492372036,-0.39585572481155396,-0.0009996481380977692,-0.6946481073761479,0.004298226535642981,-0.009912067588236336,0.0013603989435939199,0.0,0.0,-0.6,0.0,9.274482727050781e-05,0.0002765655517578125,0
1.3199098110198975,0.029763715341687202,0.010714923962950706,-0.39861154556274414,-0.000978388130177169,-0.6946197094675772,0.005009399004289938,-0.01026035819845842,0.0013305713119412925,0.0,0.0,-0.6,0.0,8.058547973632812e-05,0.0002505779266357422,0
1.3299860954284668,0.029655523598194122,0.010621515102684498,-0.40398457646369934,-0.0009323906254407436,-0.6945847324302135,0.005856593181387801,-0.010629148107239153,0.001291486073977604,0.0,0.0,-0.6,0.0,9.179115295410156e-05,0.0002663135528564453,0
1.340179681777954,0.029594719409942627,0.0105716148391366,-0.4066029191017151,-0.0009076678344608884,-0.6945478460221486,0.006390461245260183,-0.01094938493456618,0.0012580955229944458,0.0,0.0,-0.6,0.0,0.00014734268188476562,0.00047278404235839844,0
1.350010871887207,0.029529310762882233,0.010519837029278278,-0.4091765582561493,-0.0009128734401777379,-0.6945165286223468,0.006916584724464661,-0.011247997858398414,0.0012346810990068698,0.0,0.0,-0.6,0.0,0.00012302398681640625,0.00043892860412597656,0
1.360142469406128,0.02945975586771965,0.01046467013657093,-0.4117223024368286,-0.0008841463817859795,-0.6944933009322962,0.007395144458357359,-0.011476123948814827,0.0012040267108702027,0.0,0.0,-0.6,0.0,9.870529174804688e-05,0.00029158592224121094,0
1.369919776916504,0.029311396181583405,0.010345804505050182,-0.41667893528938293,-0.0008301262872593463,-0.694485920909357,0.007811490814250378,-0.011527407877110409,0.0011648450911792307,0.0,0.0,-0.6,0.0,8.58306884765625e-05,0.0002684593200683594,0
1.3801562786102295,0.029233641922473907,0.010283342562615871,-0.41909119486808777,-0.0008197829653885995,-0.6944841926519129,0.008163345977226972,-0.011602296571637754,0.0011365237427380269,0.0,0.0,-0.6,0.0,9.679794311523438e-05,0.00028514862060546875,0
1.3900032043457031,0.029149247333407402,0.010219529271125793,-0.4214612543582916,-0.000807468425794855,-0.6944850443328758,0.00853444123151153,-0.011747667680536972,0.001108279751544111,0.0,0.0,-0.6,0.0,9.703636169433594e-05,0.0002739429473876953,0
1.400064468383789,0.029061105102300644,0.010152566246688366,-0.42378976941108704,-0.0007848025130122698,-0.6944904325307484,0.008934153665663512,-0.011797514758213603,0.0010799821653783499,0.0,0.0,-0.6,0.0,0.00011801719665527344,0.00043654441833496094,0
1.410111427307129,0.028875678777694702,0.01000920683145523,-0.4283261299133301,-0.0007461368997606731,-0.6945093279628514,0.009355085404233382,-0.011768726448441458,0.001045693008333114,0.0,0.0,-0.6,0.0,0.00013184547424316406,0.0004544258117675781,0
1.4202885627746582,0.02877720817923546,0.009934185072779655,-0.43056222796440125,-0.0007366851233363388,-0.6945308914646248,0.009909485080704689,-0.011926236708056254,0.0010202432320501396,0.0,0.0,-0.6,0.0,0.00014853477478027344,0.0004737377166748047,0
1.4300310611724854,0.028672942891716957,0.009856709279119968,-0.43275731801986694,-0.0007187528117128498,-0.6945595950873767,0.010407404646996085,-0.012114181839146318,0.0009926099885264582,0.0,0.0,-0.6,0.0,0.00012254714965820312,0.000438690185546875,0
1.4402246475219727,0.028565017506480217,0.009776422753930092,-0.4349091947078705,-0.0006902503370526607,-0.6946014202624362,0.010781631896513514,-0.012234335622017757,0.0009633425035965569,0.0,0.0,-0.6,0.0,0.00013875961303710938,0.000461578369140625,0
1.4500927925109863,0.028340347111225128,0.00960860587656498,-0.4390883147716522,-0.0006654893163473233,-0.6946645451297189,0.011134633746047454,-0.012310547641616446,0.0009341418658733019,0.0,0.0,-0.6,0.0,0.00013875961303710938,0.00046563148498535156,0
1.4602940082550049,0.028223255649209023,0.009520970284938812,-0.4411178231239319,-0.000654346798271493,-0.6947316585459413,0.011447490577352556,-0.01236581226163919,0.0009094995786662607,0.0,0.0,-0.6,0.0,0.00013494491577148438,0.000461578369140625,0
1.4701297283172607,0.028102822601795197,0.009429090656340122,-0.4431084096431732,-0.0006499030011496049,-0.6948014710688378,0.01183321840123522,-0.012429743235876377,0.0008889881310199483,0.0,0.0,-0.6,0.0,0.00014019012451171875,0.0004611015319824219,0
1.4801673889160156,0.02797972969710827,0.009334346279501915,-0.4450601041316986,-0.0006508853058401968,-0.6948701658655783,0.01196772947842381,-0.012412162367733823,0.0008735526880802464,0.0,0.0,-0.6,0.0,0.00011539459228515625,0.0004334449768066406,0
1.4901096820831299,0.027726829051971436,0.009140451438724995,-0.44886142015457153,-0.0006509919097284422,-0.694962701671339,0.01197418519626431,-0.012286584839551007,0.0008610112528332339,0.0,0.0,-0.6,0.0,0.00012969970703125,0.0004534721374511719,0
1.500154733657837,0.02759837731719017,0.009041381068527699,-0.45071130990982056,-0.0006480424565448814,-0.6950601060217777,0.011951530694901761,-0.012122265746324143,0.0008501133005240486,0.0,0.0,-0.6,0.0,0.0001373291015625,0.00047206878662109375,0
1.5100126266479492,0.02746744640171528,0.008940369822084904,-0.4525224268436432,-0.0006355532830432763,-0.6951645551088385,0.01211049110889711,-0.012063387351724028,0.0008372260748162776,0.0,0.0,-0.6,0.0,0.00012731552124023438,0.0004494190216064453,0
1.5202159881591797,0.027332905679941177,0.008837622590363026,-0.45429542660713196,-0.0006358967150808565,-0.6952644302072554,0.0121085848711544,-0.011963018028927068,0.0008290300495244354,0.0,0.0,-0.6,0.0,0.0001323223114013672,0.0004582405090332031,0
1.530130386352539,0.027197005227208138,0.008734269998967648,-0.4560334384441376,-0.0006204036452900494,-0.6953579602782693,0.011955258097046709,-0.011770249396473316,0.0008158410105030178,0.0,0.0,-0.6,0.0,0.0001361370086669922,0.00046753883361816406,0
1.5400652885437012,0.026930036023259163,0.008528302423655987,-0.45940110087394714,-0.0005819631679968019,-0.6954727270877578,0.011626113417383663,-0.011486465963172722,0.0007939410590084093,0.0,0.0,-0.6,0.0,9.059906005859375e-05,0.001035928726196289,0
1.5500543117523193,0.026793701574206352,0.008423910476267338,-0.461031436920166,-0.0005792912090294251,-0.69559057902034,0.011322817128752022,-0.011226251406155024,0.0007806579277150343,0.0,0.0,-0.6,0.0,9.34600830078125e-05,0.0002796649932861328,0
1.5602505207061768,0.026656316593289375,0.008318915031850338,-0.46262821555137634,-0.0005649659583379997,-0.6957017708519799,0.01112180657927291,-0.010993796789912457,0.0007629718797299551,0.0,0.0,-0.6,0.0,0.00012612342834472656,0.00045037269592285156,0
1.5700600147247314,0.026517502963542938,0.00821270328015089,-0.46421024203300476,-0.0005559235338335738,-0.6958066916483908,0.010874961121217733,-0.010751259988787624,0.0007487417577933366,0.0,0.0,-0.6,0.0,0.00013494491577148438,0.000457763671875,0
1.580038070678711,0.026234013959765434,0.008002224378287792,-0.4672729969024658,-0.0005473736061096732,-0.6959304782471898,0.010429950623907143,-0.010502989523634597,0.0007343648754242797,0.0,0.0,-0.6,0.0,9.655952453613281e-05,0.0002791881561279297,0
1.5899312496185303,0.026088541373610497,0.007898333482444286,-0.46875420212745667,-0.0005489918863338814,-0.6960550294965597,0.010024445842211729,-0.010255881343680889,0.000724959279001371,0.0,0.0,-0.6,0.0,8.821487426757812e-05,0.00026297569274902344,0
1.6002824306488037,0.025941740721464157,0.007794331293553114,-0.47020256519317627,-0.0005282386729000827,-0.6961801706150331,0.009603198835872278,-0.009971410011800151,0.0007088529563865087,0.0,0.0,-0.6,0.0,0.0001323223114013672,0.00045228004455566406,0
1.6100473403930664,0.025651179254055023,0.007586198393255472,-0.47299960255622864,-0.0005135719030094091,-0.6963321069628473,0.008849666345684586,-0.00945856294779162,0.0006944237460142863,0.0,0.0,-0.6,0.0,0.0001404285430908203,0.00047087669372558594,0
1.6200995445251465,0.025504933670163155,0.00748200248926878,-0.4743490219116211,-0.0004983089127530884,-0.6964887811369496,0.008489201809521306,-0.009109706948381138,0.0006780126881226865,0.0,0.0,-0.6,0.0,0.00013184547424316406,0.00045561790466308594,0
1.630089521408081,0.025356005877256393,0.007376120891422033,-0.47566646337509155,-0.0004819306583228851,-0.6966434175152536,0.008255583547749783,-0.008807362821484869,0.0006610767488190223,0.0,0.0,-0.6,0.0,0.0001068115234375,0.0002989768981933594,0
1.6399145126342773,0.025205332785844803,0.0072688153013587,-0.4769822359085083,-0.00047511380950470425,-0.6967914632535507,0.008012648011285603,-0.00853132181252605,0.0006468489814938622,0.0,0.0,-0.6,0.0,7.796287536621094e-05,0.0002467632293701172,0
1.6500062942504883,0.024898791685700417,0.007051767781376839,-0.4795192778110504,-0.0004602654804217864,-0.6969626414227303,0.007597773065211321,-0.008170026270836277,0.0006303735607676796,0.0,0.0,-0.6,0.0,8.7738037109375e-05,0.00026226043701171875,0
1.6603572368621826,0.02491798810660839,0.006946601439267397,-0.4813004732131958,-0.0004416069646168996,-0.6971126754537745,0.00715541404573452,-0.007778467817549475,0.0006126305015228771,0.0,0.0,-0.6,0.0,9.250640869140625e-05,0.00028061866760253906,0
1.670039415359497,0.024932987987995148,0.006841972004622221,-0.48303818702697754,-0.000436798753237704,-0.6972337451224007,0.00662633844359174,-0.00727217322156782,0.0005988509542658338,0.0,0.0,-0.6,0.0,9.560585021972656e-05,0.0002696514129638672,0
1.6801271438598633,0.02494567632675171,0.006735676899552345,-0.4847332239151001,-0.00042021374776494866,-0.6973362404115866,0.006256589659744677,-0.0067343509225797115,0.0005815986649379047,0.0,0.0,-0.6,0.0,8.96453857421875e-05,0.00026535987854003906,0
1.6901013851165771,0.024960575625300407,0.006520203780382872,-0.48799988627433777,-0.00039018302938095996,-0.6974271467548506,0.005549871892543338,-0.005901530776404002,0.0005594760027391685,0.0,0.0,-0.6,0.0,9.34600830078125e-05,0.00028896331787109375,0
1.7000646591186523,0.02496337704360485,0.0064130076207220554,-0.4895719289779663,-0.00037995398855731916,-0.6975123554749968,0.005130035096356006,-0.005221110840438217,0.0005418588793959702,0.0,0.0,-0.6,0.0,8.845329284667969e-05,0.00026416778564453125,0
1.7101759910583496,0.024962812662124634,0.006306044291704893,-0.4911164343357086,-0.0003537648577152893,-0.6975967644030039,0.004661331397274907,-0.00447777796050919,0.000518129030390532,0.0,0.0,-0.6,0.0,9.679794311523438e-05,0.0002779960632324219,0
1.7201926708221436,0.024960456416010857,0.006199182942509651,-0.49261975288391113,-0.0003222710937744054,-0.6976789388271679,0.004287840930382882,-0.0037038887209663437,0.000491847428590678,0.0,0.0,-0.6,0.0,9.775161743164062e-05,0.0003082752227783203,0
1.7300000190734863,0.024947917088866234,0.005983924493193626,-0.4955132007598877,-0.0003094060355846628,-0.6977622940553655,0.00382883199769511,-0.002788990823671242,0.00046951902398767215,0.0,0.0,-0.6,0.0,9.226799011230469e-05,0.0002772808074951172,0
1.7401187419891357,0.024936934933066368,0.005876661743968725,-0.4969049394130707,-0.0003216448549901511,-0.6978414850154504,0.003545001567323075,-0.0019543138429170565,0.00045709507902372916,0.0,0.0,-0.6,0.0,9.202957153320312e-05,0.00027942657470703125,0
1.750072956085205,0.024921929463744164,0.005769950337707996,-0.49826061725616455,-0.0003157935855470378,-0.6979151802639859,0.003315135131944997,-0.0012509205563209051,0.0004427375306341297,0.0,0.0,-0.6,0.0,8.511543273925781e-05,0.00026345252990722656,0
1.7602789402008057,0.024903515353798866,0.005664241965860128,-0.4995802342891693,-0.00028990311738023503,-0.6979876829052294,0.003159134609414484,-0.000583234087595806,0.0004236550823978389,0.0,0.0,-0.6,0.0,9.417533874511719e-05,0.00027179718017578125,0
1.7701153755187988,0.024861466139554977,0.005450017284601927,-0.5021126866340637,-0.0002861397330831548,-0.698076359072165,0.0027561055368105552,0.0002961331071162103,0.00041053981446737193,0.0,0.0,-0.6,0.0,8.988380432128906e-05,0.0002720355987548828,0
1.7800588607788086,0.024836502969264984,0.005343068856745958,-0.5033600330352783,-0.000292311326523364,-0.6981646301734771,0.0027298306684716603,0.0008823887497554197,0.00040158496134908543,0.0,0.0,-0.6,0.0,9.512901306152344e-05,0.00026988983154296875,0
1.7901155948638916,0.024807380512356758,0.0052368841134011745,-0.5045732855796814,-0.0002825550583550259,-0.6982458198286704,0.0026018235877836773,0.0014092917070239856,0.00039020181841889495,0.0,0.0,-0.6,0.0,9.226799011230469e-05,0.0002696514129638672,0
1.8000576496124268,0.024775976315140724,0.005131539888679981,-0.5057541131973267,-0.0002824225826079909,-0.6983215216786707,0.0024823147756798084,0.0019364297815215809,0.00038303384139678966,0.0,0.0,-0.6,0.0,0.0001304149627685547,0.0004520416259765625,0
1.8100306987762451,0.024708662182092667,0.004919779021292925,-0.5080181956291199,-0.00028655436491727967,-0.6984145930435448,0.0024180006500744513,0.0024625350559206224,0.0003780903677794695,0.0,0.0,-0.6,0.0,9.059906005859375e-05,0.00026345252990722656,0
1.8201377391815186,0.024674026295542717,0.00481377262622118,-0.5091013312339783,-0.000291882612735361,-0.6985114486712757,0.002374700234034521,0.0029217437873392572,0.0003758494529874511,0.0,0.0,-0.6,0.0,9.775161743164062e-05,0.00030422210693359375,0
1.8301105499267578,0.024637913331389427,0.004708845634013414,-0.5101523399353027,-0.0002900505096416505,-0.6986074664644876,0.002317637047792946,0.003342380687118507,0.00037264787838404116,0.0,0.0,-0.6,0.0,0.00012922286987304688,0.00044655799865722656,0
1.8401870727539062,0.024599891155958176,0.004605322144925594,-0.5111719965934753,-0.0002850924641945378,-0.6987020078035644,0.0022384480863662163,0.003745485275134309,0.00036888374005297395,0.0,0.0,-0.6,0.0,0.00010585784912109375,0.00028395652770996094,0
1.8499934673309326,0.024518974125385284,0.0043994588777422905,-0.5131518244743347,-0.00026781987734955117,-0.6988195270411742,0.001998657176809329,0.0042708290355285995,0.000359968520459037,0.0,0.0,-0.6,0.0,9.036064147949219e-05,0.00027632713317871094,0
1.8601956367492676,0.02447793446481228,0.004297696053981781,-0.5141101479530334,-0.0002544642545775077,-0.6989405094955556,0.0018948591032817265,0.00469113795795872,0.00035052238664576914,0.0,0.0,-0.6,0.0,8.940696716308594e-05,0.0002777576446533203,0
1.8703241348266602,0.02443518675863743,0.004196506924927235,-0.5150384306907654,-0.0002315661494476893,-0.699055750769089,0.0019027798059812692,0.005020066650175098,0.0003355091235295658,0.0,0.0,-0.6,0.0,0.0001442432403564453,0.0004639625549316406,0
1.880143165588379,0.024390747770667076,0.004096225369721651,-0.5159378051757812,-0.00022365246013069135,-0.6991651307642992,0.0018505172738008408,0.005341131972572761,0.00032398070111037654,0.0,0.0,-0.6,0.0,0.00012922286987304688,0.00045013427734375,0
1.8902182579040527,0.02429960109293461,0.003898212919011712,-0.517649233341217,-0.0002239602623750767,-0.6992903224633146,0.0016256206961952424,0.005823980217802566,0.0003148065370146336,0.0,0.0,-0.6,0.0,0.0001308917999267578,0.00044727325439453125,0
1.900238037109375,0.024253956973552704,0.0038011681754142046,-0.5184642672538757,-0.00021163040611774661,-0.6994081876112863,0.0013601384119470063,0.006261901784513321,0.00030293693563790853,0.0,0.0,-0.6,0.0,0.00013899803161621094,0.0004639625549316406,0
1.9100861549377441,0.02420765534043312,0.003707044292241335,-0.5192528963088989,-0.0002078580073927433,-0.6995206154601796,0.0011245510595793492,0.006617490902857174,0.0002941569682006685,0.0,0.0,-0.6,0.0,0.0001285076141357422,0.00044536590576171875,0
1.920137882232666,0.024159858003258705,0.003614181885495782,-0.5200138688087463,-0.0002072948519495963,-0.699635992005963,0.0010695101267327745,0.006878683971147331,0.00028671843582460057,0.0,0.0,-0.6,0.0,0.000156402587890625,0.0004839897155761719,0
1.9301848411560059,0.024058926850557327,0.003429991891607642,-0.5214655995368958,-0.00022110712789977672,-0.6997758588713718,0.0010645842044772894,0.006973930250224627,0.0002862215643712604,0.0,0.0,-0.6,0.0,9.942054748535156e-05,0.0002751350402832031,0
1.9401252269744873,0.02400589920580387,0.0033384563867002726,-0.5221511721611023,-0.00023016397543826526,-0.6999175635383824,0.0009933927023817245,0.007146530243652633,0.0002868404908579008,0.0,0.0,-0.6,0.0,8.869171142578125e-05,0.0002658367156982422,0
1.9502058029174805,0.023953361436724663,0.0032478554639965296,-0.5228108763694763,-0.00025519976330940435,-0.7000528378571308,0.0008318046356223835,0.0073049119448486315,0.00029627163057123306,0.0,0.0,-0.6,0.0,9.655952453613281e-05,0.0002703666687011719,0
1.9600396156311035,0.023900644853711128,0.003158977720886469,-0.523444414138794,-0.00026104950527568925,-0.7001895394978872,0.000729030543875036,0.007432807937738081,0.0003019828069785803,0.0,0.0,-0.6,0.0,9.322166442871094e-05,0.0002655982971191406,0
1.9700276851654053,0.0237954743206501,0.0029838131740689278,-0.5246314406394958,-0.00025060683754443794,-0.7003527862591603,0.0006672358070206375,0.007475776327162859,0.0003033666172215989,0.0,0.0,-0.6,0.0,8.797645568847656e-05,0.0002589225769042969,0
1.9801478385925293,0.02374194748699665,0.002897955710068345,-0.5251880884170532,-0.0002321892783571903,-0.7005117843407958,0.0004661832897258564,0.007544905289040648,0.0002989432778540091,0.0,0.0,-0.6,0.0,9.655952453613281e-05,0.0002853870391845703,0
1.989943027496338,0.02368772029876709,0.002814716659486294,-0.525721549987793,-0.00022551939349195103,-0.7006587585305529,0.00032728108915514595,0.007560227855252413,0.0002953782358359444,0.0,0.0,-0.6,0.0,8.463859558105469e-05,0.0002529621124267578,0
2.000042676925659,0.02363249659538269,0.0027328170835971832,-0.526236891746521,-0.00023163552865729744,-0.7007963663598097,0.00020484992603455056,0.00754987711689202,0.0002948758530379703,0.0,0.0,-0.6,0.0,9.72747802734375e-05,0.000286102294921875,0
2.0099267959594727,0.023522621020674706,0.0025743732694536448,-0.5271987915039062,-0.0002034325690553291,-0.7009546847283648,1.903128880416567e-05,0.0075297034463659394,0.0002828761445016186,0.0,0.0,-0.6,0.0,7.987022399902344e-05,0.0002503395080566406,0
2.020728588104248,0.02346707135438919,0.0024975938722491264,-0.5276466608047485,-0.00019257657810745876,-0.7011096726868832,-6.589918180430615e-05,0.007473741050987032,0.0002744294159291532,0.0,0.0,-0.6,0.0,9.632110595703125e-05,0.0002777576446533203,0
2.0301222801208496,0.0234102550894022,0.0024202512577176094,-0.5280730724334717,-0.00019663855654422017,-0.7012591291512497,2.3710758034071794e-07,0.007322658338108406,0.0002687964048548527,0.0,0.0,-0.6,0.0,9.870529174804688e-05,0.0002753734588623047,0
2.040041923522949,0.023353351280093193,0.002342368010431528,-0.5284783840179443,-0.00019433137662294185,-0.7014007758847264,3.0701281584564276e-05,0.007132747384949763,0.0002630033035080053,0.0,0.0,-0.6,0.0,0.00012946128845214844,0.0004711151123046875,0
2.0500879287719727,0.02323381043970585,0.002190147526562214,-0.5292267799377441,-0.00018308451388550533,-0.7015621666073975,0.00011541995382038604,0.0067897080478239655,0.00025478659063406483,0.0,0.0,-0.6,0.0,0.00014328956604003906,0.00047326087951660156,0
2.060526132583618,0.02321886457502842,0.0022153386380523443,-0.5301717519760132,-0.00017907112087274575,-0.7016986953261783,5.619467560090419e-05,0.006420182417262721,0.0002483781332770042,0.0,0.0,-0.6,0.0,0.00010180473327636719,0.0003046989440917969,0
2.069934129714966,0.023201078176498413,0.0022396487183868885,-0.5310825109481812,-0.00016750097216314112,-0.7018109707029172,-8.233334679950318e-05,0.0061017117531890885,0.00023892051793005214,0.0,0.0,-0.6,0.0,9.751319885253906e-05,0.0003147125244140625,0
2.0800344944000244,0.02318122424185276,0.0022632761392742395,-0.5319589972496033,-0.00015808309695571152,-0.7018991243894764,-0.0002556233677525483,0.005794281652711083,0.00022983568928086157,0.0,0.0,-0.6,0.0,0.00010824203491210938,0.0003333091735839844,0
2.089960813522339,0.02313505858182907,0.0023097803350538015,-0.5336193442344666,-0.00011593512483922862,-0.7019664701838063,-0.0005183010622482915,0.005413358610279714,0.00020754034433853063,0.0,0.0,-0.6,0.0,9.918212890625e-05,0.00028443336486816406,0
2.0999677181243896,0.023108147084712982,0.0023314415011554956,-0.5344032049179077,-0.00011301747029441958,-0.702018490288926,-0.0008803923760155026,0.005074226661118291,0.0001954631631271946,0.0,0.0,-0.6,0.0,9.059906005859375e-05,0.000274658203125,0
2.110062837600708,0.02307964861392975,0.0023533343337476254,-0.535158097743988,-0.0001228176383471667,-0.7020600957198939,-0.001299917433172367,0.004829302385892069,0.00018710784199319134,0.0,0.0,-0.6,0.0,9.489059448242188e-05,0.0002951622009277344,0
2.1207940578460693,0.023050224408507347,0.0023751973640173674,-0.5358847975730896,-0.00013585789405970872,-0.7020931810712642,-0.001698059065847188,0.004561704334013177,0.00018484656206452585,0.0,0.0,-0.6,0.0,9.012222290039062e-05,0.0002655982971191406,0
2.130126714706421,0.02298317849636078,0.0024173392448574305,-0.5372553467750549,-0.0001289530527944004,-0.7021300794223734,-0.0020446886880567793,0.004181138962390402,0.00017854143621810116,0.0,0.0,-0.6,0.0,9.560585021972656e-05,0.0002722740173339844,0
2.1402645111083984,0.02294754609465599,0.00243738922290504,-0.537921130657196,-0.0001261020929135952,-0.702164174762453,-0.002463572387891468,0.003867353554682337,0.00017447408424151766,0.0,0.0,-0.6,0.0,9.918212890625e-05,0.0002791881561279297,0
2.1499507427215576,0.02290974371135235,0.002457699738442898,-0.5385602712631226,-0.00012330313917332966,-0.7022000274336387,-0.0028058743091237182,0.0035181938895724476,0.00016979410935086522,0.0,0.0,-0.6,0.0,9.1552734375e-05,0.00026416778564453125,0
2.1601901054382324,0.02287040650844574,0.002477426780387759,-0.5391712188720703,-0.00011307949944884744,-0.7022424778864118,-0.0031723326099903893,0.003262065157472254,0.00016289868005065178,0.0,0.0,-0.6,0.0,9.202957153320312e-05,0.0002751350402832031,0
2.170823097229004,0.02278868854045868,0.0025158082135021687,-0.5403146743774414,-9.810286970777576e-05,-0.7022891027687896,-0.0035613909290819505,0.0029222704623520185,0.0001532310524309469,0.0,0.0,-0.6,0.0,0.00010752677917480469,0.00029349327087402344,0
2.180117130279541,0.022745516151189804,0.002535116858780384,-0.5408493280410767,-9.461962708859588e-05,-0.7023377011396388,-0.0040390960913982,0.002680760578620371,0.00014612776652678298,0.0,0.0,-0.6,0.0,9.918212890625e-05,0.00027751922607421875,0
2.1901259422302246,0.022702127695083618,0.002554692095145583,-0.5413589477539062,-0.00010609538046209605,-0.7023885717680194,-0.004522623323103245,0.002486423750848795,0.00014456135430849148,0.0,0.0,-0.6,0.0,0.00014543533325195312,0.0005109310150146484,0
2.19996976852417,0.02265879511833191,0.002574513666331768,-0.5418446063995361,-0.00011017551506851954,-0.7024414073839021,-0.004967670111006172,0.0023792169725280255,0.0001430570104430409,0.0,0.0,-0.6,0.0,0.00012540817260742188,0.0004699230194091797,0
2.2100656032562256,0.022568216547369957,0.0026107330340892076,-0.5427782535552979,-0.00010450437240954224,-0.7025021431127783,-0.005138824274374928,0.0021091823321313223,0.00013985556731661465,0.0,0.0,-0.6,0.0,0.00013303756713867188,0.00046443939208984375,0
2.220315456390381,0.022517545148730278,0.0026289946399629116,-0.5432249307632446,-9.475322850953912e-05,-0.7025670590172935,-0.005306443264104581,0.001714646587467077,0.00013455186290695662,0.0,0.0,-0.6,0.0,0.0001323223114013672,0.0004553794860839844,0
2.230114459991455,0.02246340550482273,0.0026491484604775906,-0.5436468720436096,-8.389091022827749e-05,-0.702631824379844,-0.005626746906879175,0.001409867228639579,0.00012750169191385398,0.0,0.0,-0.6,0.0,0.0001404285430908203,0.0004782676696777344,0
2.2402470111846924,0.022407518699765205,0.0026696890126913786,-0.5440463423728943,-7.722848122255573e-05,-0.7026963706892698,-0.005861208998774242,0.001082276293327932,0.0001206794246457421,0.0,0.0,-0.6,0.0,9.703636169433594e-05,0.00028824806213378906,0
2.250089168548584,0.022290794178843498,0.0027150397654622793,-0.5447776317596436,-9.068144613248349e-05,-0.7027777934922294,-0.0060099449807678165,0.0007229604792339339,0.00012086893309553994,0.0,0.0,-0.6,0.0,9.250640869140625e-05,0.00031280517578125,0
2.2602157592773438,0.0222308412194252,0.0027362434193491936,-0.545110285282135,-8.844101713459877e-05,-0.7028600392116002,-0.006166068193595288,0.00041557120071578725,0.00011770730663492327,0.0,0.0,-0.6,0.0,9.751319885253906e-05,0.0002868175506591797,0
2.2702019214630127,0.02217017114162445,0.002756786998361349,-0.5454233288764954,-7.968793224188982e-05,-0.7029337796149336,-0.006348073958615959,0.00016873358917480775,0.0001133846584963708,0.0,0.0,-0.6,0.0,0.00010156631469726562,0.0002951622009277344,0
2.2802600860595703,0.02210897020995617,0.0027779140509665012,-0.5457181930541992,-6.443381540316071e-05,-0.702998369192152,-0.006561956156062345,-0.00010260416557550389,0.00010504486857213821,0.0,0.0,-0.6,0.0,0.00013208389282226562,0.0004639625549316406,0
2.290113925933838,0.021980097517371178,0.0028243400156497955,-0.546282172203064,-6.66425113449778e-05,-0.7030721485916178,-0.006727150743580594,-0.0005259597928751897,0.00010144127622834485,0.0,0.0,-0.6,0.0,0.0002040863037109375,0.0006060600280761719,0
2.3002138137817383,0.021911796182394028,0.0028477732557803392,-0.5465349555015564,-7.026367237602014e-05,-0.7031490957869547,-0.006775553164750005,-0.0009419056828044315,9.861902782117662e-05,0.0,0.0,-0.6,0.0,0.00015783309936523438,0.0005314350128173828,0
2.3101396560668945,0.021840106695890427,0.0028709894977509975,-0.5467677712440491,-7.481503903676238e-05,-0.7032279378243642,-0.0068626217634765166,-0.001398310690415242,9.807674605611841e-05,0.0,0.0,-0.6,0.0,0.00014019012451171875,0.0004913806915283203,0
2.320340871810913,0.02176637016236782,0.0028946748934686184,-0.5469805598258972,-6.22070145616065e-05,-0.7033082864360634,-0.006943633853658879,-0.0018177683469886904,9.217115131765572e-05,0.0,0.0,-0.6,0.0,0.00013947486877441406,0.00041222572326660156,0
2.3301360607147217,0.02161255292594433,0.0029407921247184277,-0.5473511815071106,-5.812913773681494e-05,-0.7034025080765695,-0.006911843108095993,-0.0023435125565478996,8.838519073212655e-05,0.0,0.0,-0.6,0.0,0.00013899803161621094,0.0004901885986328125,0
2.340195894241333,0.021533610299229622,0.002965121529996395,-0.5475106239318848,-6.175553376135033e-05,-0.7034923457256866,-0.0070868636188087895,-0.002673925217444123,8.635304487793015e-05,0.0,0.0,-0.6,0.0,0.0001537799835205078,0.0005238056182861328,0
2.3502111434936523,0.02145463600754738,0.0029893687460571527,-0.5476517677307129,-7.37849336540182e-05,-0.7035872131892466,-0.00711603694461474,-0.0030094897470835024,8.882773258377666e-05,0.0,0.0,-0.6,0.0,0.0001404285430908203,0.00047016143798828125,0
