time,x,y,z,yaw,throttle,roll_rate,pitch_rate,yaw_rate,x_ref,y_ref,z_ref,yaw_ref,pred_time,nr_time,ctrl_callback_time,metadata
1.430511474609375e-06,0.03241347894072533,0.009591297246515751,0.3816347122192383,0.17543076155202922,-0.7324410216745145,0.013064131140708923,0.05379582941532135,-0.04626307636499405,0.0,0.0,-0.6,0.0,0.001191854476928711,0.18757987022399902,0.21484851837158203,Sim
0.21623563766479492,0.03241347894072533,0.009591297246515751,0.3816347122192383,0.17543076155202922,-0.7621287892278296,0.08514635264873505,0.05572456493973732,-0.08797447383403778,0.0,0.0,-0.6,0.0,0.0010700225830078125,0.006521701812744141,0.011260509490966797,NN
0.22843456268310547,0.03136063367128372,0.01167498528957367,0.3783668875694275,0.1749866039036412,-0.7830056690749504,0.10428376495838165,0.03504028171300888,-0.11554450541734695,0.0,0.0,-0.6,0.0,0.0007750988006591797,0.006086111068725586,0.010329484939575195,1x Speed
0.23956680297851562,0.031176356598734856,0.01174793392419815,0.37853366136550903,0.17497312589544808,-0.7994490777388253,0.09666041284799576,0.01771417260169983,-0.13806161284446716,0.0,0.0,-0.6,0.0,0.0004954338073730469,0.0037622451782226562,0.009921550750732422,1stOrderHold
0.2503366470336914,0.031176356598734856,0.01174793392419815,0.37853366136550903,0.17497312589544808,-0.8129334686205718,0.08191829919815063,0.0015822947025299072,-0.1639210283756256,0.0,0.0,-0.6,0.0,0.0008177757263183594,0.005328178405761719,0.009243011474609375,QuatYawError
0.26018428802490234,0.03096546232700348,0.011782397516071796,0.3788391351699829,0.17496974303832064,-0.8234146653551142,0.04894198477268219,-0.012505036778748035,-0.17890937626361847,0.0,0.0,-0.6,0.0,0.0013511180877685547,0.006105661392211914,0.01018214225769043,NoPyJoules
0.2707798480987549,0.03096546232700348,0.011782397516071796,0.3788391351699829,0.17496974303832064,-0.8312322707493619,0.013127580285072327,-0.022234123200178146,-0.1908256560564041,0.0,0.0,-0.6,0.0,0.0006449222564697266,0.0036242008209228516,0.009453773498535156,0
0.2813096046447754,0.030600830912590027,0.011762582696974277,0.379499614238739,0.17494005789587522,-0.8372528701460873,-0.012818094342947006,-0.03237242251634598,-0.1991247534751892,0.0,0.0,-0.6,0.0,0.0008418560028076172,0.005513429641723633,0.009431600570678711,0
0.2913041114807129,0.030600830912590027,0.011762582696974277,0.379499614238739,0.17494005789587522,-0.8418922930142885,-0.03180774301290512,-0.04193732887506485,-0.2051401138305664,0.0,0.0,-0.6,0.0,0.0005762577056884766,0.005721330642700195,0.009720563888549805,0
0.30184316635131836,0.03019092231988907,0.011662776581943035,0.38035207986831665,0.17498585936812097,-0.8455018315000762,-0.045768264681100845,-0.05089839547872543,-0.20953352749347687,0.0,0.0,-0.6,0.0,0.0006663799285888672,0.004894733428955078,0.011234521865844727,0
0.31377577781677246,0.03019092231988907,0.011662776581943035,0.38035207986831665,0.17498585936812097,-0.8484049574683971,-0.055346425622701645,-0.05953237786889076,-0.21474137902259827,0.0,0.0,-0.6,0.0,0.0005247592926025391,0.004208087921142578,0.008183717727661133,0
0.3224809169769287,0.02989221177995205,0.011549164541065693,0.3810732960700989,0.17499618967066446,-0.8506465596149294,-0.06201013922691345,-0.06841965019702911,-0.21856898069381714,0.0,0.0,-0.6,0.0,0.0006630420684814453,0.005484104156494141,0.010071754455566406,0
0.3330869674682617,0.02989221177995205,0.011549164541065693,0.3810732960700989,0.17499618967066446,-0.8523852529003133,-0.06704867631196976,-0.07544949650764465,-0.22116956114768982,0.0,0.0,-0.6,0.0,0.0005819797515869141,0.00554347038269043,0.01097726821899414,0
0.3450756072998047,0.029403114691376686,0.01131444238126278,0.38236507773399353,0.17502186634463926,-0.8537737999655314,-0.07076053321361542,-0.08125939220190048,-0.2229577600955963,0.0,0.0,-0.6,0.0,0.000762939453125,0.004400968551635742,0.008906126022338867,0
0.3543095588684082,0.029403114691376686,0.01131444238126278,0.38236507773399353,0.17502186634463926,-0.8550762275592534,-0.07465221732854843,-0.0944528877735138,-0.22453399002552032,0.0,0.0,-0.6,0.0,0.0007174015045166016,0.005531787872314453,0.008982181549072266,0
0.3639841079711914,0.029050450772047043,0.011112915351986885,0.38325318694114685,0.17504212077660034,-0.8561256388275802,-0.0778547152876854,-0.10283440351486206,-0.22596098482608795,0.0,0.0,-0.6,0.0,0.0007119178771972656,0.005148172378540039,0.010463714599609375,0
0.3754713535308838,0.029050450772047043,0.011112915351986885,0.38325318694114685,0.17504212077660034,-0.8570649215538738,-0.07975995540618896,-0.11577919125556946,-0.22677670419216156,0.0,0.0,-0.6,0.0,0.0008082389831542969,0.004473209381103516,0.009088516235351562,0
0.3850288391113281,0.028478778898715973,0.010756021365523338,0.3847845196723938,0.17506398508641086,-0.8578632393060499,-0.08102618157863617,-0.12506036460399628,-0.22733084857463837,0.0,0.0,-0.6,0.0,0.0005624294281005859,0.006189584732055664,0.009287834167480469,0
0.3950014114379883,0.028478778898715973,0.010756021365523338,0.3847845196723938,0.17506398508641086,-0.8585035492965424,-0.08199804276227951,-0.1313420832157135,-0.2276720404624939,0.0,0.0,-0.6,0.0,0.0005080699920654297,0.003828763961791992,0.008023977279663086,0
0.40429067611694336,0.028069576248526573,0.01047524157911539,0.38593482971191406,0.1751077195075795,-0.8593568744275764,-0.08409155905246735,-0.14204101264476776,-0.2272302806377411,0.0,0.0,-0.6,0.0,0.0010237693786621094,0.006019115447998047,0.009453058242797852,0
0.41393613815307617,0.028069576248526573,0.01047524157911539,0.38593482971191406,0.1751077195075795,-0.8600768010832957,-0.08559514582157135,-0.1491696536540985,-0.2268965244293213,0.0,0.0,-0.6,0.0,0.0004892349243164062,0.004046916961669922,0.009052515029907227,0
0.42464232444763184,0.02741812728345394,0.009994102641940117,0.3878057599067688,0.1751092014998039,-0.8607324554170422,-0.08644399791955948,-0.15431945025920868,-0.22667956352233887,0.0,0.0,-0.6,0.0,0.0008394718170166016,0.005421161651611328,0.009597063064575195,0
0.43456077575683594,0.02741812728345394,0.009994102641940117,0.3878057599067688,0.1751092014998039,-0.8612737448834906,-0.08706869930028915,-0.157631516456604,-0.22650787234306335,0.0,0.0,-0.6,0.0,0.0007221698760986328,0.006224393844604492,0.010281801223754883,0
0.44557857513427734,0.026966337114572525,0.0096353804692626,0.38912108540534973,0.1750951892355307,-0.8617544700180185,-0.08736167848110199,-0.16003328561782837,-0.22639097273349762,0.0,0.0,-0.6,0.0,0.00048422813415527344,0.003839254379272461,0.00774073600769043,0
0.4538424015045166,0.026966337114572525,0.0096353804692626,0.38912108540534973,0.1750951892355307,-0.8621461117033796,-0.08758997917175293,-0.1614936888217926,-0.22629401087760925,0.0,0.0,-0.6,0.0,0.0016140937805175781,0.008428096771240234,0.012441635131835938,0
0.4670882225036621,0.027250993996858597,0.009903154335916042,0.38847780227661133,0.17517709110838825,-0.862431552861177,-0.08786728978157043,-0.16212129592895508,-0.2262260913848877,0.0,0.0,-0.6,0.0,0.0007498264312744141,0.006238222122192383,0.010593414306640625,0
0.47812652587890625,0.027250993996858597,0.009903154335916042,0.38847780227661133,0.17517709110838825,-0.8626608800090605,-0.08807520568370819,-0.16242487728595734,-0.22616951167583466,0.0,0.0,-0.6,0.0,0.0006999969482421875,0.005295753479003906,0.01203465461730957,0
0.4913601875305176,0.02791452407836914,0.010482854209840298,0.3868706524372101,0.17523213107882482,-0.8627765031084992,-0.08857854455709457,-0.1620699167251587,-0.22609946131706238,0.0,0.0,-0.6,0.0,0.0004763603210449219,0.0031082630157470703,0.008093595504760742,0
0.49992990493774414,0.02791452407836914,0.010482854209840298,0.3868706524372101,0.17523213107882482,-0.862866801006181,-0.0889371782541275,-0.16176310181617737,-0.22604630887508392,0.0,0.0,-0.6,0.0,0.0005724430084228516,0.006566047668457031,0.010622978210449219,0
0.5113191604614258,0.028449920937418938,0.010937265120446682,0.38557490706443787,0.17522666301359838,-0.8628877119174648,-0.08940815925598145,-0.16120752692222595,-0.22597256302833557,0.0,0.0,-0.6,0.0,0.0005221366882324219,0.0037653446197509766,0.009032487869262695,0
0.521087646484375,0.028449920937418938,0.010937265120446682,0.38557490706443787,0.17522666301359838,-0.8629020055997417,-0.0897395983338356,-0.16080516576766968,-0.22591981291770935,0.0,0.0,-0.6,0.0,0.0008099079132080078,0.004106044769287109,0.008716583251953125,0
0.5303771495819092,0.028864039108157158,0.011282638646662235,0.3847145438194275,0.17526433723730395,-0.862888547059734,-0.09024586528539658,-0.16027745604515076,-0.22587811946868896,0.0,0.0,-0.6,0.0,0.0009942054748535156,0.007032632827758789,0.010600090026855469,0
0.5414481163024902,0.028864039108157158,0.011282638646662235,0.3847145438194275,0.17526433723730395,-0.8628754416676371,-0.09060019999742508,-0.1599111407995224,-0.2258492261171341,0.0,0.0,-0.6,0.0,0.0005826950073242188,0.0038857460021972656,0.008131742477416992,0
0.5509092807769775,0.029077449813485146,0.011450788006186485,0.3843667209148407,0.1752756503909803,-0.8628589954356181,-0.09091769903898239,-0.15953519940376282,-0.2258290797472,0.0,0.0,-0.6,0.0,0.0010662078857421875,0.005793333053588867,0.010221481323242188,0
0.5617878437042236,0.029077449813485146,0.011450788006186485,0.3843667209148407,0.1752756503909803,-0.8628442835315424,-0.09113942831754684,-0.1592777669429779,-0.22581535577774048,0.0,0.0,-0.6,0.0,0.0014386177062988281,0.007271766662597656,0.011539459228515625,0
0.5738410949707031,0.029243871569633484,0.011576090939342976,0.38415735960006714,0.1752795993895485,-0.8628267767182398,-0.09148230403661728,-0.15903101861476898,-0.22580142319202423,0.0,0.0,-0.6,0.0,0.0005941390991210938,0.003966808319091797,0.009230613708496094,0
0.5840516090393066,0.029243871569633484,0.011576090939342976,0.38415735960006714,0.1752795993895485,-0.8628116145996613,-0.09172149002552032,-0.1588655561208725,-0.22579216957092285,0.0,0.0,-0.6,0.0,0.001001596450805664,0.006403684616088867,0.010493040084838867,0
0.5956151485443115,0.02939097210764885,0.01168735045939684,0.3840990662574768,0.175290650583866,-0.8628024272687647,-0.09187321364879608,-0.15882153809070587,-0.22579176723957062,0.0,0.0,-0.6,0.0,0.0006468296051025391,0.006100177764892578,0.010339736938476562,0
0.6063587665557861,0.02939097210764885,0.01168735045939684,0.3840990662574768,0.175290650583866,-0.8627947818013828,-0.09197934716939926,-0.15879490971565247,-0.22579190135002136,0.0,0.0,-0.6,0.0,0.0007243156433105469,0.004069328308105469,0.00981450080871582,0
0.617199182510376,0.029437988996505737,0.011702381074428558,0.3843841552734375,0.17528942192912078,-0.8627959382624909,-0.09201192110776901,-0.1588566154241562,-0.2257969081401825,0.0,0.0,-0.6,0.0,0.0006873607635498047,0.005298614501953125,0.009319782257080078,0
0.627274751663208,0.02943442389369011,0.011687928810715675,0.3845502734184265,0.17528277989573413,-0.8628050614074744,-0.09206805378198624,-0.1588728278875351,-0.2258007526397705,0.0,0.0,-0.6,0.0,0.000782012939453125,0.0067539215087890625,0.011248111724853516,0
0.6390008926391602,0.02943442389369011,0.011687928810715675,0.3845502734184265,0.17528277989573413,-0.8628122891904686,-0.09210776537656784,-0.15887944400310516,-0.22580310702323914,0.0,0.0,-0.6,0.0,0.0006740093231201172,0.005108833312988281,0.010557889938354492,0
0.6502714157104492,0.02936808206140995,0.011591087095439434,0.38514283299446106,0.17532028973302033,-0.862828607720805,-0.0921052098274231,-0.15886695683002472,-0.2258257418870926,0.0,0.0,-0.6,0.0,0.0007472038269042969,0.0055751800537109375,0.009376287460327148,0
0.6601243019104004,0.02936808206140995,0.011591087095439434,0.38514283299446106,0.17532028973302033,-0.8628414246422692,-0.09210409969091415,-0.1588505208492279,-0.22584111988544464,0.0,0.0,-0.6,0.0,0.0005640983581542969,0.005654096603393555,0.009898662567138672,0
0.6707208156585693,0.029225490987300873,0.011418228968977928,0.3859650790691376,0.1753452645123359,-0.8628736428745514,-0.09218472987413406,-0.15900813043117523,-0.22587373852729797,0.0,0.0,-0.6,0.0,0.0009369850158691406,0.005686521530151367,0.010731220245361328,0
0.681999683380127,0.029225490987300873,0.011418228968977928,0.3859650790691376,0.1753452645123359,-0.8628996608078349,-0.09224288165569305,-0.15910328924655914,-0.22589567303657532,0.0,0.0,-0.6,0.0,0.0005903244018554688,0.005707979202270508,0.008735418319702148,0
0.6916077136993408,0.02908726967871189,0.011263437569141388,0.386667400598526,0.1753563198406484,-0.862941384411209,-0.09227650612592697,-0.15924417972564697,-0.22592522203922272,0.0,0.0,-0.6,0.0,0.0005624294281005859,0.006068229675292969,0.009796380996704102,0
0.70192551612854,0.02908726967871189,0.011263437569141388,0.386667400598526,0.1753563198406484,-0.8629749482900368,-0.0923023670911789,-0.15932293236255646,-0.22594469785690308,0.0,0.0,-0.6,0.0,0.0007021427154541016,0.005332231521606445,0.01009058952331543,0
0.7132902145385742,0.02883080579340458,0.010976450517773628,0.38789746165275574,0.17535119006129885,-0.8630349428463502,-0.09236060827970505,-0.1594817191362381,-0.22597289085388184,0.0,0.0,-0.6,0.0,0.0007355213165283203,0.005207538604736328,0.009443283081054688,0
0.7232723236083984,0.02883080579340458,0.010976450517773628,0.38789746165275574,0.17535119006129885,-0.8630830514401122,-0.09240439534187317,-0.15956373512744904,-0.22599069774150848,0.0,0.0,-0.6,0.0,0.0005645751953125,0.005903720855712891,0.011167049407958984,0
0.7353639602661133,0.02862694300711155,0.010749710723757744,0.3887990415096283,0.17535575676395365,-0.8631523197834962,-0.09236808866262436,-0.15967458486557007,-0.22602105140686035,0.0,0.0,-0.6,0.0,0.0005762577056884766,0.004462480545043945,0.00952601432800293,0
0.745802640914917,0.02862694300711155,0.010749710723757744,0.3887990415096283,0.17535575676395365,-0.8632077116422784,-0.09234585613012314,-0.15971827507019043,-0.22604019939899445,0.0,0.0,-0.6,0.0,0.0005984306335449219,0.005508899688720703,0.010094642639160156,0
0.7567620277404785,0.028135089203715324,0.010204190388321877,0.39091017842292786,0.17532758868385995,-0.8633029140509135,-0.09205672889947891,-0.1599835455417633,-0.22607532143592834,0.0,0.0,-0.6,0.0,0.0009212493896484375,0.0054852962493896484,0.009284734725952148,0
0.7664721012115479,0.028135089203715324,0.010204190388321877,0.39091017842292786,0.17532758868385995,-0.8633797434711696,-0.09185878187417984,-0.16012442111968994,-0.22609694302082062,0.0,0.0,-0.6,0.0,0.0008594989776611328,0.005197763442993164,0.010933876037597656,0
0.7782127857208252,0.028135089203715324,0.010204190388321877,0.39091017842292786,0.17532758868385995,-0.8634414466212131,-0.0917239785194397,-0.1601862907409668,-0.22610948979854584,0.0,0.0,-0.6,0.0,0.0007719993591308594,0.004810810089111328,0.010324239730834961,0
0.7904829978942871,0.027530264109373093,0.009550388902425766,0.3932778537273407,0.17536881102537447,-0.8635615029365119,-0.0915069654583931,-0.16071218252182007,-0.2261761575937271,0.0,0.0,-0.6,0.0,0.0026111602783203125,0.009169816970825195,0.02553558349609375,0
0.8168988227844238,0.027530264109373093,0.009550388902425766,0.3932778537273407,0.17536881102537447,-0.8636588853392136,-0.09136105328798294,-0.16102443635463715,-0.22621889412403107,0.0,0.0,-0.6,0.0,0.0011446475982666016,0.009293317794799805,0.0157473087310791,0
0.8338232040405273,0.026645133271813393,0.00859516765922308,0.39661335945129395,0.17535361601989527,-0.8638476844455707,-0.09092774987220764,-0.1618354171514511,-0.2263094037771225,0.0,0.0,-0.6,0.0,0.0008175373077392578,0.010516166687011719,0.015941858291625977,0
0.8503754138946533,0.026645133271813393,0.00859516765922308,0.39661335945129395,0.17535361601989527,-0.8640008662727153,-0.09063383936882019,-0.1623149961233139,-0.22636668384075165,0.0,0.0,-0.6,0.0,0.0008883476257324219,0.008318185806274414,0.014121770858764648,0
0.8654134273529053,0.026050550863146782,0.007942099124193192,0.39880040287971497,0.1753564223751224,-0.8641889896216237,-0.0900966078042984,-0.16303260624408722,-0.2264460027217865,0.0,0.0,-0.6,0.0,0.0009868144989013672,0.00851130485534668,0.01459193229675293,0
0.8806056976318359,0.026050550863146782,0.007942099124193192,0.39880040287971497,0.1753564223751224,-0.8643414763315785,-0.08972955495119095,-0.16344688832759857,-0.22649574279785156,0.0,0.0,-0.6,0.0,0.0008661746978759766,0.006109952926635742,0.01165318489074707,0
0.8927750587463379,0.02687583677470684,0.00908014364540577,0.39617833495140076,0.17529218073685152,-0.8643721375839931,-0.08988411724567413,-0.16300183534622192,-0.22644223272800446,0.0,0.0,-0.6,0.0,0.0004887580871582031,0.0036144256591796875,0.006856203079223633,0
0.9000632762908936,0.02687583677470684,0.00908014364540577,0.39617833495140076,0.17529218073685152,-0.8643948763206835,-0.08999419957399368,-0.16267266869544983,-0.22640348970890045,0.0,0.0,-0.6,0.0,0.0008423328399658203,0.0063343048095703125,0.011852502822875977,0
0.9124414920806885,0.027352431789040565,0.00976725947111845,0.39477548003196716,0.17525562714726584,-0.8643708867777198,-0.09050038456916809,-0.16189484298229218,-0.22632819414138794,0.0,0.0,-0.6,0.0,0.0005481243133544922,0.00473332405090332,0.010339736938476562,0
0.923478364944458,0.027352431789040565,0.00976725947111845,0.39477548003196716,0.17525562714726584,-0.8643485323537979,-0.09085410088300705,-0.1613580584526062,-0.2262759506702423,0.0,0.0,-0.6,0.0,0.0006175041198730469,0.00471043586730957,0.008471488952636719,0
0.9326145648956299,0.027607765048742294,0.010155530646443367,0.39405301213264465,0.17525968528199165,-0.8643008711378636,-0.09131371229887009,-0.1607467532157898,-0.2262216955423355,0.0,0.0,-0.6,0.0,0.001195669174194336,0.006779193878173828,0.010837316513061523,0
0.9439332485198975,0.027607765048742294,0.010155530646443367,0.39405301213264465,0.17525968528199165,-0.8642603284030403,-0.09163346141576767,-0.16033896803855896,-0.22618511319160461,0.0,0.0,-0.6,0.0,0.0005285739898681641,0.004584550857543945,0.010951757431030273,0
0.9557285308837891,0.027895484119653702,0.010638860054314137,0.39326637983322144,0.1752087058278683,-0.8641947636381546,-0.09211625903844833,-0.15994438529014587,-0.22611917555332184,0.0,0.0,-0.6,0.0,0.000537872314453125,0.0036885738372802734,0.006633281707763672,0
0.962867259979248,0.027895484119653702,0.010638860054314137,0.39326637983322144,0.1752087058278683,-0.8641409035658034,-0.09245140850543976,-0.15969771146774292,-0.22607506811618805,0.0,0.0,-0.6,0.0,0.0007393360137939453,0.006162405014038086,0.010917901992797852,0
0.9744791984558105,0.028074044734239578,0.011011327616870403,0.39286503195762634,0.17523095818171305,-0.864074560801174,-0.09296098351478577,-0.15949073433876038,-0.22603890299797058,0.0,0.0,-0.6,0.0,0.0006589889526367188,0.0034139156341552734,0.007875442504882812,0
0.9835193157196045,0.028074044734239578,0.011011327616870403,0.39286503195762634,0.17523095818171305,-0.8640206619985019,-0.09331519156694412,-0.15937630832195282,-0.22601552307605743,0.0,0.0,-0.6,0.0,0.0007319450378417969,0.004778861999511719,0.00877690315246582,0
0.9925906658172607,0.028134942054748535,0.01120124850422144,0.39279502630233765,0.1752146339512454,-0.8639708029504786,-0.0936630517244339,-0.15923044085502625,-0.2259894758462906,0.0,0.0,-0.6,0.0,0.0005352497100830078,0.0039250850677490234,0.00888681411743164,0
1.00211501121521,0.028134942054748535,0.01120124850422144,0.39279502630233765,0.1752146339512454,-0.8639303427350439,-0.09390377253293991,-0.15915171802043915,-0.22597311437129974,0.0,0.0,-0.6,0.0,0.0007383823394775391,0.0052073001861572266,0.008151769638061523,0
1.0109503269195557,0.028155140578746796,0.011346104554831982,0.39281439781188965,0.17519972842408785,-0.8638986407732583,-0.09414521604776382,-0.1590912640094757,-0.22595562040805817,0.0,0.0,-0.6,0.0,0.0006210803985595703,0.005429267883300781,0.009989500045776367,0
1.0216341018676758,0.028155140578746796,0.011346104554831982,0.39281439781188965,0.17519972842408785,-0.863873066677583,-0.09431269764900208,-0.1590639352798462,-0.22594451904296875,0.0,0.0,-0.6,0.0,0.0005564689636230469,0.003706693649291992,0.00946354866027832,0
1.0323481559753418,0.02812027744948864,0.011485863476991653,0.3931201994419098,0.1752433252643156,-0.8638623170140634,-0.09453678131103516,-0.15901482105255127,-0.22595691680908203,0.0,0.0,-0.6,0.0,0.000545501708984375,0.00475001335144043,0.009679079055786133,0
1.0427281856536865,0.02812027744948864,0.011485863476991653,0.3931201994419098,0.1752433252643156,-0.863853300040617,-0.09469322115182877,-0.15898539125919342,-0.22596603631973267,0.0,0.0,-0.6,0.0,0.0007843971252441406,0.005972146987915039,0.01006627082824707,0
1.0534279346466064,0.028052818030118942,0.011526535265147686,0.3934940695762634,0.17523369020430193,-0.8638503157569956,-0.09482963383197784,-0.1589013636112213,-0.2259715497493744,0.0,0.0,-0.6,0.0,0.0005898475646972656,0.004107475280761719,0.008502483367919922,0
1.0629470348358154,0.028052818030118942,0.011526535265147686,0.3934940695762634,0.17523369020430193,-0.8638474598210955,-0.09492519497871399,-0.15884359180927277,-0.22597558796405792,0.0,0.0,-0.6,0.0,0.0011599063873291016,0.0051348209381103516,0.010676860809326172,0
1.0743894577026367,0.027893535792827606,0.011516249738633633,0.3942543864250183,0.17524265818929163,-0.8638692481539808,-0.09515029191970825,-0.15865980088710785,-0.22599200904369354,0.0,0.0,-0.6,0.0,0.0006854534149169922,0.005389213562011719,0.0093994140625,0
1.0842366218566895,0.027893535792827606,0.011516249738633633,0.3942543864250183,0.17524265818929163,-0.8638856131497168,-0.09530942887067795,-0.15851880609989166,-0.22600272297859192,0.0,0.0,-0.6,0.0,0.0005557537078857422,0.0054814815521240234,0.009535551071166992,0
1.095200777053833,0.02774924226105213,0.011464529670774937,0.39486050605773926,0.1752408682656292,-0.8639079140247296,-0.09539615362882614,-0.15854591131210327,-0.22601649165153503,0.0,0.0,-0.6,0.0,0.0008656978607177734,0.005190372467041016,0.009840965270996094,0
1.1052722930908203,0.02774924226105213,0.011464529670774937,0.39486050605773926,0.1752408682656292,-0.863925593923889,-0.09545815736055374,-0.15855392813682556,-0.22602537274360657,0.0,0.0,-0.6,0.0,0.0006439685821533203,0.004952669143676758,0.009790897369384766,0
1.115823745727539,0.0274738110601902,0.011319423094391823,0.39598649740219116,0.17520450219907327,-0.8639699045658443,-0.09551595151424408,-0.15868130326271057,-0.22603470087051392,0.0,0.0,-0.6,0.0,0.0005211830139160156,0.0045087337493896484,0.00742340087890625,0
1.123828411102295,0.027368851006031036,0.011254441924393177,0.3964177072048187,0.1751950098839814,-0.8640173894751572,-0.09554306417703629,-0.15874259173870087,-0.22604259848594666,0.0,0.0,-0.6,0.0,0.0005438327789306641,0.0062408447265625,0.010432004928588867,0
1.1348917484283447,0.027368851006031036,0.011254441924393177,0.3964177072048187,0.1751950098839814,-0.8640553436535319,-0.09556469321250916,-0.15876269340515137,-0.22604642808437347,0.0,0.0,-0.6,0.0,0.0006458759307861328,0.00446009635925293,0.00976872444152832,0
1.145756483078003,0.02701762691140175,0.011015125550329685,0.3978365659713745,0.17514739905810828,-0.8641342309969401,-0.09560111910104752,-0.1589447408914566,-0.2260555475950241,0.0,0.0,-0.6,0.0,0.0005905628204345703,0.004660129547119141,0.009292125701904297,0
1.1554656028747559,0.02701762691140175,0.011015125550329685,0.3978365659713745,0.17514739905810828,-0.8641975544005436,-0.09563041478395462,-0.15903426706790924,-0.2260592132806778,0.0,0.0,-0.6,0.0,0.00045990943908691406,0.0055277347564697266,0.009965181350708008,0
1.1661853790283203,0.026746831834316254,0.010821002535521984,0.3988693952560425,0.17511780546496608,-0.8642842244437707,-0.095582976937294,-0.1591988503932953,-0.22606973350048065,0.0,0.0,-0.6,0.0,0.0007348060607910156,0.005143642425537109,0.010347366333007812,0
1.177156925201416,0.026746831834316254,0.010821002535521984,0.3988693952560425,0.17511780546496608,-0.8643537281193109,-0.09555404633283615,-0.15927237272262573,-0.22607436776161194,0.0,0.0,-0.6,0.0,0.0005979537963867188,0.003696441650390625,0.007585287094116211,0
1.185483694076538,0.026287604123353958,0.010471741668879986,0.40060892701148987,0.17510773917352956,-0.864462672450823,-0.09544553607702255,-0.15958081185817719,-0.22610343992710114,0.0,0.0,-0.6,0.0,0.0005583763122558594,0.005456686019897461,0.010153770446777344,0
1.2452826499938965,0.026287604123353958,0.010471741668879986,0.40060892701148987,0.17510773917352956,-0.8645504412291855,-0.09537490457296371,-0.15974506735801697,-0.2261202484369278,0.0,0.0,-0.6,0.0,0.0006201267242431641,0.004831552505493164,0.00935673713684082,0
1.256084680557251,0.024548528715968132,0.009071405977010727,0.4066883325576782,0.17507717095074113,-0.8647980239516286,-0.094827800989151,-0.16132807731628418,-0.22623252868652344,0.0,0.0,-0.6,0.0,0.0007772445678710938,0.006334781646728516,0.009754419326782227,0
1.266249656677246,0.024548528715968132,0.009071405977010727,0.4066883325576782,0.17507717095074113,-0.865001057691734,-0.09445628523826599,-0.16232341527938843,-0.22630374133586884,0.0,0.0,-0.6,0.0,0.0006825923919677734,0.005431175231933594,0.011178255081176758,0
1.2780678272247314,0.025750771164894104,0.01027621515095234,0.4041074514389038,0.17510417035927217,-0.8650672733201541,-0.09466224908828735,-0.161920428276062,-0.22628983855247498,0.0,0.0,-0.6,0.0,0.0005853176116943359,0.003682374954223633,0.008517265319824219,0
1.28765869140625,0.025750771164894104,0.01027621515095234,0.4041074514389038,0.17510417035927217,-0.8651181979637136,-0.09480989724397659,-0.16160354018211365,-0.2262778878211975,0.0,0.0,-0.6,0.0,0.0010597705841064453,0.005870819091796875,0.009341955184936523,0
1.2972745895385742,0.025750771164894104,0.01027621515095234,0.4041074514389038,0.17510417035927217,-0.8651573911425786,-0.09491616487503052,-0.16135470569133759,-0.22626763582229614,0.0,0.0,-0.6,0.0,0.0004878044128417969,0.005095481872558594,0.00968027114868164,0
1.3077664375305176,0.026461545377969742,0.010985417291522026,0.40260249376296997,0.1751117452006148,-0.8651418166092562,-0.09520285576581955,-0.16074126958847046,-0.22623059153556824,0.0,0.0,-0.6,0.0,0.0007216930389404297,0.004106998443603516,0.007580280303955078,0
1.3161015510559082,0.027113260701298714,0.011627313680946827,0.40132269263267517,0.1750968564775931,-0.8650788109173535,-0.09578308463096619,-0.15964636206626892,-0.22616232931613922,0.0,0.0,-0.6,0.0,0.001138448715209961,0.006375312805175781,0.009977579116821289,0
1.3265314102172852,0.027418509125709534,0.011925810016691685,0.4007318913936615,0.17507018960914167,-0.8648097570808367,-0.09610267728567123,-0.15803532302379608,-0.22599971294403076,0.0,0.0,-0.6,0.0,0.0006735324859619141,0.003700733184814453,0.008876800537109375,0
1.3362443447113037,0.027418509125709534,0.011925810016691685,0.4007318913936615,0.17507018960914167,-0.8645899778881373,-0.09631364047527313,-0.15703092515468597,-0.22589406371116638,0.0,0.0,-0.6,0.0,0.0008094310760498047,0.003858327865600586,0.007037639617919922,0
1.3436517715454102,0.028274334967136383,0.012702577747404575,0.3982435464859009,0.17430487358855015,-0.8626341809745327,-0.0933803841471672,-0.15005896985530853,-0.22469750046730042,0.0,0.0,-0.6,0.0,0.0005362033843994141,0.004103422164916992,0.00971531867980957,0
1.3541324138641357,0.028274334967136383,0.012702577747404575,0.3982435464859009,0.17430487358855015,-0.8610520712093662,-0.0912298709154129,-0.1460808515548706,-0.2239217907190323,0.0,0.0,-0.6,0.0,0.0007257461547851562,0.005155324935913086,0.008231878280639648,0
1.3632347583770752,0.02880518138408661,0.013116196729242802,0.39563238620758057,0.17319895105288927,-0.8583068018453655,-0.0860973447561264,-0.13751742243766785,-0.22238926589488983,0.0,0.0,-0.6,0.0,0.0006368160247802734,0.006360292434692383,0.010320425033569336,0
1.3740198612213135,0.02880518138408661,0.013116196729242802,0.39563238620758057,0.17319895105288927,-0.8560831680036662,-0.08233517408370972,-0.13271911442279816,-0.2213905155658722,0.0,0.0,-0.6,0.0,0.0006921291351318359,0.003478527069091797,0.00782918930053711,0
1.3837308883666992,0.029549075290560722,0.013585724867880344,0.39008828997612,0.17078043653353403,-0.8519863889369745,-0.07329793274402618,-0.11984068155288696,-0.2188318818807602,0.0,0.0,-0.6,0.0,0.000993490219116211,0.006196498870849609,0.009374141693115234,0
1.393441915512085,0.029549075290560722,0.013585724867880344,0.39008828997612,0.17078043653353403,-0.8486622515255308,-0.06672051548957825,-0.11259938031435013,-0.21715015172958374,0.0,0.0,-0.6,0.0,0.0006062984466552734,0.005645275115966797,0.010168313980102539,0
1.4042632579803467,0.030021261423826218,0.01379843708127737,0.38528186082839966,0.16872458457649775,-0.8444464691641957,-0.0578264445066452,-0.1021360531449318,-0.214655339717865,0.0,0.0,-0.6,0.0,0.0005450248718261719,0.005019426345825195,0.008850574493408203,0
1.4141910076141357,0.030021261423826218,0.01379843708127737,0.38528186082839966,0.16872458457649775,-0.8410499789706112,-0.05153654143214226,-0.09699010848999023,-0.21306422352790833,0.0,0.0,-0.6,0.0,0.0009255409240722656,0.005719423294067383,0.010565757751464844,0
1.4250118732452393,0.03072100505232811,0.013964217156171799,0.376357764005661,0.16507997393562662,-0.8359200547615004,-0.039872050285339355,-0.08251781016588211,-0.209504634141922,0.0,0.0,-0.6,0.0,0.0005726814270019531,0.0057489871978759766,0.010013341903686523,0
1.435640811920166,0.03072100505232811,0.013964217156171799,0.376357764005661,0.16507997393562662,-0.8314683345710572,-0.027252323925495148,-0.06101883202791214,-0.20789602398872375,0.0,0.0,-0.6,0.0,0.0006158351898193359,0.0047228336334228516,0.009309530258178711,0
1.447106122970581,0.0311929602175951,0.013967743143439293,0.3693544864654541,0.16235635448066188,-0.8262913542268774,-0.014464851468801498,-0.03849247097969055,-0.20467427372932434,0.0,0.0,-0.6,0.0,0.0008516311645507812,0.005568027496337891,0.009913921356201172,0
1.4573044776916504,0.0311929602175951,0.013967743143439293,0.3693544864654541,0.16235635448066188,-0.8222546258935914,-0.003436839208006859,-0.023635966703295708,-0.20307056605815887,0.0,0.0,-0.6,0.0,0.0005843639373779297,0.006064653396606445,0.010216712951660156,0
1.4682822227478027,0.03219946473836899,0.013715395703911781,0.35295167565345764,0.15643628709291266,-0.81590766278285,0.011840945109724998,-3.2709911465644836e-05,-0.19821330904960632,0.0,0.0,-0.6,0.0,0.0007555484771728516,0.00445556640625,0.007912635803222656,0
1.4766018390655518,0.03219946473836899,0.013715395703911781,0.35295167565345764,0.15643628709291266,-0.8108208634148121,0.02373078465461731,0.016848253086209297,-0.1938159167766571,0.0,0.0,-0.6,0.0,0.0007967948913574219,0.0068166255950927734,0.01156163215637207,0
1.4886882305145264,0.03301803767681122,0.013310842216014862,0.33858636021614075,0.1517552868151212,-0.8046106070344909,0.038707368075847626,0.0369010791182518,-0.18932028114795685,0.0,0.0,-0.6,0.0,0.0005424022674560547,0.004529237747192383,0.009734869003295898,0
1.4992718696594238,0.03301803767681122,0.013310842216014862,0.33858636021614075,0.1517552868151212,-0.7996036568198261,0.050098568201065063,0.056630246341228485,-0.1852933019399643,0.0,0.0,-0.6,0.0,0.0005819797515869141,0.004415273666381836,0.007644176483154297,0
1.509944200515747,0.033609967678785324,0.0129327904433012,0.3281692862510681,0.14854725578606967,-0.7942148182262886,0.062362898141145706,0.07676186412572861,-0.18091244995594025,0.0,0.0,-0.6,0.0,0.0013277530670166016,0.007097721099853516,0.011225461959838867,0
1.5218017101287842,0.033609967678785324,0.0129327904433012,0.3281692862510681,0.14854725578606967,-0.7899157252209786,0.07067782431840897,0.09357666969299316,-0.17736750841140747,0.0,0.0,-0.6,0.0,0.0014579296112060547,0.00701594352722168,0.010701894760131836,0
1.532891035079956,0.034258730709552765,0.012465670704841614,0.31713223457336426,0.14530039528502736,-0.7851638118244056,0.07732226699590683,0.11411192268133163,-0.1744990348815918,0.0,0.0,-0.6,0.0,0.00045228004455566406,0.0036509037017822266,0.008425712585449219,0
1.5423738956451416,0.034258730709552765,0.012465670704841614,0.31713223457336426,0.14530039528502736,-0.7814059470858381,0.08160400390625,0.13116055727005005,-0.1724402755498886,0.0,0.0,-0.6,0.0,0.0012955665588378906,0.005349636077880859,0.009209156036376953,0
1.5520684719085693,0.03533662110567093,0.011609270237386227,0.29948416352272034,0.14045998093712037,-0.7764522336257041,0.09666518121957779,0.14953896403312683,-0.16883544623851776,0.0,0.0,-0.6,0.0,0.0009472370147705078,0.006394147872924805,0.011765480041503906,0
1.5643830299377441,0.03533662110567093,0.011609270237386227,0.29948416352272034,0.14045998093712037,-0.7725408276674797,0.109005406498909,0.16509971022605896,-0.1660834103822708,0.0,0.0,-0.6,0.0,0.0009377002716064453,0.0062713623046875,0.013504266738891602,0
1.5789377689361572,0.0369747020304203,0.010203397832810879,0.27417823672294617,0.13402438935874528,-0.7671195756565921,0.1200668141245842,0.18178656697273254,-0.1620556265115738,0.0,0.0,-0.6,0.0,0.0009598731994628906,0.007008552551269531,0.012335777282714844,0
1.5932464599609375,0.0369747020304203,0.010203397832810879,0.27417823672294617,0.13402438935874528,-0.7629607665869068,0.13515551388263702,0.19365955889225006,-0.158220574259758,0.0,0.0,-0.6,0.0,0.0010647773742675781,0.005962848663330078,0.010426521301269531,0
1.6044323444366455,0.03787468746304512,0.009384263306856155,0.2609417736530304,0.13087205304927282,-0.7586208177334918,0.14790520071983337,0.2044943869113922,-0.154375821352005,0.0,0.0,-0.6,0.0,0.0008969306945800781,0.007535696029663086,0.011955022811889648,0
1.6167619228363037,0.03787468746304512,0.009384263306856155,0.2609417736530304,0.13087205304927282,-0.7551577168354912,0.15892206132411957,0.2152758091688156,-0.1513594090938568,0.0,0.0,-0.6,0.0,0.0006084442138671875,0.0050923824310302734,0.01012277603149414,0
1.627737045288086,0.03932632505893707,0.008022669702768326,0.24044331908226013,0.1262656522403793,-0.7509327064294863,0.16827598214149475,0.22421684861183167,-0.14771005511283875,0.0,0.0,-0.6,0.0,0.0004963874816894531,0.003925323486328125,0.0077250003814697266,0
1.6359119415283203,0.03932632505893707,0.008022669702768326,0.24044331908226013,0.1262656522403793,-0.7475872404601178,0.1775849610567093,0.23234470188617706,-0.1448642462491989,0.0,0.0,-0.6,0.0,0.000484466552734375,0.006190061569213867,0.012182235717773438,0
1.648672342300415,0.041442934423685074,0.005994216073304415,0.21209047734737396,0.12028749256044424,-0.7431090199968584,0.18397502601146698,0.236258402466774,-0.14025431871414185,0.0,0.0,-0.6,0.0,0.0005517005920410156,0.005058765411376953,0.009534835815429688,0
1.6594877243041992,0.041442934423685074,0.005994216073304415,0.21209047734737396,0.12028749256044424,-0.7395582307882138,0.19100430607795715,0.24102717638015747,-0.13678668439388275,0.0,0.0,-0.6,0.0,0.0006477832794189453,0.004430294036865234,0.008690357208251953,0
1.668907880783081,0.04264222830533981,0.005974023602902889,0.19667786359786987,0.11738254167809123,-0.7359029938474033,0.19517678022384644,0.24351420998573303,-0.13316884636878967,0.0,0.0,-0.6,0.0,0.0009140968322753906,0.006909608840942383,0.00994110107421875,0
1.6793100833892822,0.04264222830533981,0.005974023602902889,0.19667786359786987,0.11738254167809123,-0.7328854830283886,0.20216146111488342,0.24367794394493103,-0.13147862255573273,0.0,0.0,-0.6,0.0,0.0006275177001953125,0.004494905471801758,0.009407997131347656,0
1.6899359226226807,0.04382006451487541,0.005823020823299885,0.1733202189207077,0.11341517548149807,-0.7293409244758652,0.2028532326221466,0.24027560651302338,-0.12900598347187042,0.0,0.0,-0.6,0.0,0.0013914108276367188,0.005304813385009766,0.00870060920715332,0
1.6995348930358887,0.0441158264875412,0.005740703083574772,0.1654704511165619,0.11231504251826531,-0.7261616171530477,0.20373857021331787,0.2369394451379776,-0.12684576213359833,0.0,0.0,-0.6,0.0,0.0005404949188232422,0.006754159927368164,0.010938882827758789,0
1.7109301090240479,0.0441158264875412,0.005740703083574772,0.1654704511165619,0.11231504251826531,-0.7236300513417208,0.2067420780658722,0.2353881597518921,-0.1253255158662796,0.0,0.0,-0.6,0.0,0.0005812644958496094,0.004271268844604492,0.009953022003173828,0
1.721890926361084,0.044726401567459106,0.005527782253921032,0.14974401891231537,0.11019121347019614,-0.7209345642106844,0.2066771537065506,0.23035301268100739,-0.12348058074712753,0.0,0.0,-0.6,0.0,0.0009324550628662109,0.0039746761322021484,0.007139921188354492,0
1.7293972969055176,0.044726401567459106,0.005527782253921032,0.14974401891231537,0.11019121347019614,-0.7187808440715796,0.2088511437177658,0.22741740942001343,-0.12219143658876419,0.0,0.0,-0.6,0.0,0.0005395412445068359,0.005656242370605469,0.011055231094360352,0
1.7410428524017334,0.045669637620449066,0.005119333043694496,0.1261359453201294,0.1071733286450761,-0.7162040077971058,0.20365731418132782,0.21850523352622986,-0.12013553082942963,0.0,0.0,-0.6,0.0,0.0005075931549072266,0.003473520278930664,0.00701594352722168,0
1.7495417594909668,0.04598672688007355,0.004963815677911043,0.11827746033668518,0.10618193165676446,-0.7138725629610443,0.19913533329963684,0.21005846560001373,-0.11822863668203354,0.0,0.0,-0.6,0.0,0.0016758441925048828,0.0066623687744140625,0.010099649429321289,0
1.7599833011627197,0.04598672688007355,0.004963815677911043,0.11827746033668518,0.10618193165676446,-0.7119939172524332,0.19783657789230347,0.2046768218278885,-0.11687491089105606,0.0,0.0,-0.6,0.0,0.0005517005920410156,0.005402088165283203,0.011043787002563477,0
1.771860122680664,0.04661041498184204,0.004630573093891144,0.10256511718034744,0.1042535480352201,-0.7101559683986943,0.19252394139766693,0.20148199796676636,-0.11612151563167572,0.0,0.0,-0.6,0.0,0.0005254745483398438,0.0037539005279541016,0.007796525955200195,0
1.7802374362945557,0.04661041498184204,0.004630573093891144,0.10256511718034744,0.1042535480352201,-0.7087073653021573,0.1886235624551773,0.20378375053405762,-0.11558032780885696,0.0,0.0,-0.6,0.0,0.0005791187286376953,0.0053501129150390625,0.015556097030639648,0
1.7981646060943604,0.04750515893101692,0.004094432108104229,0.079094797372818,0.10155700745742059,-0.7068430464293615,0.17649003863334656,0.19695399701595306,-0.11404068768024445,0.0,0.0,-0.6,0.0,0.0014584064483642578,0.011706352233886719,0.021019935607910156,0
1.820124864578247,0.048577096313238144,0.003367275930941105,0.04818131402134895,0.09822020775509469,-0.704543276934995,0.15481950342655182,0.18030376732349396,-0.11153779178857803,0.0,0.0,-0.6,0.0,0.0007545948028564453,0.006445169448852539,0.01466226577758789,0
1.8357477188110352,0.048577096313238144,0.003367275930941105,0.04818131402134895,0.09822020775509469,-0.7025216150971,0.13323993980884552,0.16678538918495178,-0.1109241172671318,0.0,0.0,-0.6,0.0,0.0008883476257324219,0.0063533782958984375,0.014436721801757812,0
1.8510806560516357,0.04945648834109306,0.002674032934010029,0.017666349187493324,0.0951123492569633,-0.700232528352201,0.10467264801263809,0.14174407720565796,-0.1092807874083519,0.0,0.0,-0.6,0.0,0.0006871223449707031,0.004495143890380859,0.010435819625854492,0
1.8621420860290527,0.04945648834109306,0.002674032934010029,0.017666349187493324,0.0951123492569633,-0.6984082353613179,0.08630151301622391,0.1250581443309784,-0.10817033052444458,0.0,0.0,-0.6,0.0,0.0012278556823730469,0.006006479263305664,0.010628461837768555,0
1.8732340335845947,0.049798693507909775,0.0023665421176701784,0.0026299713645130396,0.09361914231284116,-0.6966504431908532,0.06625489890575409,0.10700393468141556,-0.10690492391586304,0.0,0.0,-0.6,0.0,0.0005135536193847656,0.004848480224609375,0.009302854537963867,0
1.8832321166992188,0.049798693507909775,0.0023665421176701784,0.0026299713645130396,0.09361914231284116,-0.6952590421721447,0.05110705643892288,0.09460899233818054,-0.10632633417844772,0.0,0.0,-0.6,0.0,0.0006880760192871094,0.0055637359619140625,0.010557889938354492,0
1.894928216934204,0.05071520432829857,0.0013193275080993772,-0.019549207761883736,0.0917286198765943,-0.6937147737226186,0.029651673510670662,0.07615453004837036,-0.10521810501813889,0.0,0.0,-0.6,0.0,0.0011909008026123047,0.0053713321685791016,0.01003885269165039,0
1.905212640762329,0.05071520432829857,0.0013193275080993772,-0.019549207761883736,0.0917286198765943,-0.6925084890516735,0.015757165849208832,0.06389792263507843,-0.10454341769218445,0.0,0.0,-0.6,0.0,0.00045800209045410156,0.0056798458099365234,0.01034998893737793,0
1.9162943363189697,0.05170079693198204,7.839671161491424e-05,-0.04141511023044586,0.09043606687518883,-0.6911735532954143,-0.003992445766925812,0.045774951577186584,-0.10362684726715088,0.0,0.0,-0.6,0.0,0.0005958080291748047,0.004914760589599609,0.010130643844604492,0
1.927734613418579,0.05170079693198204,7.839671161491424e-05,-0.04141511023044586,0.09043606687518883,-0.6901146011666078,-0.01737055554986,0.03401840105652809,-0.10289651155471802,0.0,0.0,-0.6,0.0,0.0005977153778076172,0.0038204193115234375,0.007858514785766602,0
1.9356839656829834,0.05170079693198204,7.839671161491424e-05,-0.04141511023044586,0.09043606687518883,-0.6892702922040828,-0.02492256835103035,0.023712407797574997,-0.1025659441947937,0.0,0.0,-0.6,0.0,0.0006239414215087891,0.0051763057708740234,0.010457038879394531,0
1.9470279216766357,0.05245516449213028,-0.0010066250106319785,-0.06287122517824173,0.08910511996053419,-0.688277833839823,-0.039643339812755585,0.006638344377279282,-0.10183265060186386,0.0,0.0,-0.6,0.0,0.0005159378051757812,0.0037314891815185547,0.008698225021362305,0
1.9563453197479248,0.05245516449213028,-0.0010066250106319785,-0.06287122517824173,0.08910511996053419,-0.6875559933321297,-0.04986114799976349,-0.0030107637867331505,-0.10124802589416504,0.0,0.0,-0.6,0.0,0.0010166168212890625,0.00543522834777832,0.00919198989868164,0
1.9660601615905762,0.052822329103946686,-0.0016402036417275667,-0.07689058780670166,0.08825461958037223,-0.6868094188700331,-0.06264258921146393,-0.015816932544112206,-0.10053589195013046,0.0,0.0,-0.6,0.0,0.0005505084991455078,0.00485992431640625,0.010803461074829102,0
1.9772968292236328,0.052822329103946686,-0.0016402036417275667,-0.07689058780670166,0.08825461958037223,-0.6862434065661077,-0.07104004174470901,-0.02438778430223465,-0.10010138899087906,0.0,0.0,-0.6,0.0,0.0005321502685546875,0.004035472869873047,0.008329153060913086,0
1.9869463443756104,0.053162552416324615,-0.0024411631748080254,-0.0975731909275055,0.08699223606000149,-0.685628564406784,-0.08725559711456299,-0.03930220752954483,-0.09894917905330658,0.0,0.0,-0.6,0.0,0.0010619163513183594,0.006056070327758789,0.009758710861206055,0
1.9970343112945557,0.053162552416324615,-0.0024411631748080254,-0.0975731909275055,0.08699223606000149,-0.6851617366926053,-0.09820222109556198,-0.04941766709089279,-0.09818968176841736,0.0,0.0,-0.6,0.0,0.0004932880401611328,0.003853321075439453,0.008324384689331055,0
2.0065386295318604,0.05323898419737816,-0.00287444400601089,-0.11108289659023285,0.08610189635610521,-0.6846635687509527,-0.1107713133096695,-0.06185387074947357,-0.0972430557012558,0.0,0.0,-0.6,0.0,0.0012471675872802734,0.004995107650756836,0.008836746215820312,0
2.0158255100250244,0.05323898419737816,-0.00287444400601089,-0.11108289659023285,0.08610189635610521,-0.6841450985178968,-0.12943321466445923,-0.08397147059440613,-0.09739681333303452,0.0,0.0,-0.6,0.0,0.0005428791046142578,0.004930019378662109,0.010359525680541992,0
2.0273935794830322,0.05319858714938164,-0.003222154686227441,-0.12433682382106781,0.08519286922699268,-0.6836484974470751,-0.14739330112934113,-0.10496847331523895,-0.09714668244123459,0.0,0.0,-0.6,0.0,0.0006966590881347656,0.0039865970611572266,0.008003950119018555,0
2.0357019901275635,0.05319858714938164,-0.003222154686227441,-0.12433682382106781,0.08519286922699268,-0.6833122414913311,-0.1595953404903412,-0.11912567168474197,-0.09704587608575821,0.0,0.0,-0.6,0.0,0.000499725341796875,0.005362749099731445,0.00979757308959961,0
2.046314239501953,0.05292683094739914,-0.0035872464068233967,-0.14385975897312164,0.08377155123027782,-0.6829940100656499,-0.17440055310726166,-0.1368688941001892,-0.09826728701591492,0.0,0.0,-0.6,0.0,0.0009400844573974609,0.005669116973876953,0.011000871658325195,0
2.0580837726593018,0.05292683094739914,-0.0035872464068233967,-0.14385975897312164,0.08377155123027782,-0.6827708921876484,-0.1846505105495453,-0.14920686185359955,-0.09916581958532333,0.0,0.0,-0.6,0.0,0.0011119842529296875,0.0048029422760009766,0.008925437927246094,0
2.0677037239074707,0.05259590223431587,-0.0037257636431604624,-0.1565738171339035,0.08284396788414002,-0.6825473566292427,-0.19501075148582458,-0.16248303651809692,-0.0996403843164444,0.0,0.0,-0.6,0.0,0.0007812976837158203,0.0059773921966552734,0.010208368301391602,0
2.0784800052642822,0.05259590223431587,-0.0037257636431604624,-0.1565738171339035,0.08284396788414002,-0.6823917512821546,-0.20218168199062347,-0.1717182844877243,-0.10000339895486832,0.0,0.0,-0.6,0.0,0.00098419189453125,0.0054934024810791016,0.010606527328491211,0
2.0903077125549316,0.05463822931051254,-0.0032604914158582687,-0.18655666708946228,0.08081849588532478,-0.6819973563718505,-0.21179413795471191,-0.1831933856010437,-0.0997244268655777,0.0,0.0,-0.6,0.0,0.0015370845794677734,0.00498652458190918,0.010811567306518555,0
2.101666212081909,0.05463822931051254,-0.0032604914158582687,-0.18655666708946228,0.08081849588532478,-0.6817046482116926,-0.2183876484632492,-0.19113251566886902,-0.09957773983478546,0.0,0.0,-0.6,0.0,0.0009238719940185547,0.005665779113769531,0.009215593338012695,0
2.111762523651123,0.055701807141304016,-0.0027619244065135717,-0.20804892480373383,0.07919627860218625,-0.6813194282336306,-0.22385410964488983,-0.19874633848667145,-0.09912335872650146,0.0,0.0,-0.6,0.0,0.00042366981506347656,0.004000425338745117,0.00956273078918457,0
2.1220805644989014,0.055701807141304016,-0.0027619244065135717,-0.20804892480373383,0.07919627860218625,-0.6810418367570706,-0.22746063768863678,-0.20408183336257935,-0.09901806712150574,0.0,0.0,-0.6,0.0,0.0010156631469726562,0.0041921138763427734,0.007610797882080078,0
2.130171298980713,0.056381262838840485,-0.00214442890137434,-0.22868847846984863,0.07745081821103758,-0.6806952636762155,-0.22924922406673431,-0.20850224792957306,-0.09851820766925812,0.0,0.0,-0.6,0.0,0.0005576610565185547,0.005582094192504883,0.0111541748046875,0
2.1420860290527344,0.056381262838840485,-0.00214442890137434,-0.22868847846984863,0.07745081821103758,-0.6804269811310846,-0.23038573563098907,-0.21152250468730927,-0.0982096865773201,0.0,0.0,-0.6,0.0,0.0007627010345458984,0.004004955291748047,0.008647441864013672,0
2.151984453201294,0.056643497198820114,-0.0016729754861444235,-0.24196195602416992,0.07628309831731934,-0.6801623250952933,-0.22898033261299133,-0.21349139511585236,-0.09809347987174988,0.0,0.0,-0.6,0.0,0.0008521080017089844,0.005421161651611328,0.009520530700683594,0
2.1620495319366455,0.056643497198820114,-0.0016729754861444235,-0.24196195602416992,0.07628309831731934,-0.6799547059800327,-0.22790098190307617,-0.21481825411319733,-0.09804695844650269,0.0,0.0,-0.6,0.0,0.0007348060607910156,0.005629777908325195,0.010091304779052734,0
2.1728084087371826,0.0567689910531044,-0.0011635221308097243,-0.25485390424728394,0.07504297328224449,-0.6796901686737653,-0.22465789318084717,-0.2155918926000595,-0.09793838113546371,0.0,0.0,-0.6,0.0,0.0007169246673583984,0.005574703216552734,0.011033296585083008,0
2.184744358062744,0.0567689910531044,-0.0011635221308097243,-0.25485390424728394,0.07504297328224449,-0.6794786650062179,-0.22228917479515076,-0.21609267592430115,-0.0978982225060463,0.0,0.0,-0.6,0.0,0.0008573532104492188,0.0047626495361328125,0.00863194465637207,0
2.194119691848755,0.056720856577157974,-0.000330199021846056,-0.2736194431781769,0.07310718859112832,-0.6790889525268999,-0.22730891406536102,-0.21805113554000854,-0.09555526077747345,0.0,0.0,-0.6,0.0,0.0006725788116455078,0.007433414459228516,0.012760162353515625,0
2.2076196670532227,0.056720856577157974,-0.000330199021846056,-0.2736194431781769,0.07310718859112832,-0.6787839533104105,-0.23084603250026703,-0.2194361835718155,-0.09394398331642151,0.0,0.0,-0.6,0.0,0.0009508132934570312,0.007761478424072266,0.013571023941040039,0
2.221928834915161,0.05623530596494675,0.0008726241649128497,-0.29735636711120605,0.07030731632813264,-0.6785840158156897,-0.22803550958633423,-0.21540649235248566,-0.09166247397661209,0.0,0.0,-0.6,0.0,0.0007450580596923828,0.0058324337005615234,0.01161336898803711,0
2.234091281890869,0.05623530596494675,0.0008726241649128497,-0.29735636711120605,0.07030731632813264,-0.6784277075293587,-0.22609464824199677,-0.2125939130783081,-0.09007804095745087,0.0,0.0,-0.6,0.0,0.0006101131439208984,0.005217075347900391,0.009594440460205078,0
2.244415760040283,0.05583611875772476,0.0014875809429213405,-0.30868563055992126,0.06891974693428748,-0.6783160057997046,-0.2199116349220276,-0.20719946920871735,-0.08846090734004974,0.0,0.0,-0.6,0.0,0.0008985996246337891,0.007184743881225586,0.012016057968139648,0
2.256995916366577,0.05583611875772476,0.0014875809429213405,-0.30868563055992126,0.06891974693428748,-0.6782267678149481,-0.21559379994869232,-0.20342834293842316,-0.0873354822397232,0.0,0.0,-0.6,0.0,0.0005300045013427734,0.004769563674926758,0.010722160339355469,0
2.2684614658355713,0.05506955459713936,0.0024100111331790686,-0.32518792152404785,0.06679864290138622,-0.6781514765576475,-0.20649287104606628,-0.19640208780765533,-0.0860074833035469,0.0,0.0,-0.6,0.0,0.0005753040313720703,0.0056536197662353516,0.00992894172668457,0
2.2800590991973877,0.05445123463869095,0.0030207200907170773,-0.3357527554035187,0.06538650727232523,-0.6781370042701967,-0.19442272186279297,-0.18747968971729279,-0.08450230211019516,0.0,0.0,-0.6,0.0,0.0008409023284912109,0.0049860477447509766,0.009244441986083984,0
2.289478302001953,0.05445123463869095,0.0030207200907170773,-0.3357527554035187,0.06538650727232523,-0.6781173373933604,-0.18596306443214417,-0.18123503029346466,-0.08344736695289612,0.0,0.0,-0.6,0.0,0.0005555152893066406,0.005127906799316406,0.01128697395324707,0
2.3016858100891113,0.053394779562950134,0.003904975950717926,-0.35095828771591187,0.06325435055206523,-0.6781908477646769,-0.17067870497703552,-0.17047397792339325,-0.08181307464838028,0.0,0.0,-0.6,0.0,0.0005338191986083984,0.004698514938354492,0.009075164794921875,0
2.311691999435425,0.053394779562950134,0.003904975950717926,-0.35095828771591187,0.06325435055206523,-0.678238225411582,-0.1599484384059906,-0.16293513774871826,-0.08066114038228989,0.0,0.0,-0.6,0.0,0.0008499622344970703,0.0051381587982177734,0.009033203125,0
2.3213706016540527,0.05261636897921562,0.004453985020518303,-0.3607327938079834,0.06185499285069329,-0.6783524354627186,-0.1457260698080063,-0.15289302170276642,-0.07925165444612503,0.0,0.0,-0.6,0.0,0.0008225440979003906,0.004865884780883789,0.010984420776367188,0
2.3329601287841797,0.05261636897921562,0.004453985020518303,-0.3607327938079834,0.06185499285069329,-0.6784325430878662,-0.13573294878005981,-0.14585421979427338,-0.07825435698032379,0.0,0.0,-0.6,0.0,0.0005712509155273438,0.0045299530029296875,0.009078741073608398,0
2.3432469367980957,0.05137810856103897,0.005214659031480551,-0.37484976649284363,0.05976762679457028,-0.6786277242780652,-0.11824320256710052,-0.13292908668518066,-0.07664182782173157,0.0,0.0,-0.6,0.0,0.0008046627044677734,0.005031585693359375,0.008518218994140625,0
2.3519818782806396,0.05137810856103897,0.005214659031480551,-0.37484976649284363,0.05976762679457028,-0.6787689379659927,-0.10594415664672852,-0.12386637926101685,-0.07549601793289185,0.0,0.0,-0.6,0.0,0.0005166530609130859,0.004519224166870117,0.010080099105834961,0
2.3634233474731445,0.05052555352449417,0.0056693884544074535,-0.3838522732257843,0.05839552224661448,-0.6789615009618657,-0.09012041240930557,-0.11214675009250641,-0.0740724503993988,0.0,0.0,-0.6,0.0,0.0008616447448730469,0.00461888313293457,0.008556127548217773,0
2.372131824493408,0.05052555352449417,0.0056693884544074535,-0.3838522732257843,0.05839552224661448,-0.6791018232775793,-0.07898899912834167,-0.10392849147319794,-0.07305938005447388,0.0,0.0,-0.6,0.0,0.0008261203765869141,0.0056781768798828125,0.009857654571533203,0
2.382603645324707,0.04965798184275627,0.006073301192373037,-0.39253509044647217,0.057038575385092286,-0.6793129132353024,-0.06398507207632065,-0.09290265291929245,-0.0717296302318573,0.0,0.0,-0.6,0.0,0.0008027553558349609,0.0035507678985595703,0.007904291152954102,0
2.3921735286712646,0.04965798184275627,0.006073301192373037,-0.39253509044647217,0.057038575385092286,-0.6794709462671822,-0.05318235978484154,-0.08479440212249756,-0.0705764964222908,0.0,0.0,-0.6,0.0,0.0007312297821044922,0.004763364791870117,0.009125709533691406,0
2.4020023345947266,0.04834574833512306,0.006557933520525694,-0.40506020188331604,0.05503674056551445,-0.6797684787328498,-0.03491321951150894,-0.0715588927268982,-0.06904123723506927,0.0,0.0,-0.6,0.0,0.0005002021789550781,0.005738496780395508,0.010572671890258789,0
2.41300630569458,0.04834574833512306,0.006557933520525694,-0.40506020188331604,0.05503674056551445,-0.6799848890959876,-0.021565210074186325,-0.06146359443664551,-0.06791477650403976,0.0,0.0,-0.6,0.0,0.0004999637603759766,0.0036160945892333984,0.007036685943603516,0
2.4206619262695312,0.04704566299915314,0.006892180535942316,-0.41693052649497986,0.05305531456639315,-0.6803242609840596,-0.0018135197460651398,-0.04709750413894653,-0.06639321148395538,0.0,0.0,-0.6,0.0,0.00047087669372558594,0.005054950714111328,0.01084136962890625,0
2.4322524070739746,0.04704566299915314,0.006892180535942316,-0.41693052649497986,0.05305531456639315,-0.6805789808741439,0.012368686497211456,-0.03660295903682709,-0.06506658345460892,0.0,0.0,-0.6,0.0,0.0006463527679443359,0.005372524261474609,0.01030278205871582,0
2.4432382583618164,0.04619541019201279,0.0070277014747262,-0.4244658052921295,0.05176935144196768,-0.6809013054736981,0.028506295755505562,-0.02430509775876999,-0.06350915879011154,0.0,0.0,-0.6,0.0,0.00048732757568359375,0.0031349658966064453,0.006307840347290039,0
2.4498610496520996,0.04619541019201279,0.0070277014747262,-0.4244658052921295,0.05176935144196768,-0.6811432787428583,0.03934392333030701,-0.01553825568407774,-0.06215645372867584,0.0,0.0,-0.6,0.0,0.0004975795745849609,0.006218671798706055,0.010752677917480469,0
2.461343765258789,0.045379165560007095,0.0070889475755393505,-0.43170061707496643,0.05048572140183433,-0.6814690060261361,0.05336907133460045,-0.004477117210626602,-0.06061429902911186,0.0,0.0,-0.6,0.0,0.0007793903350830078,0.005726337432861328,0.010493278503417969,0
2.47255802154541,0.045379165560007095,0.0070889475755393505,-0.43170061707496643,0.05048572140183433,-0.6817154239371619,0.06327357888221741,0.0032755983993411064,-0.05951428413391113,0.0,0.0,-0.6,0.0,0.0007359981536865234,0.0056915283203125,0.009349584579467773,0
2.482368230819702,0.046041909605264664,0.008511490188539028,-0.44736236333847046,0.04863265892606392,-0.6818571525218422,0.07882349193096161,0.016079898923635483,-0.058005400002002716,0.0,0.0,-0.6,0.0,0.0006711483001708984,0.0056993961334228516,0.011260509490966797,0
2.4943137168884277,0.046041909605264664,0.008511490188539028,-0.44736236333847046,0.04863265892606392,-0.6820085621380617,0.09324107319116592,0.026253696531057358,-0.0569765605032444,0.0,0.0,-0.6,0.0,0.0006139278411865234,0.0038416385650634766,0.009429216384887695,0
2.5047950744628906,0.04647074639797211,0.009308846667408943,-0.45723652839660645,0.047410513986237114,-0.6821257002521759,0.10725083202123642,0.039140425622463226,-0.055684302002191544,0.0,0.0,-0.6,0.0,0.0007488727569580078,0.004626035690307617,0.007597446441650391,0
2.51257061958313,0.04647074639797211,0.009308846667408943,-0.45723652839660645,0.047410513986237114,-0.6822989098187628,0.11649128049612045,0.04929575324058533,-0.05446019768714905,0.0,0.0,-0.6,0.0,0.0004813671112060547,0.004930019378662109,0.011672496795654297,0
2.5252161026000977,0.04710893705487251,0.01028550323098898,-0.47124287486076355,0.045581524558903144,-0.6823668263500183,0.12840977311134338,0.06270645558834076,-0.05306507647037506,0.0,0.0,-0.6,0.0,0.0004718303680419922,0.0033974647521972656,0.007179975509643555,0
2.5332136154174805,0.04710893705487251,0.01028550323098898,-0.47124287486076355,0.045581524558903144,-0.6824979100918815,0.13614118099212646,0.07331579178571701,-0.05174633115530014,0.0,0.0,-0.6,0.0,0.0010008811950683594,0.007693052291870117,0.013674020767211914,0
2.5477919578552246,0.047536518424749374,0.010787688195705414,-0.4800926446914673,0.044367112485388924,-0.6829615769380002,0.15022557973861694,0.08781608939170837,-0.05336412414908409,0.0,0.0,-0.6,0.0,0.000843048095703125,0.008469820022583008,0.014744758605957031,0
2.563260555267334,0.047536518424749374,0.010787688195705414,-0.4800926446914673,0.044367112485388924,-0.6832632759683256,0.1595906913280487,0.09909581393003464,-0.05357799679040909,0.0,0.0,-0.6,0.0,0.0009396076202392578,0.00826263427734375,0.01451253890991211,0
2.5788486003875732,0.04889235273003578,0.011634315364062786,-0.5043637156486511,0.04086267237505142,-0.6836090426022123,0.17097100615501404,0.11841100454330444,-0.05190245062112808,0.0,0.0,-0.6,0.0,0.0008013248443603516,0.00850820541381836,0.015089273452758789,0
2.594627857208252,0.04889235273003578,0.011634315364062786,-0.5043637156486511,0.04086267237505142,-0.6838304683621056,0.18160578608512878,0.13162392377853394,-0.050770353525877,0.0,0.0,-0.6,0.0,0.0008242130279541016,0.007863998413085938,0.014556169509887695,0
2.6102826595306396,0.049657389521598816,0.01171018648892641,-0.5152881145477295,0.03919958173591827,-0.6840362082424201,0.18873701989650726,0.145400732755661,-0.04891577363014221,0.0,0.0,-0.6,0.0,0.0011515617370605469,0.009083747863769531,0.016510963439941406,0
2.6277644634246826,0.049657389521598816,0.01171018648892641,-0.5152881145477295,0.03919958173591827,-0.684197669034605,0.19367647171020508,0.15501633286476135,-0.0475878044962883,0.0,0.0,-0.6,0.0,0.001196146011352539,0.00852203369140625,0.015443563461303711,0
2.6444544792175293,0.0507734939455986,0.01148027554154396,-0.5287185907363892,0.03699126936938516,-0.684458188012434,0.19596855342388153,0.16652612388134003,-0.04566565528512001,0.0,0.0,-0.6,0.0,0.0013766288757324219,0.009138107299804688,0.015987634658813477,0
2.6609370708465576,0.0507734939455986,0.01148027554154396,-0.5287185907363892,0.03699126936938516,-0.6846621137313644,0.19845135509967804,0.17479845881462097,-0.04379872605204582,0.0,0.0,-0.6,0.0,0.0009951591491699219,0.009106636047363281,0.015482664108276367,0
2.677361249923706,0.05234268307685852,0.01074778102338314,-0.5437331795692444,0.03437482051500825,-0.6848629992017492,0.195837140083313,0.18266871571540833,-0.04104859381914139,0.0,0.0,-0.6,0.0,0.001283407211303711,0.00855255126953125,0.013706445693969727,0
2.6917734146118164,0.05234268307685852,0.01074778102338314,-0.5437331795692444,0.03437482051500825,-0.6850222874234407,0.1939462274312973,0.18815836310386658,-0.039099350571632385,0.0,0.0,-0.6,0.0,0.0006923675537109375,0.0064296722412109375,0.013001680374145508,0
2.705843448638916,0.053346842527389526,0.010113345459103584,-0.5519523620605469,0.03289368885399026,-0.685264146368991,0.18867158889770508,0.19201575219631195,-0.03710145503282547,0.0,0.0,-0.6,0.0,0.0008032321929931641,0.006866931915283203,0.013556480407714844,0
2.7205183506011963,0.053346842527389526,0.010113345459103584,-0.5519523620605469,0.03289368885399026,-0.6854629941109769,0.1849094182252884,0.19469356536865234,-0.0356764942407608,0.0,0.0,-0.6,0.0,0.0007469654083251953,0.007363080978393555,0.013659477233886719,0
2.7351245880126953,0.05474023148417473,0.009095857851207256,-0.561859130859375,0.030969228525700485,-0.6858643100428614,0.182380810379982,0.20565013587474823,-0.03183974325656891,0.0,0.0,-0.6,0.0,0.0008144378662109375,0.0061681270599365234,0.011723756790161133,0
