time,x,y,z,yaw,throttle,roll_rate,pitch_rate,yaw_rate,x_ref,y_ref,z_ref,yaw_ref,pred_time,nr_time,ctrl_callback_time,metadata
1.9073486328125e-06,-0.15976931154727936,-0.06798623502254486,0.4466468095779419,-0.024017319434247973,-0.725317421368157,0.02544125083458818,-0.09036609587426742,0.009006494787841796,0.0,0.0,-0.6,0.0,0.0009562969207763672,0.0013256072998046875,0.0024585723876953125,Sim
0.009377479553222656,-0.16003656387329102,-0.06808647513389587,0.44743818044662476,-0.024003724921275806,-0.7498414880551518,0.04013216116128164,-0.15568569918921982,0.015305943196969582,0.0,0.0,-0.6,0.0,0.00015354156494140625,0.0002682209014892578,0.0006518363952636719,Nonlinear
0.01964282989501953,-0.16003656387329102,-0.06808647513389587,0.44743818044662476,-0.024003724921275806,-0.7690059824936413,0.04716590919180778,-0.19948607096051924,0.019715557083355595,0.0,0.0,-0.6,0.0,0.00014519691467285156,0.0002522468566894531,0.0007364749908447266,2x Speed
0.029341936111450195,-0.1602117270231247,-0.06814546138048172,0.4480501711368561,-0.023982865760227113,-0.7841353611782023,0.049365911803711145,-0.22708160579330686,0.02279446461843501,0.0,0.0,-0.6,0.0,0.00013399124145507812,0.0002372264862060547,0.0005478858947753906,0OrderHold
0.03957867622375488,-0.1602117270231247,-0.06814546138048172,0.4480501711368561,-0.023982865760227113,-0.7961361681571097,0.048552531147453865,-0.242755725451799,0.024949699892991256,0.0,0.0,-0.6,0.0,0.0001773834228515625,0.0003025531768798828,0.0007116794586181641,QuatYawError
0.049471378326416016,-0.16047486662864685,-0.06822299212217331,0.449126273393631,-0.02399430450761352,-0.8057141212720269,0.046150697009431405,-0.25071872195256567,0.026462654115448094,0.0,0.0,-0.6,0.0,0.00014591217041015625,0.0002574920654296875,0.0006210803985595703,NoPyJoules
0.0596160888671875,-0.16047486662864685,-0.06822299212217331,0.449126273393631,-0.02399430450761352,-0.813342361303259,0.04298689117132877,-0.2533818869685183,0.027521722071169055,0.0,0.0,-0.6,0.0,0.0001456737518310547,0.0002582073211669922,0.0006382465362548828,0
0.06936502456665039,-0.16074465215206146,-0.06824605166912079,0.4483974575996399,-0.024000078428145402,-0.8193946645557383,0.03960815245809306,-0.25298248264734646,0.02826523486037309,0.0,0.0,-0.6,0.0,0.00014901161193847656,0.00026297569274902344,0.0006194114685058594,0
0.07952117919921875,-0.16074465215206146,-0.06824605166912079,0.4483974575996399,-0.024000078428145402,-0.8242147361482981,0.03635667986334343,-0.2507669751752629,0.028785693812815618,0.0,0.0,-0.6,0.0,0.00015854835510253906,0.0002779960632324219,0.0007176399230957031,0
0.08966350555419922,-0.1612756997346878,-0.06824284046888351,0.44535762071609497,-0.02401623866094225,-0.827961178383157,0.033402159993971656,-0.24791207262890805,0.029156075166824388,0.0,0.0,-0.6,0.0,0.00024056434631347656,0.0004379749298095703,0.0009527206420898438,0
0.09966731071472168,-0.1612756997346878,-0.06824284046888351,0.44535762071609497,-0.02401623866094225,-0.8309423004848011,0.030818536490746513,-0.24472612701660626,0.029415342114630493,0.0,0.0,-0.6,0.0,0.00014519691467285156,0.00025725364685058594,0.0007104873657226562,0
0.10934138298034668,-0.16161596775054932,-0.06823812425136566,0.44357192516326904,-0.024039654148929394,-0.8332569115782904,0.028638329258528786,-0.24174394264937957,0.029605609786089924,0.0,0.0,-0.6,0.0,0.00013113021850585938,0.00023436546325683594,0.0005624294281005859,0
0.11958694458007812,-0.16161596775054932,-0.06823812425136566,0.44357192516326904,-0.024039654148929394,-0.8350970951763643,0.026810790639374908,-0.23894162754220857,0.029738797156111507,0.0,0.0,-0.6,0.0,0.00016069412231445312,0.00027823448181152344,0.0007147789001464844,0
0.12955355644226074,-0.162106454372406,-0.06822741031646729,0.4412330090999603,-0.024061718496426285,-0.8364874302384891,0.025249909799689853,-0.23666309147474388,0.029840302445437943,0.0,0.0,-0.6,0.0,0.0001475811004638672,0.0002608299255371094,0.0006730556488037109,0
0.139678955078125,-0.162106454372406,-0.06822741031646729,0.4412330090999603,-0.024061718496426285,-0.8375921351133826,0.023983612266034487,-0.2346496061817766,0.02991135614796638,0.0,0.0,-0.6,0.0,0.000244140625,0.00044155120849609375,0.0009968280792236328,0
0.1497201919555664,-0.16242475807666779,-0.06821753829717636,0.43989020586013794,-0.024096688782707817,-0.8384303089496324,0.022997392402116113,-0.2330969487271012,0.029974207597091917,0.0,0.0,-0.6,0.0,0.00024318695068359375,0.00043964385986328125,0.0009975433349609375,0
0.15971803665161133,-0.16242475807666779,-0.06821753829717636,0.43989020586013794,-0.024096688782707817,-0.8390961302436002,0.022205446621026657,-0.231762704553671,0.030018203611479766,0.0,0.0,-0.6,0.0,0.0002701282501220703,0.00047850608825683594,0.0010907649993896484,0
0.16966533660888672,-0.16288958489894867,-0.06820005178451538,0.43818333745002747,-0.024090339003889273,-0.8395780139442293,0.021523405026913387,-0.2307944213939921,0.030046619654494323,0.0,0.0,-0.6,0.0,0.00026106834411621094,0.00046324729919433594,0.0010440349578857422,0
0.17961430549621582,-0.16288958489894867,-0.06820005178451538,0.43818333745002747,-0.024090339003889273,-0.8399606504569886,0.02098855359334283,-0.22997609605783875,0.03006651088460451,0.0,0.0,-0.6,0.0,0.0002765655517578125,0.0004923343658447266,0.001134634017944336,0
0.189619779586792,-0.16318631172180176,-0.06818358600139618,0.43724408745765686,-0.024108559622897464,-0.8402438624982553,0.020447398606701157,-0.2294717668013518,0.030087267477809702,0.0,0.0,-0.6,0.0,0.00026607513427734375,0.0005145072937011719,0.0010440349578857422,0
0.1996297836303711,-0.16318631172180176,-0.06818358600139618,0.43724408745765686,-0.024108559622897464,-0.840468882722421,0.02003536890459781,-0.2290369658925424,0.030101797093053346,0.0,0.0,-0.6,0.0,0.00017261505126953125,0.0002987384796142578,0.0007693767547607422,0
0.20941543579101562,-0.1636141985654831,-0.0681542456150055,0.4361032247543335,-0.024153078090569397,-0.840619410434858,0.019863614690295104,-0.22898977628535175,0.030128662249100862,0.0,0.0,-0.6,0.0,0.00015926361083984375,0.0002815723419189453,0.0007109642028808594,0
0.21943402290344238,-0.1636141985654831,-0.0681542456150055,0.4361032247543335,-0.024153078090569397,-0.8407397731798588,0.019726145545352326,-0.22891405889769378,0.030147467858334123,0.0,0.0,-0.6,0.0,0.0001518726348876953,0.00028133392333984375,0.0006585121154785156,0
0.22937893867492676,-0.16388678550720215,-0.06813447922468185,0.43551409244537354,-0.0241451002504315,-0.8408211814436766,0.01953988732861886,-0.22889913747075472,0.0301576400947457,0.0,0.0,-0.6,0.0,0.00016164779663085938,0.00027561187744140625,0.0006582736968994141,0
0.23957562446594238,-0.16388678550720215,-0.06813447922468185,0.43551409244537354,-0.0241451002504315,-0.8408862384504701,0.01940018328143008,-0.22886559634318024,0.030164760660233804,0.0,0.0,-0.6,0.0,0.00017118453979492188,0.0002930164337158203,0.0007386207580566406,0
0.2494802474975586,-0.16428080201148987,-0.06810198724269867,0.43485066294670105,-0.024154517737962965,-0.8409243656957623,0.01934493316577761,-0.22912213997735442,0.03017327661389978,0.0,0.0,-0.6,0.0,0.0001494884490966797,0.0002598762512207031,0.0006318092346191406,0
0.2595374584197998,-0.16428080201148987,-0.06810198724269867,0.43485066294670105,-0.024154517737962965,-0.8409556364449707,0.019302127564966163,-0.22929147983745599,0.03017923778146596,0.0,0.0,-0.6,0.0,0.00015282630920410156,0.0002684593200683594,0.0006918907165527344,0
0.26938509941101074,-0.1645401120185852,-0.06808219105005264,0.4345334470272064,-0.024170318328815978,-0.8409725974265339,0.019218187405160046,-0.22955906864241893,0.030189335820332164,0.0,0.0,-0.6,0.0,0.00015020370483398438,0.0002639293670654297,0.0006105899810791016,0
0.2794802188873291,-0.1645401120185852,-0.06808219105005264,0.4345334470272064,-0.024170318328815978,-0.840986915187559,0.01915770643188919,-0.22974210676778922,0.03019640444753851,0.0,0.0,-0.6,0.0,0.00016069412231445312,0.0002799034118652344,0.0007002353668212891,0
0.28943967819213867,-0.16491809487342834,-0.06804890930652618,0.434268981218338,-0.024239468990886633,-0.8409956578403743,0.019028464899575232,-0.23007232764309932,0.030227283984859465,0.0,0.0,-0.6,0.0,0.00015878677368164062,0.0002772808074951172,0.0006666183471679688,0
0.2995638847351074,-0.16491809487342834,-0.06804890930652618,0.434268981218338,-0.024239468990886633,-0.8410035401119378,0.018937245339589015,-0.23030163001743986,0.030248899660984128,0.0,0.0,-0.6,0.0,0.00025582313537597656,0.000461578369140625,0.0010218620300292969,0
0.30940747261047363,-0.16516201198101044,-0.06802023947238922,0.43422842025756836,-0.024293048256660732,-0.8410097183774489,0.018751155804034022,-0.23052590531576336,0.030284122858936658,0.0,0.0,-0.6,0.0,0.00016045570373535156,0.0002777576446533203,0.0006763935089111328,0
0.3194553852081299,-0.16516201198101044,-0.06802023947238922,0.43422842025756836,-0.024293048256660732,-0.8410151905232071,0.01862033516230446,-0.2306815123061165,0.030308779097503444,0.0,0.0,-0.6,0.0,0.00016570091247558594,0.00028967857360839844,0.0007433891296386719,0
0.3293735980987549,-0.16551756858825684,-0.06796391308307648,0.43436381220817566,-0.024288800915608307,-0.8410254307011663,0.018401763049069826,-0.23095871923082395,0.030324445711605537,0.0,0.0,-0.6,0.0,0.00016021728515625,0.0002810955047607422,0.0006742477416992188,0
0.3396487236022949,-0.16563360393047333,-0.06794362515211105,0.434457927942276,-0.02428143772718714,-0.8410361369395102,0.018223673626895382,-0.23123497062641268,0.030332651145819057,0.0,0.0,-0.6,0.0,0.0001590251922607422,0.0002770423889160156,0.0006718635559082031,0
0.34934401512145996,-0.16575117409229279,-0.0679222121834755,0.43457484245300293,-0.024280438443931896,-0.8410508252085828,0.018105700965632618,-0.2315316639750288,0.0303380202185478,0.0,0.0,-0.6,0.0,0.00014209747314453125,0.00026345252990722656,0.000591278076171875,0
0.3593897819519043,-0.1658681035041809,-0.06790132075548172,0.43471401929855347,-0.024297393130202686,-0.8410670931887384,0.018034437228454773,-0.23179035040699145,0.030348136576809466,0.0,0.0,-0.6,0.0,0.00016880035400390625,0.0002970695495605469,0.0006954669952392578,0
0.36942434310913086,-0.16609802842140198,-0.06785273551940918,0.43505528569221497,-0.02436714548828968,-0.8410933734164611,0.01771291401153747,-0.23211206355892086,0.030381375161875265,0.0,0.0,-0.6,0.0,0.00016689300537109375,0.000293731689453125,0.0007643699645996094,0
0.3794107437133789,-0.16621297597885132,-0.06782422214746475,0.4352579414844513,-0.024384761455046536,-0.8411232828056906,0.01746100422084089,-0.23241325405563235,0.030411248158955118,0.0,0.0,-0.6,0.0,0.00016188621520996094,0.0002865791320800781,0.0006709098815917969,0
0.38944387435913086,-0.16632644832134247,-0.06779623031616211,0.43548014760017395,-0.024396951563266944,-0.8411498311712425,0.017270394765769824,-0.23265791490352633,0.030436730547493695,0.0,0.0,-0.6,0.0,0.0001709461212158203,0.00029277801513671875,0.0006570816040039062,0
0.3993525505065918,-0.16655020415782928,-0.06773924082517624,0.43595314025878906,-0.02441757152529716,-0.8411780104515472,0.017002890510788807,-0.23294960924440947,0.03046230070523202,0.0,0.0,-0.6,0.0,0.0001518726348876953,0.00027251243591308594,0.0006697177886962891,0
0.40938687324523926,-0.1666596531867981,-0.06770861148834229,0.43621665239334106,-0.024440416376760095,-0.841211180352159,0.016781200713552845,-0.23315519472553475,0.030488766634947446,0.0,0.0,-0.6,0.0,0.00015163421630859375,0.0002675056457519531,0.0006539821624755859,0
0.41935062408447266,-0.1667679101228714,-0.06767836958169937,0.4364989697933197,-0.024435443643991077,-0.8412478724871475,0.016561672460680375,-0.2333205328214482,0.030505428010959863,0.0,0.0,-0.6,0.0,0.0001652240753173828,0.0002868175506591797,0.0006923675537109375,0
0.42936015129089355,-0.16687481105327606,-0.06764651089906693,0.43679994344711304,-0.024448514611399384,-0.8412885423177794,0.016318130672245017,-0.23348925741156767,0.030521992586946677,0.0,0.0,-0.6,0.0,0.00015592575073242188,0.00027441978454589844,0.0006432533264160156,0
0.4393899440765381,-0.16708804666996002,-0.06758151948451996,0.4374547302722931,-0.02448581597314753,-0.8413408519717174,0.016160040293051566,-0.23382496905413014,0.030547575800793005,0.0,0.0,-0.6,0.0,0.00017595291137695312,0.0002949237823486328,0.0006661415100097656,0
0.44951295852661133,-0.1671949326992035,-0.06754833459854126,0.43780744075775146,-0.024487643334254454,-0.841393088158371,0.015970720649454637,-0.2341477181251658,0.030566169310900528,0.0,0.0,-0.6,0.0,0.00015854835510253906,0.0002732276916503906,0.0006766319274902344,0
0.4593496322631836,-0.16730111837387085,-0.0675131231546402,0.43817615509033203,-0.024471426185287786,-0.8414474332638008,0.01579072509023776,-0.23438742736370416,0.03057310333711329,0.0,0.0,-0.6,0.0,0.00015616416931152344,0.00027441978454589844,0.0006673336029052734,0
0.46941184997558594,-0.1673407107591629,-0.06754868477582932,0.43712571263313293,-0.02448060543714557,-0.8414646844295939,0.015659496349494702,-0.23448630590154063,0.03058139937490889,0.0,0.0,-0.6,0.0,0.0001819133758544922,0.0003070831298828125,0.0007238388061523438,0
0.47936511039733887,-0.16742044687271118,-0.06761243939399719,0.43518179655075073,-0.02451351800798537,-0.8414264894878882,0.015566627156252417,-0.2344516720388033,0.030599548815430727,0.0,0.0,-0.6,0.0,0.0001659393310546875,0.0002913475036621094,0.0007171630859375,0
0.48937034606933594,-0.16745500266551971,-0.06764253973960876,0.43428459763526917,-0.024512544239022417,-0.8413708095844156,0.015526581951214062,-0.23438070717513118,0.030611888260434917,0.0,0.0,-0.6,0.0,0.00015807151794433594,0.0002777576446533203,0.0006465911865234375,0
0.4993762969970703,-0.16748972237110138,-0.06767074018716812,0.4334346354007721,-0.024516787695471002,-0.8412987432166604,0.01544097312489243,-0.2343270496532308,0.03062211716810607,0.0,0.0,-0.6,0.0,0.00015497207641601562,0.00027489662170410156,0.0006835460662841797,0
0.5094068050384521,-0.1675252914428711,-0.0676969662308693,0.4326302111148834,-0.02451211598245035,-0.8412172911425271,0.01538850426003356,-0.23430739069174386,0.030627525511093132,0.0,0.0,-0.6,0.0,0.00015783309936523438,0.000293731689453125,0.0006852149963378906,0
0.5194149017333984,-0.16759541630744934,-0.06774353235960007,0.4311555027961731,-0.024504206250827953,-0.8411094460192801,0.015318766715640352,-0.23427983532958593,0.030628345201825675,0.0,0.0,-0.6,0.0,0.0001690387725830078,0.0003097057342529297,0.0007207393646240234,0
0.5295052528381348,-0.16763168573379517,-0.06776255369186401,0.43048200011253357,-0.0245172140333323,-0.8409994753695306,0.015238142257700711,-0.2343667168652615,0.030633796903777582,0.0,0.0,-0.6,0.0,0.0001685619354248047,0.0002925395965576172,0.0007300376892089844,0
0.5393707752227783,-0.16766971349716187,-0.06777995824813843,0.4298393428325653,-0.024523708208251914,-0.8408939186454591,0.01523087175884308,-0.2344762965347783,0.030640048410738776,0.0,0.0,-0.6,0.0,0.00015544891357421875,0.0002758502960205078,0.0006577968597412109,0
0.5494265556335449,-0.16770820319652557,-0.06779561191797256,0.4292369782924652,-0.024538387472959833,-0.8407894975146865,0.015175198046098253,-0.2346347758550536,0.030649929189877082,0.0,0.0,-0.6,0.0,0.0001690387725830078,0.0002918243408203125,0.0006992816925048828,0
0.5593483448028564,-0.16774865984916687,-0.0678086206316948,0.4286732077598572,-0.024553188708564534,-0.8406879808613642,0.01508146448054526,-0.23485658089661396,0.030662396198625656,0.0,0.0,-0.6,0.0,0.0001678466796875,0.0002911090850830078,0.0006945133209228516,0
0.569469690322876,-0.1677902489900589,-0.06781880557537079,0.4281480610370636,-0.024563746996229315,-0.8405945935635312,0.01503674097128477,-0.23505010432305004,0.03067508246262395,0.0,0.0,-0.6,0.0,0.00028514862060546875,0.0005133152008056641,0.0010523796081542969,0
0.5794227123260498,-0.1678745299577713,-0.06783338636159897,0.4272114634513855,-0.024566651144580814,-0.8404967124837175,0.014977547946349298,-0.23519468575193503,0.03068505190305457,0.0,0.0,-0.6,0.0,0.00026416778564453125,0.00048804283142089844,0.0010173320770263672,0
0.5895307064056396,-0.16791613399982452,-0.06783928722143173,0.4267984926700592,-0.02457557096343139,-0.8404111438430023,0.014908034671827134,-0.2352597769508162,0.03069537544342497,0.0,0.0,-0.6,0.0,0.0002677440643310547,0.00047516822814941406,0.0009410381317138672,0
0.5994606018066406,-0.16795773804187775,-0.06784361600875854,0.4264202415943146,-0.02457408325452407,-0.8403291703286647,0.014842153427503852,-0.23533205193901904,0.030702044030844006,0.0,0.0,-0.6,0.0,0.0003113746643066406,0.0005223751068115234,0.0010600090026855469,0
0.6094577312469482,-0.16804015636444092,-0.06784746050834656,0.4257473349571228,-0.0246044104475218,-0.8402486986175809,0.01470766176039307,-0.23538188973884797,0.030718084739411483,0.0,0.0,-0.6,0.0,0.00018715858459472656,0.0003235340118408203,0.0007967948913574219,0
0.6193242073059082,-0.16808107495307922,-0.06784579157829285,0.4254523515701294,-0.024625004173077576,-0.8401742889263432,0.01456788487018555,-0.23545461534961895,0.030737035882492134,0.0,0.0,-0.6,0.0,0.00015854835510253906,0.0002772808074951172,0.0006253719329833984,0
0.6295661926269531,-0.16812270879745483,-0.06784289330244064,0.4251888394355774,-0.024628379880415368,-0.8401094702533225,0.014449335185976783,-0.23555847482855155,0.030751567572900255,0.0,0.0,-0.6,0.0,0.000156402587890625,0.0002808570861816406,0.0006995201110839844,0
0.6393601894378662,-0.16820986568927765,-0.06783544272184372,0.42475777864456177,-0.024636423531651897,-0.8400526317716479,0.014445295277735732,-0.23560350856409654,0.030764756125399632,0.0,0.0,-0.6,0.0,0.0001575946807861328,0.0002765655517578125,0.0006794929504394531,0
0.6493823528289795,-0.1682543009519577,-0.06783211976289749,0.4245873689651489,-0.024665383154681805,-0.8400026849278233,0.014497572959800038,-0.2357214098163495,0.030784847970785425,0.0,0.0,-0.6,0.0,0.00015211105346679688,0.0002734661102294922,0.0006475448608398438,0
0.6593563556671143,-0.1683012992143631,-0.06782838702201843,0.4244464039802551,-0.024676940722823996,-0.8399629563512545,0.01457046877759699,-0.2358854386101316,0.030803246350608795,0.0,0.0,-0.6,0.0,0.0001773834228515625,0.0002989768981933594,0.0007102489471435547,0
0.6696579456329346,-0.16834822297096252,-0.06782419979572296,0.4243348240852356,-0.024673006356848368,-0.8399311484220118,0.014620656485317003,-0.2359743274704784,0.030814649829244298,0.0,0.0,-0.6,0.0,0.0002570152282714844,0.00046896934509277344,0.0010292530059814453,0
0.6794512271881104,-0.16844114661216736,-0.06781338155269623,0.42419764399528503,-0.024719876205906956,-0.8399030112814916,0.014561998815262408,-0.23614370763882878,0.030840208457686123,0.0,0.0,-0.6,0.0,0.0002684593200683594,0.0004851818084716797,0.0010654926300048828,0
0.6897752285003662,-0.1684907078742981,-0.06780519336462021,0.4241707921028137,-0.024748011445402163,-0.8398797223733807,0.014514982753641008,-0.2363624580369015,0.030868650212406094,0.0,0.0,-0.6,0.0,0.00026702880859375,0.0004963874816894531,0.0010886192321777344,0
0.6994309425354004,-0.16853952407836914,-0.06779740005731583,0.42416900396347046,-0.024751546808690354,-0.8398620557763905,0.01451752299319984,-0.2364547990914622,0.030889885201943156,0.0,0.0,-0.6,0.0,0.0002639293670654297,0.0004775524139404297,0.001010894775390625,0
0.7097513675689697,-0.16858701407909393,-0.0677904561161995,0.4241919219493866,-0.024779517293415407,-0.8398505953940967,0.014496622587208498,-0.2364691794876831,0.03091523862639097,0.0,0.0,-0.6,0.0,0.00027060508728027344,0.000484466552734375,0.0010833740234375,0
0.7193460464477539,-0.1686331182718277,-0.06778257340192795,0.4242383539676666,-0.024793334399172084,-0.8398408801839342,0.014444644135725972,-0.23643988315803796,0.030938167438163217,0.0,0.0,-0.6,0.0,0.0001590251922607422,0.0002803802490234375,0.0006570816040039062,0
0.7293541431427002,-0.16872596740722656,-0.06776279211044312,0.4243985414505005,-0.024830635082651473,-0.8398347080877484,0.01441468700481628,-0.23647546577095568,0.030968205362708563,0.0,0.0,-0.6,0.0,0.00016951560974121094,0.0003008842468261719,0.0007059574127197266,0
0.7393603324890137,-0.168772354722023,-0.06775102019309998,0.4245111048221588,-0.024834282243130577,-0.8398325641202601,0.01433914232799314,-0.23648378412233048,0.030990599595069977,0.0,0.0,-0.6,0.0,0.0001709461212158203,0.0003097057342529297,0.0007374286651611328,0
0.7493562698364258,-0.1688193827867508,-0.06773734837770462,0.42464569211006165,-0.024844384033340976,-0.8398389713780723,0.014173728827224492,-0.23648890159000155,0.031010063729051855,0.0,0.0,-0.6,0.0,0.00014901161193847656,0.0002646446228027344,0.0006105899810791016,0
0.7593374252319336,-0.1688675433397293,-0.06772129982709885,0.42479151487350464,-0.024834709537163265,-0.8398526654572918,0.01401239562308207,-0.23651081718378145,0.03102006068677252,0.0,0.0,-0.6,0.0,0.0001609325408935547,0.00028586387634277344,0.0006644725799560547,0
0.7696290016174316,-0.16896608471870422,-0.06768769025802612,0.42514553666114807,-0.02481181011008217,-0.8398683043305619,0.013906790610672222,-0.23664953245607534,0.031018471272021578,0.0,0.0,-0.6,0.0,0.0001735687255859375,0.0003070831298828125,0.0007653236389160156,0
0.779346227645874,-0.16901302337646484,-0.06767106801271439,0.4253511428833008,-0.024835317688830825,-0.8398867723011062,0.013786518418956792,-0.23685749385440683,0.031026174023726667,0.0,0.0,-0.6,0.0,0.000164031982421875,0.00029158592224121094,0.0006821155548095703,0
0.7895784378051758,-0.1690608561038971,-0.06765202432870865,0.42557528614997864,-0.024843473118445227,-0.8399041061915786,0.01364959667820651,-0.23705209433161126,0.03103462423602563,0.0,0.0,-0.6,0.0,0.00016236305236816406,0.00028634071350097656,0.0007228851318359375,0
0.7993505001068115,-0.1691594421863556,-0.0676102265715599,0.4260781705379486,-0.024856386245797883,-0.8399336020986693,0.013533880810914096,-0.23725505356970303,0.03104538180739215,0.0,0.0,-0.6,0.0,0.0001633167266845703,0.0002837181091308594,0.0006821155548095703,0
0.8094825744628906,-0.1692086011171341,-0.06758924573659897,0.4263562858104706,-0.024875738010860717,-0.8399624204574505,0.01351725285056125,-0.2374459134023024,0.031060169019247276,0.0,0.0,-0.6,0.0,0.00015997886657714844,0.00027632713317871094,0.0006763935089111328,0
0.819392204284668,-0.16925828158855438,-0.06756976991891861,0.4266516864299774,-0.024885623148512215,-0.8399969785073,0.013546466900448497,-0.23755755602393389,0.031074226994165184,0.0,0.0,-0.6,0.0,0.0001595020294189453,0.00027942657470703125,0.0007040500640869141,0
0.8294825553894043,-0.1693073809146881,-0.06754904240369797,0.42696431279182434,-0.024894099223601876,-0.8400375826055503,0.013460595339116251,-0.23763602480361568,0.03108724610476634,0.0,0.0,-0.6,0.0,0.00015735626220703125,0.00027680397033691406,0.0006616115570068359,0
0.8393330574035645,-0.16935695707798004,-0.06752484291791916,0.4272944927215576,-0.024915002936729155,-0.8400795833516473,0.013308021033988192,-0.23773097619418057,0.031104198374609874,0.0,0.0,-0.6,0.0,0.00016927719116210938,0.0002903938293457031,0.0006542205810546875,0
0.8496429920196533,-0.16945430636405945,-0.06747464090585709,0.4280010759830475,-0.024938253887730473,-0.8401312377734106,0.013209986231293594,-0.2378124290263842,0.031124784070125845,0.0,0.0,-0.6,0.0,0.00018072128295898438,0.0003085136413574219,0.0007781982421875,0
0.8593654632568359,-0.16950123012065887,-0.0674479678273201,0.4283788800239563,-0.0249374764217651,-0.8401887199338676,0.013124424084773784,-0.23785117558097474,0.031138902507250005,0.0,0.0,-0.6,0.0,0.0001881122589111328,0.00031447410583496094,0.0007431507110595703,0
0.8694360256195068,-0.16948118805885315,-0.06740816682577133,0.42739394307136536,-0.024944062575092008,-0.8402072136933251,0.012971791544591481,-0.23784855421794562,0.031151255220734503,0.0,0.0,-0.6,0.0,0.00016307830810546875,0.0002872943878173828,0.0007047653198242188,0
0.8794572353363037,-0.16946370899677277,-0.06736667454242706,0.4264591634273529,-0.024966656604164146,-0.840196514817817,0.012822266350893806,-0.23786007945596244,0.031168374881075697,0.0,0.0,-0.6,0.0,0.00015425682067871094,0.0002779960632324219,0.000659942626953125,0
0.8895015716552734,-0.16943682730197906,-0.06728193908929825,0.42473217844963074,-0.024994597625755684,-0.8401315790977676,0.012599759580902823,-0.23791237728847991,0.03119083652641136,0.0,0.0,-0.6,0.0,0.00015807151794433594,0.00027680397033691406,0.0006496906280517578,0
0.8993768692016602,-0.16942742466926575,-0.06723806262016296,0.4239262640476227,-0.02501588953581508,-0.840056905576637,0.012380067563372088,-0.23790331383310795,0.031214544144418623,0.0,0.0,-0.6,0.0,0.00017690658569335938,0.0003082752227783203,0.0007491111755371094,0
0.909548282623291,-0.16941946744918823,-0.06719302386045456,0.4231662452220917,-0.025014394029386024,-0.8399781100939699,0.012176122612777255,-0.23793625361991372,0.031230578662112794,0.0,0.0,-0.6,0.0,0.0002818107604980469,0.0005221366882324219,0.0010724067687988281,0
0.9194836616516113,-0.16941404342651367,-0.06714645773172379,0.422450989484787,-0.025014869695312573,-0.8398961077613268,0.011982856181970734,-0.2380018750888347,0.03124198119922117,0.0,0.0,-0.6,0.0,0.0002689361572265625,0.0004885196685791016,0.0010464191436767578,0
0.9296543598175049,-0.16940990090370178,-0.06705238670110703,0.4211467206478119,-0.025065821519046416,-0.8397900884591734,0.011749347857178714,-0.23813743023054346,0.03126906990909723,0.0,0.0,-0.6,0.0,0.00028634071350097656,0.0005128383636474609,0.001111745834350586,0
0.9394345283508301,-0.16941183805465698,-0.06700371205806732,0.4205545485019684,-0.02507270967497808,-0.8396869648471799,0.011543915082324548,-0.23824429223339103,0.031290615064484856,0.0,0.0,-0.6,0.0,0.00027942657470703125,0.0005102157592773438,0.0010793209075927734,0
0.9494736194610596,-0.16941627860069275,-0.0669538676738739,0.4200015366077423,-0.025091052637430077,-0.8395900808657651,0.011323973095611025,-0.23831432271219918,0.031312575284175664,0.0,0.0,-0.6,0.0,0.00017333030700683594,0.0003085136413574219,0.0007696151733398438,0
0.9594576358795166,-0.16942279040813446,-0.06690389662981033,0.4194866716861725,-0.02511142039753079,-0.8394969288291063,0.01115535982288287,-0.23837404332871762,0.031335585347997,0.0,0.0,-0.6,0.0,0.00016069412231445312,0.00028228759765625,0.0007121562957763672,0
0.9695034027099609,-0.16943895816802979,-0.066800557076931,0.41855040192604065,-0.025118911470026973,-0.8393988161521109,0.010855895928387118,-0.238297896349889,0.031354501544858006,0.0,0.0,-0.6,0.0,0.00015664100646972656,0.0002741813659667969,0.0006730556488037109,0
0.9793691635131836,-0.16944850981235504,-0.06674686819314957,0.41812920570373535,-0.025134004472620142,-0.8393087318069075,0.010554299001013883,-0.2382660737808972,0.031373402758633144,0.0,0.0,-0.6,0.0,0.00017023086547851562,0.0002944469451904297,0.0007152557373046875,0
0.9894571304321289,-0.169459730386734,-0.06669308245182037,0.41774287819862366,-0.025153306205242552,-0.8392270186836122,0.010263382162418377,-0.2382758437383314,0.031393871758009145,0.0,0.0,-0.6,0.0,0.00014472007751464844,0.0002579689025878906,0.000583648681640625,0
0.9993805885314941,-0.16949030756950378,-0.06657915562391281,0.4170735776424408,-0.02516820789219935,-0.8391474617165199,0.009926625162718507,-0.23822954813422245,0.03141378819018114,0.0,0.0,-0.6,0.0,0.0001735687255859375,0.0002949237823486328,0.0007293224334716797,0
1.0095643997192383,-0.16950614750385284,-0.06652016937732697,0.4167882800102234,-0.02520604133688091,-0.839079038714444,0.009624023266464107,-0.23812267088223543,0.03144191723445712,0.0,0.0,-0.6,0.0,0.0001766681671142578,0.00029850006103515625,0.0007836818695068359,0
1.0194363594055176,-0.16952291131019592,-0.06646156311035156,0.4165351986885071,-0.025235687945759342,-0.8390181388964931,0.009435293476843113,-0.2380713959138007,0.03147272504377972,0.0,0.0,-0.6,0.0,0.0001609325408935547,0.00027489662170410156,0.0006492137908935547,0
1.0294694900512695,-0.16954031586647034,-0.06640329957008362,0.41631221771240234,-0.02524148497515175,-0.8389615577919962,0.00920300184761715,-0.23802572333841113,0.031496464396327695,0.0,0.0,-0.6,0.0,0.0001666545867919922,0.00028777122497558594,0.0007159709930419922,0
1.0394821166992188,-0.16955730319023132,-0.0663435086607933,0.4161180257797241,-0.02524902694583003,-0.8389092437136192,0.008917925984490592,-0.23793848565405235,0.031515910182115636,0.0,0.0,-0.6,0.0,0.00016164779663085938,0.0002865791320800781,0.0007266998291015625,0
1.0495052337646484,-0.16959121823310852,-0.06621983647346497,0.41581833362579346,-0.02528453261614509,-0.8388639551492857,0.008552388308745298,-0.23789327914100467,0.03154283685853534,0.0,0.0,-0.6,0.0,0.000156402587890625,0.0002758502960205078,0.0006906986236572266,0
1.0593559741973877,-0.16961348056793213,-0.06615665555000305,0.4157109260559082,-0.02528498604822638,-0.8388254292742789,0.008231233713047596,-0.2378976139195078,0.03156185556905962,0.0,0.0,-0.6,0.0,0.000164031982421875,0.0002884864807128906,0.0006952285766601562,0
1.0693998336791992,-0.16963724792003632,-0.06609399616718292,0.41563042998313904,-0.025288452281367862,-0.8387924871793084,0.008024409568990525,-0.23787425215712887,0.03157646850385468,0.0,0.0,-0.6,0.0,0.00015687942504882812,0.00027823448181152344,0.0006954669952392578,0
1.079361915588379,-0.16968823969364166,-0.06596936285495758,0.4155484735965729,-0.025280939527580086,-0.8387688563424007,0.007792971838878227,-0.23783777738372883,0.0315838802755408,0.0,0.0,-0.6,0.0,0.00016951560974121094,0.0002894401550292969,0.0006909370422363281,0
1.111788272857666,-0.1697138547897339,-0.06590660661458969,0.4155462682247162,-0.02527338970218272,-0.8387500727249344,0.007607898767556306,-0.23776869232277623,0.03158623733119708,0.0,0.0,-0.6,0.0,0.0001678466796875,0.00030350685119628906,0.0007257461547851562,0
1.1193315982818604,-0.16979917883872986,-0.06571206450462341,0.41568803787231445,-0.025320988749108535,-0.8387393829949336,0.007239863452074811,-0.23775051148294804,0.031605736912753674,0.0,0.0,-0.6,0.0,0.000156402587890625,0.0002760887145996094,0.0006403923034667969,0
1.1294376850128174,-0.1698596179485321,-0.06557314842939377,0.4159031808376312,-0.025313894824990423,-0.8387361284265122,0.006819186210794274,-0.23775852723166802,0.031616726398298975,0.0,0.0,-0.6,0.0,0.0001595020294189453,0.0002779960632324219,0.0006823539733886719,0
1.1394572257995605,-0.16989125311374664,-0.06550025939941406,0.41604354977607727,-0.025322749622420888,-0.8387402448671532,0.006412411308296367,-0.23770948970531533,0.03162773958721711,0.0,0.0,-0.6,0.0,0.0001685619354248047,0.00029277801513671875,0.0007131099700927734,0
1.1494853496551514,-0.16992293298244476,-0.06542522460222244,0.4162045121192932,-0.02534814375555641,-0.8387446640577005,0.006029933190058312,-0.23770039105246893,0.03164497161938562,0.0,0.0,-0.6,0.0,0.00015664100646972656,0.00028014183044433594,0.0006761550903320312,0
1.159350872039795,-0.1699865162372589,-0.06527101248502731,0.41658157110214233,-0.02536087955926843,-0.8387518800617865,0.005504018783099243,-0.23766162185037665,0.03166180996829559,0.0,0.0,-0.6,0.0,0.0001685619354248047,0.0002932548522949219,0.0006935596466064453,0
1.169584035873413,-0.17001783847808838,-0.0651903972029686,0.41679465770721436,-0.02534531272430621,-0.8387399192470489,0.005084789560874476,-0.23749210853862093,0.031667759249421744,0.0,0.0,-0.6,0.0,0.00016570091247558594,0.0002906322479248047,0.0007443428039550781,0
1.1793253421783447,-0.17004556953907013,-0.06510936468839645,0.41698789596557617,-0.025336505275576415,-0.8385597124666078,0.004610959641246597,-0.23674264710816884,0.03166862095293638,0.0,0.0,-0.6,0.0,0.00018262863159179688,0.0003223419189453125,0.0007405281066894531,0
1.1895058155059814,-0.1700686365365982,-0.06502532213926315,0.41707590222358704,-0.02531923208775699,-0.8380818275638454,0.0039793292580650895,-0.23500541396563937,0.03166274669996434,0.0,0.0,-0.6,0.0,0.0001766681671142578,0.0003132820129394531,0.0007166862487792969,0
1.1995034217834473,-0.17010927200317383,-0.06484389305114746,0.4167971909046173,-0.025302736567316905,-0.8368005775599396,0.002727046012215435,-0.22993765906263622,0.031652448902718885,0.0,0.0,-0.6,0.0,0.00017261505126953125,0.0003113746643066406,0.0007252693176269531,0
1.2093870639801025,-0.1701231300830841,-0.06474619358778,0.4163879156112671,-0.025257675851232717,-0.8352608141625194,0.0015254758633058661,-0.2240703904038442,0.0316283426761155,0.0,0.0,-0.6,0.0,0.00015735626220703125,0.0002760887145996094,0.0006697177886962891,0
1.219447135925293,-0.1701231300830841,-0.06474619358778,0.4163879156112671,-0.025257675851232717,-0.8340051415154609,0.0008357016895555208,-0.22043731827237822,0.031611468317493126,0.0,0.0,-0.6,0.0,0.0001621246337890625,0.0002903938293457031,0.0007455348968505859,0
1.2295000553131104,-0.17013341188430786,-0.06454049795866013,0.4149889051914215,-0.02508028005205511,-0.8319533242563422,-0.0004937175851023242,-0.21190472606028618,0.0315331328417659,0.0,0.0,-0.6,0.0,0.00016379356384277344,0.0002856254577636719,0.0006742477416992188,0
1.239469051361084,-0.17013341188430786,-0.06454049795866013,0.4149889051914215,-0.02508028005205511,-0.8302769349307124,-0.0012252861290225822,-0.20658552347163983,0.03147829800875682,0.0,0.0,-0.6,0.0,0.0001552104949951172,0.0002741813659667969,0.0006947517395019531,0
1.2496109008789062,-0.1700977087020874,-0.06419046968221664,0.411397784948349,-0.02472957321135704,-0.8273207542791771,-0.0031176070521137717,-0.19225323158091337,0.031308398560388764,0.0,0.0,-0.6,0.0,0.00016546249389648438,0.0002911090850830078,0.0007808208465576172,0
1.2593894004821777,-0.1700977087020874,-0.06419046968221664,0.411397784948349,-0.02472957321135704,-0.8248953771507114,-0.004158331916389955,-0.18322711873118758,0.031189468946531095,0.0,0.0,-0.6,0.0,0.00015664100646972656,0.0002760887145996094,0.0006372928619384766,0
1.2694871425628662,-0.16994720697402954,-0.06414802372455597,0.40665069222450256,-0.024449125685854816,-0.8218126225122735,-0.0054841055450276475,-0.16975471219652563,0.03100105039476743,0.0,0.0,-0.6,0.0,0.00015664100646972656,0.0002758502960205078,0.0006728172302246094,0
1.2794711589813232,-0.16994720697402954,-0.06414802372455597,0.40665069222450256,-0.024449125685854816,-0.8192911878514223,-0.006122189211340588,-0.1613691195825173,0.030869157408532716,0.0,0.0,-0.6,0.0,0.00018405914306640625,0.0003218650817871094,0.0007712841033935547,0
1.2893431186676025,-0.16951027512550354,-0.06434118747711182,0.3962664008140564,-0.024030633738904364,-0.8155369190993669,-0.00752587696057861,-0.14378597654644765,0.03061989783806196,0.0,0.0,-0.6,0.0,0.00015878677368164062,0.0002777576446533203,0.0006456375122070312,0
1.2995634078979492,-0.16951027512550354,-0.06434118747711182,0.3962664008140564,-0.024030633738904364,-0.8124613758969879,-0.00815948651328855,-0.13280260484657366,0.030445416138732456,0.0,0.0,-0.6,0.0,0.00016260147094726562,0.00029277801513671875,0.0007660388946533203,0
1.3093512058258057,-0.16915008425712585,-0.06442416459321976,0.3885815441608429,-0.02371987371635148,-0.8088425960528174,-0.008963425437716263,-0.11761957140948034,0.030206743940744556,0.0,0.0,-0.6,0.0,0.00014209747314453125,0.00025653839111328125,0.000579833984375,0
1.319549798965454,-0.16915008425712585,-0.06442416459321976,0.3885815441608429,-0.02371987371635148,-0.8058888977172407,-0.00919285048063862,-0.10823540402790581,0.03003967340215302,0.0,0.0,-0.6,0.0,0.00016236305236816406,0.00028514862060546875,0.0007433891296386719,0
1.329638957977295,-0.16846637427806854,-0.06449881196022034,0.37597617506980896,-0.02313313346973444,-0.801858857177796,-0.009634355995738288,-0.08962236363611809,0.029702696432657424,0.0,0.0,-0.6,0.0,0.00017070770263671875,0.00029468536376953125,0.0007684230804443359,0
1.339451789855957,-0.16846637427806854,-0.06449881196022034,0.37597617506980896,-0.02313313346973444,-0.7985655629802989,-0.009577968276870939,-0.07800963123553466,0.029466812554010437,0.0,0.0,-0.6,0.0,0.00016808509826660156,0.0002906322479248047,0.0006999969482421875,0
1.349355936050415,-0.16789491474628448,-0.06451749056577682,0.36689648032188416,-0.022764270484168885,-0.7948341358609364,-0.009745765837545814,-0.06253588292026992,0.02916337021937081,0.0,0.0,-0.6,0.0,0.00015997886657714844,0.00028324127197265625,0.0006840229034423828,0
1.359649896621704,-0.16789491474628448,-0.06451749056577682,0.36689648032188416,-0.022764270484168885,-0.7917961421265041,-0.009522309951502167,-0.05296082483829107,0.028950960585122833,0.0,0.0,-0.6,0.0,0.00030493736267089844,0.0005571842193603516,0.0012290477752685547,0
1.3694703578948975,-0.16686971485614777,-0.06449201703071594,0.3523361384868622,-0.022194208965111886,-0.7878060656297582,-0.009666825821597393,-0.035229304174256,0.028588500771502833,0.0,0.0,-0.6,0.0,0.00024962425231933594,0.0004553794860839844,0.0009846687316894531,0
1.3796422481536865,-0.16686971485614777,-0.06449201703071594,0.3523361384868622,-0.022194208965111886,-0.7845566983764845,-0.00940509483907453,-0.024163783861820394,0.028334778901968973,0.0,0.0,-0.6,0.0,0.00026869773864746094,0.0004856586456298828,0.0011093616485595703,0
1.3895385265350342,-0.16614824533462524,-0.06444816291332245,0.34205156564712524,-0.0217648259607794,-0.7809409558026307,-0.009168621028312325,-0.009820864567739179,0.0279961549666706,0.0,0.0,-0.6,0.0,0.00024700164794921875,0.0004687309265136719,0.0009679794311523438,0
1.399932861328125,-0.16540788114070892,-0.06438787281513214,0.3313506245613098,-0.021341102611474854,-0.777056505538428,-0.008861853109860068,0.0059483148625836,0.027600221955972715,0.0,0.0,-0.6,0.0,0.0002472400665283203,0.00044989585876464844,0.0009779930114746094,0
1.4096229076385498,-0.16499675810337067,-0.06434978544712067,0.3258550763130188,-0.02110486164847942,-0.7734434358484414,-0.008517825623599226,0.019203466630598923,0.02723447848736073,0.0,0.0,-0.6,0.0,0.00015592575073242188,0.00027060508728027344,0.0007293224334716797,0
1.4195053577423096,-0.1645546853542328,-0.06430517137050629,0.3202657401561737,-0.02090338629605008,-0.770060593624023,-0.00810639662554417,0.030626358796352907,0.026902904802171192,0.0,0.0,-0.6,0.0,0.00013899803161621094,0.00024819374084472656,0.0005857944488525391,0
1.429414987564087,-0.16408269107341766,-0.06425663083791733,0.3145871162414551,-0.020711558361725616,-0.7668785766742157,-0.0075169188414807,0.040809971599227945,0.026598867747166847,0.0,0.0,-0.6,0.0,0.00014591217041015625,0.00025963783264160156,0.0006234645843505859,0
1.4395456314086914,-0.16304609179496765,-0.06414800882339478,0.30298149585723877,-0.020310436558013192,-0.763449383477931,-0.007006870243025645,0.052980997398910476,0.02623562113227163,0.0,0.0,-0.6,0.0,0.00015878677368164062,0.0002830028533935547,0.0007269382476806641,0
1.4493846893310547,-0.16248171031475067,-0.06408574432134628,0.29706457257270813,-0.020093919319975364,-0.7602625976884974,-0.00650406178326535,0.0633080881718893,0.025900154537580943,0.0,0.0,-0.6,0.0,0.00014591217041015625,0.0002593994140625,0.0006074905395507812,0
1.4594111442565918,-0.16188614070415497,-0.06401852518320084,0.2910771667957306,-0.019897452326178636,-0.7572857968329463,-0.0058968448620613225,0.07236773987984128,0.025591652798623556,0.0,0.0,-0.6,0.0,0.00015401840209960938,0.0002677440643310547,0.0006537437438964844,0
1.469501256942749,-0.16125980019569397,-0.06394709646701813,0.2850237786769867,-0.01968018095241215,-0.7544878330182482,-0.005237017027462119,0.08040761752129855,0.025294224816190956,0.0,0.0,-0.6,0.0,0.0001437664031982422,0.0002522468566894531,0.0006003379821777344,0
1.4793710708618164,-0.15991270542144775,-0.0637948289513588,0.27274683117866516,-0.019214151120685353,-0.7514717421361489,-0.004615963084108771,0.08992270635459815,0.024911264041590726,0.0,0.0,-0.6,0.0,0.0001499652862548828,0.00026416778564453125,0.0006437301635742188,0
1.4896247386932373,-0.15919099748134613,-0.06371396780014038,0.26652640104293823,-0.01898323792782228,-0.7486748452582193,-0.003979483538207972,0.09798169179910121,0.02455659905204691,0.0,0.0,-0.6,0.0,0.00016450881958007812,0.00029015541076660156,0.0007066726684570312,0
1.4993250370025635,-0.1584397256374359,-0.06362979114055634,0.2602563500404358,-0.018773528324622434,-0.7460655674497467,-0.003354850961554864,0.1049476481393318,0.02422969245816615,0.0,0.0,-0.6,0.0,0.0001437664031982422,0.00025963783264160156,0.0006096363067626953,0
1.5094976425170898,-0.15765884518623352,-0.06354183703660965,0.25394004583358765,-0.01858375598140795,-0.7436165570032053,-0.0027269313201812246,0.11114165351737663,0.023929693213744194,0.0,0.0,-0.6,0.0,0.00015497207641601562,0.0002684593200683594,0.0006518363952636719,0
1.5193588733673096,-0.15600527822971344,-0.0633581206202507,0.24118296802043915,-0.01816567755013562,-0.740970516780401,-0.0019950699616709407,0.11847967853399087,0.023562914330921683,0.0,0.0,-0.6,0.0,0.00016260147094726562,0.0002875328063964844,0.0007357597351074219,0
1.5294971466064453,-0.15513388812541962,-0.06326379626989365,0.23474793136119843,-0.017957702834058717,-0.7385186952042819,-0.0012006808930721822,0.1245993914547348,0.02322817859441724,0.0,0.0,-0.6,0.0,0.00014781951904296875,0.0002627372741699219,0.0006470680236816406,0
1.5393517017364502,-0.1542341560125351,-0.06316669285297394,0.22828039526939392,-0.017740823047555795,-0.7362333218056252,-0.0004951704979235741,0.12982979250838098,0.02291253365892567,0.0,0.0,-0.6,0.0,0.00016379356384277344,0.00028061866760253906,0.0006687641143798828,0
1.5494484901428223,-0.15330363810062408,-0.06306643784046173,0.2217855304479599,-0.01752511395520456,-0.7340943187089629,0.0001544827883895077,0.13432903108464564,0.02261069129444972,0.0,0.0,-0.6,0.0,0.00013780593872070312,0.00024700164794921875,0.0005807876586914062,0
1.559349536895752,-0.15136343240737915,-0.06285667419433594,0.20872198045253754,-0.017103448641855312,-0.7317877396447676,0.0006574426226414656,0.13926526445090204,0.022241277146810273,0.0,0.0,-0.6,0.0,0.00015282630920410156,0.00027108192443847656,0.0006399154663085938,0
1.5696537494659424,-0.1503530889749527,-0.06274723261594772,0.2021588236093521,-0.016903743207470023,-0.7296560127731615,0.0011727369904631327,0.1432626840874679,0.02190779770556835,0.0,0.0,-0.6,0.0,0.00015997886657714844,0.0002772808074951172,0.0007576942443847656,0
1.579301118850708,-0.14931781589984894,-0.06263665854930878,0.19557888805866241,-0.016681818339576927,-0.7276725946882412,0.0017332795421237481,0.14649339820289325,0.021591140271239095,0.0,0.0,-0.6,0.0,0.00013947486877441406,0.0002491474151611328,0.0005600452423095703,0
1.5895235538482666,-0.14871838688850403,-0.06250637024641037,0.1889873892068863,-0.016471703987028397,-0.7258157611435067,0.002268219224652256,0.1487932951375202,0.021290687185003054,0.0,0.0,-0.6,0.0,0.00015544891357421875,0.0002803802490234375,0.0006592273712158203,0
1.5993640422821045,-0.14808805286884308,-0.06237481161952019,0.18238407373428345,-0.016283590222037684,-0.7240685683141128,0.0027427587692338807,0.15033582017297503,0.021009827362766305,0.0,0.0,-0.6,0.0,0.0001575946807861328,0.0002791881561279297,0.0007309913635253906,0
1.6094744205474854,-0.1467401534318924,-0.06210729852318764,0.16915330290794373,-0.015878748769095456,-0.7221767542139786,0.0030090270798193834,0.15113952114711776,0.020661409942347102,0.0,0.0,-0.6,0.0,0.00015211105346679688,0.0002644062042236328,0.00064849853515625,0
1.6193664073944092,-0.14602130651474,-0.06196918711066246,0.16253414750099182,-0.015680671149015744,-0.7204254488802022,0.0031680701706855016,0.1513683559899529,0.020343238640523918,0.0,0.0,-0.6,0.0,0.00015234947204589844,0.00027060508728027344,0.0006337165832519531,0
1.62941575050354,-0.14527647197246552,-0.061828870326280594,0.15591400861740112,-0.015485118840012793,-0.7187984540164495,0.0033181590461232808,0.15115255122762233,0.020047186613371577,0.0,0.0,-0.6,0.0,0.0001461505889892578,0.00026106834411621094,0.0006473064422607422,0
1.6393461227416992,-0.14450719952583313,-0.06168733164668083,0.14929601550102234,-0.015287901516628035,-0.7172760221930363,0.003487303901775677,0.1505339509455576,0.019765993698095778,0.0,0.0,-0.6,0.0,0.0001556873321533203,0.0002732276916503906,0.0006651878356933594,0
1.6496117115020752,-0.1428997814655304,-0.06139622628688812,0.13606855273246765,-0.014971692403028078,-0.7156283646595301,0.0034032616711886744,0.14905201312166752,0.019450580239802753,0.0,0.0,-0.6,0.0,0.00016117095947265625,0.00028634071350097656,0.0007703304290771484,0
1.659315586090088,-0.14206093549728394,-0.06124872341752052,0.12946368753910065,-0.014774283065262517,-0.7141100886086578,0.003455386286335008,0.1474409219476073,0.019155762317335283,0.0,0.0,-0.6,0.0,0.0001468658447265625,0.0002562999725341797,0.000598907470703125,0
1.6695098876953125,-0.14124271273612976,-0.06131824851036072,0.12217655032873154,-0.01459346988086948,-0.7126788691951361,0.0036826232289306165,0.1456484619491299,0.01888158482746067,0.0,0.0,-0.6,0.0,0.00014638900756835938,0.0002570152282714844,0.0006289482116699219,0
1.6792986392974854,-0.13953955471515656,-0.06143668666481972,0.10769124329090118,-0.014258457973331792,-0.7111199102727902,0.0038318609755091915,0.14296323069623557,0.018564031119222002,0.0,0.0,-0.6,0.0,0.00015687942504882812,0.00027632713317871094,0.0006580352783203125,0
1.6895115375518799,-0.13865715265274048,-0.06148454174399376,0.10049552470445633,-0.01409835477584608,-0.7096762172849524,0.004118224819085687,0.1403312538910051,0.01828170482439784,0.0,0.0,-0.6,0.0,0.00015163421630859375,0.0002689361572265625,0.0006148815155029297,0
1.6995091438293457,-0.13775548338890076,-0.0615275613963604,0.09333363175392151,-0.013946325099403144,-0.7083308257721094,0.004509163684925295,0.13762417596220375,0.01802706528935459,0.0,0.0,-0.6,0.0,0.00015592575073242188,0.0002720355987548828,0.0006666183471679688,0
1.709470510482788,-0.13683608174324036,-0.061566319316625595,0.08620762825012207,-0.013819709376085695,-0.70707539782039,0.005026196612886991,0.13481960708820726,0.017801336718580477,0.0,0.0,-0.6,0.0,0.00014781951904296875,0.0002658367156982422,0.0006270408630371094,0
1.7194371223449707,-0.1349485218524933,-0.06163286417722702,0.07206671684980392,-0.013542021610370837,-0.7057282651098868,0.005679878740440623,0.13085381686583936,0.01753919380689532,0.0,0.0,-0.6,0.0,0.00015401840209960938,0.00026917457580566406,0.0006608963012695312,0
1.7295763492584229,-0.13398271799087524,-0.06166141852736473,0.06505382061004639,-0.013406536723086893,-0.7044851788377489,0.006404112329186416,0.12704805774873493,0.01730488693598439,0.0,0.0,-0.6,0.0,0.0001723766326904297,0.00031566619873046875,0.0007872581481933594,0
1.7393405437469482,-0.13300321996212006,-0.061687905341386795,0.058080609887838364,-0.01327531671153563,-0.7033336362532476,0.00715745019369577,0.12341647310017276,0.01709166462201487,0.0,0.0,-0.6,0.0,0.00016260147094726562,0.0002791881561279297,0.0006537437438964844,0
1.7494211196899414,-0.13200977444648743,-0.06171148642897606,0.051148492842912674,-0.01315761617420138,-0.702261906768844,0.007800551326371051,0.1198484764880146,0.016898271300736036,0.0,0.0,-0.6,0.0,0.00015878677368164062,0.00028252601623535156,0.0007002353668212891,0
1.7593612670898438,-0.13100498914718628,-0.061731647700071335,0.044259048998355865,-0.013043945877974587,-0.7012624633873925,0.008481758846969924,0.11620864762638705,0.01672026961475564,0.0,0.0,-0.6,0.0,0.000164031982421875,0.0002868175506591797,0.0006937980651855469,0
1.7694945335388184,-0.12999162077903748,-0.06175015866756439,0.03741110488772392,-0.01293299029993498,-0.7003247771418116,0.009115258678603187,0.11263242181125008,0.016554060092804516,0.0,0.0,-0.6,0.0,0.000152587890625,0.00026726722717285156,0.0006568431854248047,0
1.7793214321136475,-0.127930149435997,-0.06177648529410362,0.02384943887591362,-0.012690673854778721,-0.6993218606391134,0.009579867438737084,0.10798638646915408,0.016346844760505255,0.0,0.0,-0.6,0.0,0.0001735687255859375,0.0002949237823486328,0.0007097721099853516,0
1.789458990097046,-0.12688446044921875,-0.06178399547934532,0.01713758334517479,-0.012567095242173957,-0.6983948869196707,0.010005281354473127,0.10376730541151352,0.016155452048168855,0.0,0.0,-0.6,0.0,0.0001621246337890625,0.0002853870391845703,0.0006685256958007812,0
1.7993383407592773,-0.12476874887943268,-0.061788301914930344,0.0038524754345417023,-0.012278965192622995,-0.6974235152151621,0.01017818234551152,0.09854844628652606,0.015913428380951906,0.0,0.0,-0.6,0.0,0.00014710426330566406,0.0002601146697998047,0.0006351470947265625,0
1.8094289302825928,-0.12370053678750992,-0.06178351864218712,-0.002718673786148429,-0.012139380824214202,-0.6965403839261979,0.0102692132903682,0.09377607305299393,0.015691667675746594,0.0,0.0,-0.6,0.0,0.00018978118896484375,0.00032329559326171875,0.0007655620574951172,0
1.8193447589874268,-0.12262700498104095,-0.06177401915192604,-0.009241251274943352,-0.0120088155338966,-0.6957272323997326,0.010319755931645115,0.08936085700322845,0.015487473198233733,0.0,0.0,-0.6,0.0,0.0001685619354248047,0.0002880096435546875,0.0006704330444335938,0
1.829500675201416,-0.12154794484376907,-0.06176023930311203,-0.015715843066573143,-0.011877762097065318,-0.6949753798326141,0.010309028056956942,0.0852186346091201,0.015295392025163048,0.0,0.0,-0.6,0.0,0.0001628398895263672,0.000286102294921875,0.000690460205078125,0
1.8393886089324951,-0.12046101689338684,-0.06174314767122269,-0.02216554805636406,-0.01171247326932837,-0.6942842013891515,0.01036315295571492,0.08118723301065664,0.015098951893612298,0.0,0.0,-0.6,0.0,0.0001728534698486328,0.00031638145446777344,0.0007660388946533203,0
1.8494932651519775,-0.11827864497900009,-0.061699409037828445,-0.03490808233618736,-0.011414154339368359,-0.6935644771086017,0.010276444085551315,0.07600180465653192,0.014849574202791668,0.0,0.0,-0.6,0.0,0.00015854835510253906,0.00027751922607421875,0.0006632804870605469,0
1.8593533039093018,-0.11718530207872391,-0.061671167612075806,-0.0412011556327343,-0.01128096624229816,-0.69290435585553,0.01012220494041984,0.07130916767322072,0.014625064282816007,0.0,0.0,-0.6,0.0,0.0001571178436279297,0.0002884864807128906,0.0007040500640869141,0
1.8694660663604736,-0.11609063297510147,-0.06163797900080681,-0.047442156821489334,-0.011147097681416957,-0.6922949994589248,0.009850082287964483,0.06698104583452236,0.014417706628502546,0.0,0.0,-0.6,0.0,0.00015664100646972656,0.000278472900390625,0.0006623268127441406,0
1.8793723583221436,-0.11389445513486862,-0.06155935302376747,-0.0597708597779274,-0.010861255440859433,-0.6916613543513859,0.00942105470675854,0.06205510936225539,0.014165365430274158,0.0,0.0,-0.6,0.0,0.0001590251922607422,0.0002791881561279297,0.0006556510925292969,0
1.8897209167480469,-0.11279446631669998,-0.061515092849731445,-0.06585472822189331,-0.010716961939568618,-0.6910889649786748,0.009020738804422385,0.0576615553242767,0.013934616528530073,0.0,0.0,-0.6,0.0,0.00017261505126953125,0.0003044605255126953,0.0007259845733642578,0
1.8993549346923828,-0.11169373989105225,-0.06146784871816635,-0.07188499718904495,-0.010560385984171207,-0.690565881126004,0.008610758300173745,0.05369838836751174,0.013714376314035282,0.0,0.0,-0.6,0.0,0.00015401840209960938,0.0002753734588623047,0.0006337165832519531,0
1.9094297885894775,-0.11059760302305222,-0.06141854077577591,-0.07786578685045242,-0.010419190732067608,-0.6900873658191354,0.00820479886617826,0.05003290359422188,0.013507259944350033,0.0,0.0,-0.6,0.0,0.0001590251922607422,0.0002772808074951172,0.0006728172302246094,0
1.919569492340088,-0.1084069311618805,-0.06131167709827423,-0.08966363966464996,-0.01014743044294991,-0.6896024398072358,0.007654997041990066,0.045673026205202395,0.013260368377151164,0.0,0.0,-0.6,0.0,0.000156402587890625,0.00027942657470703125,0.0006878376007080078,0
1.9294939041137695,-0.10731562972068787,-0.061253633350133896,-0.09547851979732513,-0.01001626855363435,-0.6891700701474878,0.0071314038683849435,0.041730697794603165,0.013038358571618629,0.0,0.0,-0.6,0.0,0.00015473365783691406,0.0002713203430175781,0.00066375732421875,0
1.9397034645080566,-0.10622722655534744,-0.06119102984666824,-0.10123764723539352,-0.009912389504700065,-0.6887778432919525,0.006506848283762535,0.03818880578931043,0.01284399706439559,0.0,0.0,-0.6,0.0,0.0001666545867919922,0.00029087066650390625,0.0006780624389648438,0
1.9494209289550781,-0.10514041036367416,-0.061124324798583984,-0.10694094002246857,-0.009766702660043595,-0.6884250625005326,0.0059837458318906115,0.034987811253099715,0.012653311442593287,0.0,0.0,-0.6,0.0,0.00015020370483398438,0.00026798248291015625,0.0006122589111328125,0
1.9594898223876953,-0.10297755897045135,-0.06098514422774315,-0.11818014085292816,-0.009500797590515194,-0.6880662896636136,0.005334868948384977,0.031182195077951988,0.01242011710625853,0.0,0.0,-0.6,0.0,0.00015401840209960938,0.0002734661102294922,0.0006697177886962891,0
1.9694223403930664,-0.10190223157405853,-0.06091165542602539,-0.12371745705604553,-0.009378369235057095,-0.6877437931370308,0.004748750459286595,0.027802095606758784,0.012210970437527363,0.0,0.0,-0.6,0.0,0.00017881393432617188,0.0003135204315185547,0.0007650852203369141,0
1.9793424606323242,-0.10083292424678802,-0.06083589419722557,-0.12919659912586212,-0.009270468597895945,-0.6874580417268753,0.00420239471802597,0.02466348780429087,0.012024105030480077,0.0,0.0,-0.6,0.0,0.0001609325408935547,0.000286102294921875,0.0006561279296875,0
1.9893577098846436,-0.09976889938116074,-0.06075626239180565,-0.13461974263191223,-0.009164790462058554,-0.6872002469425119,0.003615736802012567,0.021756634893840526,0.011853669944607997,0.0,0.0,-0.6,0.0,0.00015497207641601562,0.00027179718017578125,0.0006330013275146484,0
1.9993863105773926,-0.09765669703483582,-0.06058344617486,-0.14529721438884735,-0.008957479403200026,-0.6869520124438456,0.002888845127946917,0.018348543376909457,0.01165662373742559,0.0,0.0,-0.6,0.0,0.00017023086547851562,0.0002982616424560547,0.0006940364837646484,0
2.0093376636505127,-0.09660955518484116,-0.06049275025725365,-0.15055112540721893,-0.008852792446610688,-0.6867355782485981,0.0022556522898180354,0.015461765145176632,0.011479433783676907,0.0,0.0,-0.6,0.0,0.0001621246337890625,0.0002868175506591797,0.0006563663482666016,0
2.019362449645996,-0.09556737542152405,-0.06039842963218689,-0.15574869513511658,-0.008734078785430418,-0.6865439549324995,0.001627417473070913,0.012924161651461975,0.011310883193110228,0.0,0.0,-0.6,0.0,0.00017404556274414062,0.0003020763397216797,0.0007023811340332031,0
2.029386281967163,-0.0945315808057785,-0.06030188128352165,-0.160890594124794,-0.008633303578452996,-0.6863755344979557,0.0010608804512364579,0.010602902900520638,0.01115510707709702,0.0,0.0,-0.6,0.0,0.00015497207641601562,0.0002741813659667969,0.0006253719329833984,0
2.039348840713501,-0.09350239485502243,-0.06020099297165871,-0.1659761369228363,-0.008530157749205815,-0.6862312629155155,0.00032101772413332464,0.008495888205196027,0.011007384109920115,0.0,0.0,-0.6,0.0,0.00015997886657714844,0.0002875328063964844,0.0006783008575439453,0
2.0494580268859863,-0.09247995167970657,-0.06009555235505104,-0.1710047572851181,-0.008429588844739676,-0.6861078380698035,-0.00033095163811309677,0.006579690701761135,0.010866264693721478,0.0,0.0,-0.6,0.0,0.0001678466796875,0.00029778480529785156,0.0007660388946533203,0
2.0593416690826416,-0.09046052396297455,-0.05987687036395073,-0.18088077008724213,-0.00826906554029578,-0.6860092086168552,-0.0010015845853736417,0.00443904257072553,0.010707284863215974,0.0,0.0,-0.6,0.0,0.00015306472778320312,0.0002703666687011719,0.0006406307220458984,0
2.0694141387939453,-0.08906961977481842,-0.059996359050273895,-0.18707871437072754,-0.008187988526185835,-0.6858815994265973,-0.0013436720392850025,0.0028688726354125994,0.010565595101570888,0.0,0.0,-0.6,0.0,0.0001647472381591797,0.0002875328063964844,0.0006682872772216797,0
2.0793466567993164,-0.08633653819561005,-0.06021646037697792,-0.19920620322227478,-0.008025783181017163,-0.6856891608675139,-0.0015454556482856173,0.001576802605580602,0.010405585263981044,0.0,0.0,-0.6,0.0,0.00018310546875,0.0003104209899902344,0.0007121562957763672,0
2.089508295059204,-0.08499245345592499,-0.06031626835465431,-0.2051389366388321,-0.007941669856530362,-0.6854954142207942,-0.0016976566770131609,0.0007290133795239059,0.010262035880985605,0.0,0.0,-0.6,0.0,0.00015664100646972656,0.0002720355987548828,0.0006392002105712891,0
2.0993876457214355,-0.08366075903177261,-0.06040859967470169,-0.21098369359970093,-0.007854520458050025,-0.6853096232109036,-0.0017626538582392662,0.00032217343767945657,0.010128870288458642,0.0,0.0,-0.6,0.0,0.00016260147094726562,0.00028252601623535156,0.0006921291351318359,0
2.1093966960906982,-0.08234170824289322,-0.06049396097660065,-0.21674218773841858,-0.007763807445864078,-0.6851260529131343,-0.0018268425823839733,0.00011331801421767763,0.010001636994120095,0.0,0.0,-0.6,0.0,0.00015997886657714844,0.0002810955047607422,0.0006563663482666016,0
2.1193063259124756,-0.07974477112293243,-0.060643237084150314,-0.22802294790744781,-0.0075993782528773896,-0.6849185478888971,-0.0018550419645850282,3.005882313821883e-05,0.009850912740713074,0.0,0.0,-0.6,0.0,0.00016236305236816406,0.00029349327087402344,0.0007061958312988281,0
2.1294198036193848,-0.07846713066101074,-0.06070674583315849,-0.23354803025722504,-0.007537576046671956,-0.6847159007540383,-0.00193851535758367,7.491638447153456e-05,0.009722229936001097,0.0,0.0,-0.6,0.0,0.00017881393432617188,0.0003132820129394531,0.0007860660552978516,0
2.139331579208374,-0.07720328122377396,-0.060763224959373474,-0.238993838429451,-0.007468612426591273,-0.6845264789715896,-0.001937374864294841,0.0002271955939499988,0.009606290615172446,0.0,0.0,-0.6,0.0,0.00015234947204589844,0.0002689361572265625,0.0006530284881591797,0
2.1493642330169678,-0.0759536549448967,-0.06081415340304375,-0.2443590611219406,-0.007392126412172509,-0.6843552513132627,-0.0019190352078869853,0.0004498575294997598,0.009496450835185405,0.0,0.0,-0.6,0.0,0.0006697177886962891,0.0008378028869628906,0.0012621879577636719,0
2.1594178676605225,-0.07349815219640732,-0.06089796870946884,-0.2548476755619049,-0.007223883229537402,-0.684186440560343,-0.0017869371206946242,0.0008137435508313322,0.009356471795706327,0.0,0.0,-0.6,0.0,0.00030350685119628906,0.0005714893341064453,0.0011970996856689453,0
2.1695749759674072,-0.07229004055261612,-0.06093386560678482,-0.25997406244277954,-0.007128585025222837,-0.6840378031138141,-0.0015441663259783182,0.0012315501822109012,0.00922274964145301,0.0,0.0,-0.6,0.0,0.00026106834411621094,0.0004763603210449219,0.0010383129119873047,0
2.179910182952881,-0.07109551876783371,-0.060965538024902344,-0.26502344012260437,-0.007052408455337912,-0.6839046185210662,-0.0013350518961848094,0.0015818165615168623,0.009100577919768827,0.0,0.0,-0.6,0.0,0.0002720355987548828,0.0004911422729492188,0.0010576248168945312,0
2.18949556350708,-0.06991472095251083,-0.06099116429686546,-0.26999691128730774,-0.0069718827596568856,-0.6837905066661879,-0.0012554118017683107,0.0019373534347171815,0.008984860578709526,0.0,0.0,-0.6,0.0,0.00014972686767578125,0.0002696514129638672,0.0006456375122070312,0
2.1994731426239014,-0.06991472095251083,-0.06099116429686546,-0.26999691128730774,-0.0069718827596568856,-0.6836993536818672,-0.0011856819241905002,0.0021960475176744355,0.008903858439968002,0.0,0.0,-0.6,0.0,0.0001590251922607422,0.00027823448181152344,0.0006887912750244141,0
2.2095048427581787,-0.0664517804980278,-0.06103124842047691,-0.28443604707717896,-0.006751283400945924,-0.6836198799340159,-0.0012802526095040652,0.0025628878517620704,0.008764432183332326,0.0,0.0,-0.6,0.0,0.00016164779663085938,0.00028252601623535156,0.0006999969482421875,0
