time,x,y,z,yaw,throttle,roll_rate,pitch_rate,yaw_rate,x_ref,y_ref,z_ref,yaw_ref,pred_time,nr_time,metadata
7.152557373046875e-07,0.00793455634266138,-0.005460267886519432,-0.03800642490386963,-0.0025693025938562787,-0.7096821153978352,0.005092176606427428,0.00797046310512009,0.0009634884726960811,0.0,0.0,-0.6,0.0,0.0002808570861816406,0.0004677772521972656,Sim
0.009927511215209961,0.007511281408369541,-0.005498968064785004,-0.037855785340070724,-0.0025684031932751766,-0.7255125599202783,0.011738227056230822,0.013694752275434352,0.0013003721629218205,0.0,0.0,-0.6,0.0,0.0001316070556640625,0.00043201446533203125,Nonlinear
0.02008533477783203,0.007305210921913385,-0.005518579389899969,-0.03778577223420143,-0.002561682689487944,-0.7379345682503795,0.018114471188256355,0.01782941506885884,0.001752982231024258,0.0,0.0,-0.6,0.0,0.00014853477478027344,0.0005030632019042969,1stOrderHold
0.029967784881591797,0.007103384472429752,-0.005538702942430973,-0.03771819546818733,-0.0025633581866616535,-0.7470987981664581,0.023964722969258074,0.020909831049154174,0.0020299333578792335,0.0,0.0,-0.6,0.0,0.0001251697540283203,0.00040912628173828125,QuatYawError
0.04003596305847168,0.006905524060130119,-0.005559749435633421,-0.03765516355633736,-0.002562997989828556,-0.753719602989999,0.0291783731178897,0.022972289399895176,0.0022851447023019313,0.0,0.0,-0.6,0.0,0.00011777877807617188,0.00042891502380371094,NoPyJoules
0.04986095428466797,0.0065203215926885605,-0.005604361649602652,-0.03752938657999039,-0.0025541491673657405,-0.7584715906745322,0.03383708729664896,0.02409878456807744,0.002468083258825566,0.0,0.0,-0.6,0.0,9.5367431640625e-05,0.00026297569274902344,0
0.06026101112365723,0.00633124727755785,-0.005626721773296595,-0.03746650740504265,-0.0025561464644096835,-0.7618702221927881,0.037581720163658176,0.024711900199652588,0.00262218471054826,0.0,0.0,-0.6,0.0,0.00010275840759277344,0.0003123283386230469,0
0.06982636451721191,0.006143591832369566,-0.005648530554026365,-0.03740830719470978,-0.0025651347226940263,-0.7642942690944522,0.04060845887731083,0.02492818410809479,0.002743519310291096,0.0,0.0,-0.6,0.0,8.749961853027344e-05,0.0002644062042236328,0
0.0802159309387207,0.00595693988725543,-0.0056703356094658375,-0.03736409544944763,-0.002575387618188922,-0.7659655094519441,0.04299215152704165,0.024874500460826114,0.0028437667641146125,0.0,0.0,-0.6,0.0,0.0001347064971923828,0.0004813671112060547,0
0.0899651050567627,0.0055913073010742664,-0.005714842118322849,-0.03741609305143356,-0.0025897652994101446,-0.766841491273564,0.044928587049357906,0.024436261311917562,0.0029267121133208047,0.0,0.0,-0.6,0.0,0.00013256072998046875,0.00045299530029296875,0
0.10017609596252441,0.0054069687612354755,-0.0057374550960958,-0.03754402697086334,-0.0025704052735792057,-0.7671762355598447,0.046166725039885725,0.023960127545141558,0.0029835695846945997,0.0,0.0,-0.6,0.0,0.00014162063598632812,0.0006146430969238281,0
0.10998320579528809,0.005224940832704306,-0.005761243402957916,-0.03774508461356163,-0.0025670164155197463,-0.7671046352791427,0.04696824278153225,0.02341207511811723,0.0030312297501252955,0.0,0.0,-0.6,0.0,9.465217590332031e-05,0.00028133392333984375,0
0.11983609199523926,0.00504422327503562,-0.005785946734249592,-0.03803478553891182,-0.0025499076889168495,-0.7667215280490918,0.04736033357447928,0.022773460644210142,0.003061395150530783,0.0,0.0,-0.6,0.0,8.559226989746094e-05,0.00026345252990722656,0
0.1298809051513672,0.004690255969762802,-0.005839309189468622,-0.03889227658510208,-0.0025513250635704216,-0.7658350318741716,0.04712931948848994,0.021853246503391533,0.0030891656140685335,0.0,0.0,-0.6,0.0,9.131431579589844e-05,0.00026917457580566406,0
0.13999605178833008,0.0045156050473451614,-0.005865678656846285,-0.03946491330862045,-0.00254646974730497,-0.7647553223427089,0.04654435502138462,0.020954337943443254,0.003107622422849124,0.0,0.0,-0.6,0.0,9.465217590332031e-05,0.0003027915954589844,0
0.1498885154724121,0.00434261467307806,-0.005891056265681982,-0.040135160088539124,-0.0025394275357251478,-0.7635778648459456,0.045651560095817036,0.020073299896017128,0.00312116113881811,0.0,0.0,-0.6,0.0,8.845329284667969e-05,0.00026345252990722656,0
0.16009879112243652,0.004172892775386572,-0.005916316993534565,-0.040903788059949875,-0.002533375274966148,-0.762341349271425,0.04443907484569306,0.01932609378168993,0.0031300899746958375,0.0,0.0,-0.6,0.0,9.34600830078125e-05,0.0002865791320800781,0
0.1700284481048584,0.0038429058622568846,-0.005964792799204588,-0.042734939604997635,-0.0025334588049907582,-0.7607816291930064,0.04281901967800197,0.01822653369456473,0.0031379849416014165,0.0,0.0,-0.6,0.0,8.940696716308594e-05,0.00026226043701171875,0
0.1800222396850586,0.0036807209253311157,-0.005987910088151693,-0.04379665479063988,-0.0025297598538891585,-0.7591912917643043,0.040990840954114184,0.017193852806580524,0.0031424861659124733,0.0,0.0,-0.6,0.0,0.00010538101196289062,0.0002758502960205078,0
0.1900033950805664,0.003520939964801073,-0.006009330041706562,-0.044952135533094406,-0.0025302411043756916,-0.7576392229775972,0.03906373487601093,0.016254059893272627,0.0031470053017707456,0.0,0.0,-0.6,0.0,9.751319885253906e-05,0.0002930164337158203,0
0.2000443935394287,0.003365438198670745,-0.006029675714671612,-0.046200692653656006,-0.0025211676841341625,-0.7561300093010676,0.037202731748364457,0.015288639046022269,0.0031467598952394375,0.0,0.0,-0.6,0.0,0.00010800361633300781,0.0002846717834472656,0
0.20991253852844238,0.0030605613719671965,-0.006065853871405125,-0.04897168651223183,-0.002472453352067294,-0.7543762741681755,0.03482795184933534,0.014136243724496431,0.0031299878259788,0.0,0.0,-0.6,0.0,8.726119995117188e-05,0.00025582313537597656,0
0.2201244831085205,0.0029087045695632696,-0.006081933155655861,-0.05048944428563118,-0.0024432752977231803,-0.7526589762358435,0.03257971325920122,0.012999827172439657,0.003113089939072577,0.0,0.0,-0.6,0.0,9.989738464355469e-05,0.0002853870391845703,0
0.2299938201904297,0.002756329020485282,-0.006096153985708952,-0.052092310041189194,-0.002426878423141252,-0.7510279146919414,0.030339653484812053,0.011907347978264208,0.003095156626445952,0.0,0.0,-0.6,0.0,8.96453857421875e-05,0.0002682209014892578,0
0.24000024795532227,0.00260373018682003,-0.006108281668275595,-0.05377994850277901,-0.002393470616942066,-0.749469983477607,0.02803852351443866,0.010891520524089145,0.0030704377792847605,0.0,0.0,-0.6,0.0,0.00010275840759277344,0.00029540061950683594,0
0.24998879432678223,0.002303115790709853,-0.006120631936937571,-0.05740606039762497,-0.0023682946873891447,-0.7477042335028471,0.02495197242093657,0.009719808970364032,0.0030460685497766776,0.0,0.0,-0.6,0.0,9.322166442871094e-05,0.00027680397033691406,0
0.25994181632995605,0.0021536233834922314,-0.006118615157902241,-0.05933668464422226,-0.002360549861940698,-0.7459959235910132,0.021944425845829424,0.00867638301922138,0.0030259834133992644,0.0,0.0,-0.6,0.0,8.96453857421875e-05,0.0002696514129638672,0
0.26996397972106934,0.0020033803302794695,-0.006112548056989908,-0.06134328991174698,-0.0023453766578674837,-0.7443891496396484,0.018968838796560996,0.007718956270326593,0.003004734433811887,0.0,0.0,-0.6,0.0,9.465217590332031e-05,0.00028252601623535156,0
0.27988743782043457,0.0018536326242610812,-0.006101282313466072,-0.06342363357543945,-0.0023374886662236864,-0.7428759736622316,0.01615941128994271,0.006733903986563434,0.002987309496357785,0.0,0.0,-0.6,0.0,8.893013000488281e-05,0.000270843505859375,0
0.28992128372192383,0.0015554371057078242,-0.006063172128051519,-0.06779345870018005,-0.0023154119764637253,-0.7411940890743496,0.012731314295466752,0.005644806749116587,0.0029654948667332823,0.0,0.0,-0.6,0.0,9.417533874511719e-05,0.0002677440643310547,0
0.30007243156433105,0.001407737610861659,-0.006036010570824146,-0.0700778216123581,-0.002296924165444579,-0.7395857195542257,0.009597158833954903,0.004699990881469932,0.00294482808912359,0.0,0.0,-0.6,0.0,0.0001068115234375,0.00030303001403808594,0
0.3099849224090576,0.0012611354468390346,-0.006003992632031441,-0.07242535799741745,-0.0022720999393935864,-0.7380893053495085,0.006586947394442677,0.0038753536629599966,0.002920650511822501,0.0,0.0,-0.6,0.0,8.96453857421875e-05,0.00026917457580566406,0
0.3200218677520752,0.0011159895220771432,-0.005966974422335625,-0.0748395100235939,-0.002247271066294251,-0.7366962893170653,0.003731014496501778,0.0031695479833270335,0.0028956441601914766,0.0,0.0,-0.6,0.0,0.00010442733764648438,0.00030541419982910156,0
0.3300464153289795,0.0008796979091130197,-0.005798026919364929,-0.07890371233224869,-0.0022062091624149667,-0.7352088262365725,0.0006187134353729156,0.0023751731588185243,0.0028630315711105055,0.0,0.0,-0.6,0.0,9.274482727050781e-05,0.00027751922607421875,0
0.3399057388305664,0.0007853404385969043,-0.005668649449944496,-0.08056723326444626,-0.0021757820367354643,-0.7338329738146846,-0.0021623746958406107,0.0016189285598182334,0.0028314547697314953,0.0,0.0,-0.6,0.0,9.393692016601562e-05,0.0002841949462890625,0
0.35011982917785645,0.0006897039711475372,-0.005536964628845453,-0.0822983980178833,-0.002158528401375074,-0.7325929126668537,-0.0048102469826170596,0.0009242434191913612,0.002802518369810352,0.0,0.0,-0.6,0.0,9.465217590332031e-05,0.0002830028533935547,0
0.3599510192871094,0.0005923121934756637,-0.005401995498687029,-0.08409401029348373,-0.0021508545513740664,-0.731465970619064,-0.007336296068049942,0.0002374305508632045,0.0027784610556049194,0.0,0.0,-0.6,0.0,8.821487426757812e-05,0.000274658203125,0
0.36994004249572754,0.00039590601227246225,-0.005120275542140007,-0.087870292365551,-0.0021304010945977793,-0.7302630825986303,-0.010451899336810825,-0.00034577931375494634,0.0027522432093695127,0.0,0.0,-0.6,0.0,9.012222290039062e-05,0.00026869773864746094,0
0.38006067276000977,0.00029779961914755404,-0.0049727559089660645,-0.08984539657831192,-0.002097314468308405,-0.729139941719149,-0.013135210400312135,-0.0008813761937843812,0.002722239418356702,0.0,0.0,-0.6,0.0,0.00011777877807617188,0.0003170967102050781,0
0.39002108573913574,0.0001998456718865782,-0.004820907022804022,-0.0918736457824707,-0.002072710924789345,-0.7281111264334029,-0.015698721028436176,-0.0012910312252741227,0.00269333551650018,0.0,0.0,-0.6,0.0,9.72747802734375e-05,0.0002791881561279297,0
0.40006327629089355,0.00010417371959192678,-0.00466532027348876,-0.09395477175712585,-0.002037511055942094,-0.7271638047108894,-0.018124262946774685,-0.0015288511339291522,0.0026595178731781926,0.0,0.0,-0.6,0.0,9.751319885253906e-05,0.00028228759765625,0
0.40987181663513184,-8.387857815250754e-05,-0.004345230292528868,-0.09826715290546417,-0.001990238498824729,-0.7261352001581448,-0.020887717642544042,-0.001655342492512891,0.0026198381234467027,0.0,0.0,-0.6,0.0,9.107589721679688e-05,0.0002734661102294922,0
0.42010068893432617,-0.0001763933541951701,-0.0041777268052101135,-0.100492924451828,-0.001982397860394701,-0.7251667058870462,-0.023258259849703172,-0.0017708239936175627,0.002591173796466727,0.0,0.0,-0.6,0.0,9.512901306152344e-05,0.0002830028533935547,0
0.4301633834838867,-0.00026929107843898237,-0.004005613271147013,-0.10276249051094055,-0.0019650159913981967,-0.7242718235502058,-0.025359151169980797,-0.0018839592515953471,0.0025607351687440215,0.0,0.0,-0.6,0.0,0.00014591217041015625,0.0004916191101074219,0
0.4401712417602539,-0.0003627382393460721,-0.0038294964469969273,-0.10507534444332123,-0.0019295622408351833,-0.7234394214782126,-0.027264524442597166,-0.0019565342071616166,0.0025267539781369548,0.0,0.0,-0.6,0.0,0.0001418590545654297,0.0005242824554443359,0
0.4499194622039795,-0.0005499451654031873,-0.0034644564148038626,-0.10982543230056763,-0.0018403749523626313,-0.7225157797372137,-0.029317751930171672,-0.0019915061547002696,0.0024707618085443297,0.0,0.0,-0.6,0.0,9.560585021972656e-05,0.0002753734588623047,0
0.4601733684539795,-0.000644611194729805,-0.0032757373992353678,-0.11224333941936493,-0.0018197198203989684,-0.7216383792527217,-0.031005975292902336,-0.002039095559803085,0.0024315254579880628,0.0,0.0,-0.6,0.0,0.00010371208190917969,0.0003120899200439453,0
0.4699854850769043,-0.0007394487620331347,-0.003083407413214445,-0.11469756066799164,-0.0017969563161403146,-0.7208250314443344,-0.032527195081943204,-0.002014301958837029,0.002389659161838955,0.0,0.0,-0.6,0.0,8.988380432128906e-05,0.00026726722717285156,0
0.48003315925598145,-0.0008312761783599854,-0.0028887763619422913,-0.11718588322401047,-0.0017688061415142107,-0.7200739490506969,-0.033819972956256716,-0.0019262738097775211,0.0023507169200072853,0.0,0.0,-0.6,0.0,9.465217590332031e-05,0.00028228759765625,0
0.48998117446899414,-0.0010164810810238123,-0.00249100592918694,-0.12225499004125595,-0.0017045933910950339,-0.7192592834226503,-0.034931461408511694,-0.0019031506865019264,0.0022983541503068202,0.0,0.0,-0.6,0.0,9.274482727050781e-05,0.0002841949462890625,0
0.5000081062316895,-0.001110522891394794,-0.0022861729376018047,-0.12483314424753189,-0.0016825386672473595,-0.7184842029517431,-0.03596368007266676,-0.0018349642416064429,0.0022581268748276965,0.0,0.0,-0.6,0.0,9.059906005859375e-05,0.00026917457580566406,0
0.510016918182373,-0.0012031447840854526,-0.0020772418938577175,-0.1274397373199463,-0.0016837400220009351,-0.7177636373348021,-0.03681554452072622,-0.001700499924576688,0.0022261708670474304,0.0,0.0,-0.6,0.0,9.870529174804688e-05,0.00030493736267089844,0
0.5198860168457031,-0.0012949934462085366,-0.001867047743871808,-0.13007286190986633,-0.0016710679529489906,-0.7170967713602715,-0.037313319818824624,-0.0016156203236490335,0.0021961546920121655,0.0,0.0,-0.6,0.0,8.797645568847656e-05,0.00026297569274902344,0
0.5298752784729004,-0.0014793833252042532,-0.0014381451765075326,-0.13542398810386658,-0.0016604475426485802,-0.7163609644144241,-0.03784804248825572,-0.001405431324914083,0.002170481774164076,0.0,0.0,-0.6,0.0,9.489059448242188e-05,0.0002956390380859375,0
0.540090799331665,-0.0015760613605380058,-0.001216439064592123,-0.1381390243768692,-0.0016539694567519671,-0.7156613516009324,-0.03821154092445178,-0.0011865978723399515,0.0021485613094436727,0.0,0.0,-0.6,0.0,0.00010967254638671875,0.0003185272216796875,0
0.5499277114868164,-0.0016722404398024082,-0.0009917730931192636,-0.14087393879890442,-0.001636992371539651,-0.7150130720522905,-0.0384843438592618,-0.0009532048878735225,0.002125537218590081,0.0,0.0,-0.6,0.0,9.369850158691406e-05,0.0002803802490234375,0
0.5599808692932129,-0.0017669217195361853,-0.0007654058281332254,-0.14362840354442596,-0.0016359061947609577,-0.7144112805670823,-0.03858722730164472,-0.0007031531939580626,0.002109399307847173,0.0,0.0,-0.6,0.0,0.00010371208190917969,0.0002911090850830078,0
0.5699152946472168,-0.001953243976458907,-0.00030670722480863333,-0.14919032156467438,-0.001596090765880609,-0.7137561137315522,-0.038560429857117856,-0.00035748075797546476,0.0020807618214582673,0.0,0.0,-0.6,0.0,9.560585021972656e-05,0.0002906322479248047,0
0.5799517631530762,-0.002046054694801569,-7.358735456364229e-05,-0.1519964039325714,-0.0015956375174516206,-0.7131299897063403,-0.03828259915880786,-0.00013630402296271695,0.0020649204643012624,0.0,0.0,-0.6,0.0,0.00010061264038085938,0.0002987384796142578,0
0.5899224281311035,-0.0021387350279837847,0.00016082407091744244,-0.15481768548488617,-0.0015886313624629438,-0.7125478015381436,-0.03787411105614841,7.012434317673063e-05,0.00204672556093944,0.0,0.0,-0.6,0.0,9.846687316894531e-05,0.00028777122497558594,0
0.5999500751495361,-0.0022306530736386776,0.0003961775219067931,-0.1576521247625351,-0.001571875599686672,-0.7120103257659917,-0.037437747311215165,0.000324225082259909,0.0020285294587167476,0.0,0.0,-0.6,0.0,9.179115295410156e-05,0.0002665519714355469,0
0.6099107265472412,-0.0024099962320178747,0.0008740854682400823,-0.16341835260391235,-0.0015389344179908288,-0.7114192874162919,-0.03680021217199951,0.0005965572240282592,0.002003439663626228,0.0,0.0,-0.6,0.0,9.34600830078125e-05,0.00027751922607421875,0
0.6200306415557861,-0.002497677691280842,0.0011154498206451535,-0.1663174033164978,-0.001528286171117872,-0.7108568130603131,-0.03624425001285652,0.0009383526618335733,0.0019842965069892435,0.0,0.0,-0.6,0.0,0.00010395050048828125,0.00030112266540527344,0
0.6299958229064941,-0.0025837416760623455,0.0013577744830399752,-0.16922461986541748,-0.0015249534404362536,-0.7103337027426582,-0.03557743460144677,0.001220225235086534,0.00196756519987901,0.0,0.0,-0.6,0.0,0.00010085105895996094,0.0002799034118652344,0
0.6400027275085449,-0.002669727895408869,0.0016017291927710176,-0.1721401810646057,-0.001506571041888481,-0.7098407101681607,-0.03486272829149612,0.0014295821025613142,0.0019481157381120696,0.0,0.0,-0.6,0.0,9.918212890625e-05,0.0002856254577636719,0
0.6500523090362549,-0.002839021384716034,0.002092865062877536,-0.17799891531467438,-0.001467055043374575,-0.7092956840835187,-0.03392685560075728,0.001746498019007072,0.0019206339695623427,0.0,0.0,-0.6,0.0,9.441375732421875e-05,0.0002753734588623047,0
0.6599695682525635,-0.0029224357567727566,0.002339900005608797,-0.18093809485435486,-0.0014437596110337325,-0.7087731133102965,-0.032934016974093726,0.001969727901219961,0.0018954722518236945,0.0,0.0,-0.6,0.0,8.988380432128906e-05,0.000270843505859375,0
0.6701104640960693,-0.0030059765558689833,0.002586865331977606,-0.18388304114341736,-0.0014298633356992184,-0.7082843276094233,-0.03188784220737004,0.0021887489929817497,0.0018718359283723192,0.0,0.0,-0.6,0.0,0.00010704994201660156,0.000293731689453125,0
0.679894208908081,-0.003087786026299,0.002833418780937791,-0.18683023750782013,-0.001407254202418756,-0.7078281860350489,-0.030906146196983588,0.0024678034555418713,0.0018462781889756381,0.0,0.0,-0.6,0.0,9.918212890625e-05,0.0002777576446533203,0
0.689948558807373,-0.0032560820691287518,0.0033205982763320208,-0.19273105263710022,-0.0013696543958271964,-0.7073496267901535,-0.029510959616205007,0.002874963334283613,0.0018149603395069827,0.0,0.0,-0.6,0.0,9.322166442871094e-05,0.0002846717834472656,0
0.6999192237854004,-0.0033371432218700647,0.0035610671620815992,-0.19568392634391785,-0.0013569414865009922,-0.7068934072727461,-0.028103784188626104,0.003227531804271631,0.0017902865424067893,0.0,0.0,-0.6,0.0,9.632110595703125e-05,0.00028014183044433594,0
0.710024356842041,-0.003416884457692504,0.0037998699117451906,-0.19863858819007874,-0.0013376858809060266,-0.706465651807378,-0.026715718957347267,0.0035362376547358604,0.00176346861400958,0.0,0.0,-0.6,0.0,9.179115295410156e-05,0.0002732276916503906,0
0.7200045585632324,-0.0034962778445333242,0.00403806334361434,-0.2015928328037262,-0.0013142477692934605,-0.706067952854454,-0.025306440154614303,0.0037399460941926043,0.0017366572182307767,0.0,0.0,-0.6,0.0,0.00010204315185546875,0.0002853870391845703,0
0.7299339771270752,-0.0035521856043487787,0.004573270678520203,-0.2072150707244873,-0.0012644508672038806,-0.7056482078003898,-0.0236441899317648,0.003878468586953294,0.0016992131164855798,0.0,0.0,-0.6,0.0,9.72747802734375e-05,0.0002884864807128906,0
0.7399561405181885,-0.003529543988406658,0.00487012742087245,-0.2098895013332367,-0.001255498607494364,-0.7052559329790812,-0.022384066224348725,0.004137930041347314,0.0016733665949611126,0.0,0.0,-0.6,0.0,0.00010228157043457031,0.00029587745666503906,0
0.7500777244567871,-0.00350711727514863,0.0051644789054989815,-0.21257387101650238,-0.0012338163978772537,-0.7048972969109615,-0.021237930638824648,0.004487504097760235,0.0016430840482103142,0.0,0.0,-0.6,0.0,0.00010395050048828125,0.00028634071350097656,0
0.7599263191223145,-0.003483958775177598,0.005457497201859951,-0.21526117622852325,-0.0011982747597192442,-0.7045718031957149,-0.02018838560094037,0.0048629244826085905,0.0016101107600047157,0.0,0.0,-0.6,0.0,9.274482727050781e-05,0.0002713203430175781,0
0.7700245380401611,-0.0034399363212287426,0.006037450861185789,-0.2206425815820694,-0.0011150949113510565,-0.7042265333593906,-0.01900745661482515,0.005310922738595716,0.0015567787746319066,0.0,0.0,-0.6,0.0,9.202957153320312e-05,0.0002665519714355469,0
0.780158281326294,-0.0034182893577963114,0.006324420217424631,-0.22333526611328125,-0.001080838743657029,-0.7039040090777868,-0.01798313904600485,0.005774273018159255,0.0015137258659942024,0.0,0.0,-0.6,0.0,9.942054748535156e-05,0.0002765655517578125,0
0.7899749279022217,-0.0033954703249037266,0.006608762312680483,-0.22602638602256775,-0.0010700010671058854,-0.7036129109490501,-0.017121282379608728,0.006301421270039764,0.001475927024383845,0.0,0.0,-0.6,0.0,8.988380432128906e-05,0.0002541542053222656,0
0.7999472618103027,-0.003372427774593234,0.006891549564898014,-0.2287142276763916,-0.001058147561178761,-0.7033516766602977,-0.016213646216610728,0.006702383198563556,0.0014431838470743519,0.0,0.0,-0.6,0.0,9.322166442871094e-05,0.0002856254577636719,0
0.8100366592407227,-0.0033293922897428274,0.0074521140195429325,-0.2340802550315857,-0.001058862521679733,-0.7030825738314624,-0.015205321486103006,0.007146464376608195,0.0014187622506402686,0.0,0.0,-0.6,0.0,9.608268737792969e-05,0.00026988983154296875,0
0.8200240135192871,-0.0033088771160691977,0.0077275619842112064,-0.23678845167160034,-0.0010728125079292673,-0.7028339997282212,-0.014160834578399702,0.007519492700938949,0.001403985824673592,0.0,0.0,-0.6,0.0,9.131431579589844e-05,0.0002605915069580078,0
0.8298795223236084,-0.0032863470260053873,0.007997994311153889,-0.2394905686378479,-0.0010675555186745304,-0.7026036673470136,-0.013358975621318396,0.007993196818004785,0.0013882951458628,0.0,0.0,-0.6,0.0,0.00010442733764648438,0.00027751922607421875,0
0.8398270606994629,-0.003261963836848736,0.008267110213637352,-0.24218742549419403,-0.001060292553513661,-0.7023847918754541,-0.01265470200599482,0.008477732522100883,0.0013749080472553596,0.0,0.0,-0.6,0.0,9.059906005859375e-05,0.00029015541076660156,0
0.8498916625976562,-0.0032108400482684374,0.008802982047200203,-0.24756526947021484,-0.0010501870234037856,-0.7021446411614469,-0.012019173212463607,0.009142529518601814,0.0013609412513677758,0.0,0.0,-0.6,0.0,9.655952453613281e-05,0.00027251243591308594,0
0.8601105213165283,-0.0031842910684645176,0.009067432954907417,-0.2502443790435791,-0.0010163629407430434,-0.7019191349828118,-0.01128326233751666,0.009678152430610185,0.001338683357296738,0.0,0.0,-0.6,0.0,0.00010991096496582031,0.0005595684051513672,0
0.8699090480804443,-0.00315866875462234,0.009328925050795078,-0.2529149055480957,-0.0009817695012174252,-0.7017136688999475,-0.01043347256076289,0.010112652841848799,0.0013130321759891141,0.0,0.0,-0.6,0.0,0.0001266002655029297,0.0004432201385498047,0
0.8801043033599854,-0.0031328678596764803,0.009587466716766357,-0.2555643916130066,-0.0009737834159801254,-0.7015175351159951,-0.009699050314539333,0.010529681190722237,0.001293269217642595,0.0,0.0,-0.6,0.0,0.00015115737915039062,0.0005567073822021484,0
0.8900547027587891,-0.0030800786335021257,0.010098017752170563,-0.2608402371406555,-0.0009390491110280279,-0.7013103024788955,-0.008819570392252564,0.01096660617351689,0.0012643489044066078,0.0,0.0,-0.6,0.0,0.00013518333435058594,0.00045561790466308594,0
0.8999843597412109,-0.0030536511912941933,0.01034948043525219,-0.2634652853012085,-0.0009154575213907344,-0.7011160207505772,-0.007835055336231361,0.011273393602218166,0.0012384629132387462,0.0,0.0,-0.6,0.0,0.00013446807861328125,0.0005338191986083984,0
0.9099392890930176,-0.0030271781142801046,0.010596278123557568,-0.266080766916275,-0.0009045374841923477,-0.700936685153595,-0.0068810139011764564,0.011540129921850934,0.0012151856927480045,0.0,0.0,-0.6,0.0,0.000152587890625,0.0004839897155761719,0
0.9201633930206299,-0.0029988931491971016,0.010839142836630344,-0.26868659257888794,-0.0008818473791790515,-0.7007716945653732,-0.006006519456668521,0.011844459514456023,0.0011894697792875072,0.0,0.0,-0.6,0.0,0.00013947486877441406,0.0004773139953613281,0
0.9299700260162354,-0.002941582817584276,0.011313974857330322,-0.2738686800003052,-0.0008267049281810364,-0.7005943228884115,-0.004901783503369614,0.011963180081735272,0.0011516437632803182,0.0,0.0,-0.6,0.0,0.00013566017150878906,0.0004658699035644531,0
0.9402508735656738,-0.002915480872616172,0.011546600610017776,-0.2764623165130615,-0.000829422951631769,-0.7004282271026965,-0.00392129652819905,0.011969247377898591,0.0011304233467606523,0.0,0.0,-0.6,0.0,0.00026869773864746094,0.0005979537963867188,0
0.9498500823974609,-0.00289032980799675,0.011776745319366455,-0.279043585062027,-0.0008279672074499398,-0.7002729166697916,-0.0032236751873222285,0.011997177076972112,0.001109211191308067,0.0,0.0,-0.6,0.0,9.655952453613281e-05,0.00027060508728027344,0
0.9600632190704346,-0.0028646441642194986,0.012004640884697437,-0.2816120982170105,-0.0008073327238478222,-0.7001304862065169,-0.0026036693506261924,0.012065991340166633,0.0010866218597669853,0.0,0.0,-0.6,0.0,9.250640869140625e-05,0.00030422210693359375,0
0.9701368808746338,-0.002809315687045455,0.012453769333660603,-0.28671517968177795,-0.0007897643591856935,-0.6999714584549115,-0.0019713806696105077,0.012174608467875424,0.001064703202570903,0.0,0.0,-0.6,0.0,0.00012087821960449219,0.0002980232238769531,0
0.9799561500549316,-0.002779870992526412,0.012676036916673183,-0.2892499268054962,-0.0007799493414094698,-0.6998170871939556,-0.0014619722368944422,0.012298351807434086,0.0010454447748468123,0.0,0.0,-0.6,0.0,0.00011086463928222656,0.0003139972686767578,0
0.9898808002471924,-0.002749100560322404,0.012895183637738228,-0.2917720377445221,-0.0007607061389371104,-0.6996781835247182,-0.001065109008027221,0.012508099730595206,0.0010238165941976168,0.0,0.0,-0.6,0.0,0.00010347366333007812,0.0002841949462890625,0
0.9998483657836914,-0.0027163373306393623,0.013109986670315266,-0.2943115830421448,-0.0007552911083257205,-0.6995528306310003,-0.0005873946566559581,0.012685080711323172,0.0010074756447876955,0.0,0.0,-0.6,0.0,0.00010609626770019531,0.00031495094299316406,0
1.0098588466644287,-0.0026826378889381886,0.013320348225533962,-0.29683709144592285,-0.0007635098976329772,-0.6994362647955242,-0.00017771380443628898,0.012871916948366886,0.0009972684952572256,0.0,0.0,-0.6,0.0,9.202957153320312e-05,0.00026726722717285156,0
1.0200684070587158,-0.002647936809808016,0.013526739552617073,-0.29934725165367126,-0.000774178081431401,-0.6993315528325408,0.00023196699995371988,0.013024980071705274,0.000991977229552498,0.0,0.0,-0.6,0.0,0.00010943412780761719,0.00033926963806152344,0
1.029876947402954,-0.0025763302110135555,0.013928488828241825,-0.3043195605278015,-0.0007547753758350741,-0.6992294555556354,0.0009248091191050896,0.013047754537627904,0.0009792767696215562,0.0,0.0,-0.6,0.0,9.131431579589844e-05,0.00026917457580566406,0
1.0399928092956543,-0.0025409364607185125,0.01412215642631054,-0.30678144097328186,-0.0007619622301796936,-0.6991319415099188,0.0015798824202744193,0.013020474855909752,0.0009756747360283041,0.0,0.0,-0.6,0.0,9.584426879882812e-05,0.0002810955047607422,0
1.0499379634857178,-0.0024696632754057646,0.014497588388621807,-0.3116615414619446,-0.0007462285897091496,-0.6990216734347453,0.002217624910076567,0.012950939111594516,0.0009640687481183826,0.0,0.0,-0.6,0.0,9.560585021972656e-05,0.00027561187744140625,0
1.0599393844604492,-0.0024353202898055315,0.014680753462016582,-0.3140880763530731,-0.0007075654713822848,-0.6989138570538517,0.002875284451633397,0.012736015357319858,0.0009442472712196971,0.0,0.0,-0.6,0.0,9.012222290039062e-05,0.0003132820129394531,0
1.0698473453521729,-0.002402206650003791,0.014861922711133957,-0.3164993226528168,-0.0006976063466566579,-0.6988077977741206,0.0032841938601728743,0.012519525416188495,0.0009295129867645748,0.0,0.0,-0.6,0.0,9.72747802734375e-05,0.0002682209014892578,0
1.0798358917236328,-0.0023704159539192915,0.015041741542518139,-0.3188958466053009,-0.0006874905728408246,-0.6987061639972998,0.0036557610934464637,0.012242590242251035,0.0009136250551098047,0.0,0.0,-0.6,0.0,8.225440979003906e-05,0.0002448558807373047,0
1.0898959636688232,-0.002308715134859085,0.01539031695574522,-0.3236384093761444,-0.0006622968038496049,-0.6986139162917687,0.004190692225866598,0.011855598165383728,0.0008934596160996346,0.0,0.0,-0.6,0.0,8.7738037109375e-05,0.00025653839111328125,0
1.099987506866455,-0.0022797926794737577,0.015560339204967022,-0.3259830176830292,-0.0006412914165498973,-0.6985295172635796,0.0045202212572172645,0.011521506779507362,0.0008729639161295154,0.0,0.0,-0.6,0.0,0.00014019012451171875,0.000385284423828125,0
1.109814167022705,-0.0022520250640809536,0.015727730467915535,-0.3283112347126007,-0.0006118042522776344,-0.6984495491201805,0.0047255100043000235,0.011181582197924837,0.0008476748308843153,0.0,0.0,-0.6,0.0,8.320808410644531e-05,0.00024819374084472656,0
1.1200058460235596,-0.002219401067122817,0.01589379459619522,-0.3306238651275635,-0.0006177573035580325,-0.6983715245719023,0.0048906109961999195,0.01076997388818239,0.0008338825502891029,0.0,0.0,-0.6,0.0,9.059906005859375e-05,0.0002505779266357422,0
1.1298413276672363,-0.0021570941898971796,0.0162125863134861,-0.33523470163345337,-0.0005856469914578399,-0.698302538943499,0.005506298898189017,0.010236328356800401,0.000808162705207387,0.0,0.0,-0.6,0.0,8.988380432128906e-05,0.00026154518127441406,0
1.1399757862091064,-0.0019028553506359458,0.016327330842614174,-0.3374300003051758,-0.0005576159382927883,-0.6982464834192306,0.005933131892848884,0.009844528786171381,0.0007838218162835666,0.0,0.0,-0.6,0.0,8.58306884765625e-05,0.0002512931823730469,0
1.1499090194702148,-0.001653746236115694,0.016438648104667664,-0.33960941433906555,-0.0005421735595113876,-0.6981986177885732,0.006129620336715284,0.009614895505232387,0.0007605096673386043,0.0,0.0,-0.6,0.0,9.72747802734375e-05,0.0002734661102294922,0
1.1598420143127441,-0.0014095721999183297,0.01654709130525589,-0.34177228808403015,-0.0005362662893580881,-0.6981642364225681,0.006299044484075096,0.009472268580357384,0.0007416158777770428,0.0,0.0,-0.6,0.0,7.367134094238281e-05,0.00023651123046875,0
1.1698696613311768,-0.0009325934806838632,0.016752518713474274,-0.34604939818382263,-0.000522018433784495,-0.6981341982187498,0.006288840777235577,0.009623777056325788,0.000721500853459662,0.0,0.0,-0.6,0.0,9.441375732421875e-05,0.00026607513427734375,0
1.180053949356079,-0.000700252247042954,0.01685027964413166,-0.3481636345386505,-0.0004982109277423388,-0.6981131966746821,0.006420037720956011,0.009766014077176378,0.000698919953836224,0.0,0.0,-0.6,0.0,9.512901306152344e-05,0.0002663135528564453,0
1.189833402633667,-0.00047251180512830615,0.016944242641329765,-0.35026147961616516,-0.00047451085765084876,-0.6980963955435189,0.006705129607265198,0.009844842074728929,0.0006750888541726283,0.0,0.0,-0.6,0.0,8.726119995117188e-05,0.0002562999725341797,0
1.199887752532959,-0.000250028824666515,0.017033729702234268,-0.35234296321868896,-0.0004450519314906946,-0.6980865231129397,0.006926655851912925,0.00998754001386329,0.0006477975571121087,0.0,0.0,-0.6,0.0,0.00010251998901367188,0.00027060508728027344,0
1.2098541259765625,0.00018291670130565763,0.017205040901899338,-0.35646581649780273,-0.00039620728138866577,-0.6980784085390159,0.0069456514757622965,0.010214107354611854,0.000611587974470408,0.0,0.0,-0.6,0.0,8.96453857421875e-05,0.0002567768096923828,0
1.2198729515075684,0.0003928408259525895,0.01728713884949684,-0.3585016131401062,-0.0003897975315211696,-0.6980748926068386,0.007096841925595508,0.01034828656480432,0.0005869590103743194,0.0,0.0,-0.6,0.0,0.000141143798828125,0.0003287792205810547,0
1.2299466133117676,0.0005983003647997975,0.017365548759698868,-0.3605201244354248,-0.000391780905978208,-0.6980726563434455,0.007286124707660529,0.010443768594048932,0.0005664092844374827,0.0,0.0,-0.6,0.0,0.00010061264038085938,0.0002808570861816406,0
1.2399680614471436,0.0007983878604136407,0.01744144968688488,-0.3625229001045227,-0.00039594824018724203,-0.6980658530236432,0.00741680982653291,0.010498413549969807,0.0005521594932543465,0.0,0.0,-0.6,0.0,8.0108642578125e-05,0.0002429485321044922,0
1.249845027923584,0.0011858341749757528,0.017586762085556984,-0.3664786219596863,-0.00038032510999220376,-0.6980629010530484,0.007448415937851589,0.010605343427776127,0.0005341209884392166,0.0,0.0,-0.6,0.0,9.655952453613281e-05,0.0002684593200683594,0
1.2599380016326904,0.0013711015926674008,0.01765863597393036,-0.3684299886226654,-0.000347342978761927,-0.6980651955418123,0.007374808977107832,0.010813564761272102,0.0005104517856284698,0.0,0.0,-0.6,0.0,9.5367431640625e-05,0.00028634071350097656,0
1.2698993682861328,0.0015537950675934553,0.01772846095263958,-0.3703637421131134,-0.0003408394661777594,-0.6980728824013344,0.007338547860518953,0.01102601436909067,0.0004934152707403499,0.0,0.0,-0.6,0.0,8.58306884765625e-05,0.00026035308837890625,0
1.2800214290618896,0.0017335317097604275,0.017794637009501457,-0.3722877502441406,-0.0003111206882714473,-0.6980858541804023,0.007420290803716179,0.011251043931782924,0.0004680237278308796,0.0,0.0,-0.6,0.0,9.274482727050781e-05,0.00025963783264160156,0
1.2898681163787842,0.0020797005854547024,0.0179174542427063,-0.37608733773231506,-0.00027902551556234425,-0.6980927045386065,0.007698721212565828,0.011257351145659601,0.00044113821783580955,0.0,0.0,-0.6,0.0,8.58306884765625e-05,0.0002589225769042969,0
1.2998530864715576,0.0022456564474850893,0.017975587397813797,-0.37796223163604736,-0.0002839745317086925,-0.6980995515388194,0.00783548450212872,0.011237696152654363,0.0004246971303741007,0.0,0.0,-0.6,0.0,8.821487426757812e-05,0.00026035308837890625,0
1.3099172115325928,0.0024070998188108206,0.018031666055321693,-0.3798188865184784,-0.0002593529185406118,-0.6981117382289233,0.008002263033307744,0.011183916221838302,0.0004002997163261983,0.0,0.0,-0.6,0.0,9.393692016601562e-05,0.00026917457580566406,0
1.3198518753051758,0.002564838156104088,0.01808447390794754,-0.381656676530838,-0.0002319650231083304,-0.6981294312274758,0.008237201640992642,0.01106543378267572,0.0003757357800107286,0.0,0.0,-0.6,0.0,7.867813110351562e-05,0.00024962425231933594,0
1.3299107551574707,0.002866209950298071,0.018181921914219856,-0.38528141379356384,-0.00021860354567754261,-0.6981412749468365,0.00855579045160109,0.010700024191490663,0.0003535887533470027,0.0,0.0,-0.6,0.0,9.465217590332031e-05,0.00026535987854003906,0
1.3400757312774658,0.003010134445503354,0.0182279534637928,-0.3870706856250763,-0.00022023616579987273,-0.6981506795388306,0.008821146575558594,0.010323274883617027,0.00033785214885015825,0.0,0.0,-0.6,0.0,0.00016236305236816406,0.0005221366882324219,0
1.349818229675293,0.0031491927802562714,0.018270131200551987,-0.3888479173183441,-0.0002206426425987064,-0.6981601819265951,0.009079346355492316,0.00998484199035567,0.00032474530674352124,0.0,0.0,-0.6,0.0,8.249282836914062e-05,0.0002570152282714844,0
1.360098123550415,0.0032837234903126955,0.01830866187810898,-0.390608012676239,-0.00019767393155596414,-0.6981738435185032,0.009306007144140848,0.009606538503101931,0.0003060368337912743,0.0,0.0,-0.6,0.0,0.00010585784912109375,0.0002961158752441406,0
1.3700346946716309,0.003413093974813819,0.01834704540669918,-0.392348974943161,-0.00018974051738804642,-0.6981949412735853,0.009291791280206244,0.009282942420823347,0.0002919264432076959,0.0,0.0,-0.6,0.0,9.1552734375e-05,0.00026702880859375,0
1.3800182342529297,0.0036648777313530445,0.01841817982494831,-0.3957766890525818,-0.000190002324923537,-0.6982265574562498,0.009366041591257717,0.00910870600396762,0.00028053801879596597,0.0,0.0,-0.6,0.0,0.00011110305786132812,0.0002963542938232422,0
1.3900096416473389,0.0037856658454984426,0.018446773290634155,-0.39746546745300293,-0.00018908524530532076,-0.6982616144600992,0.00965905648943091,0.00883888417513239,0.00027126952869077696,0.0,0.0,-0.6,0.0,9.131431579589844e-05,0.00026488304138183594,0
1.3999779224395752,0.0039032241329550743,0.01847204752266407,-0.399137020111084,-0.00019023562137620719,-0.6982944008644134,0.009787702306329573,0.008614825113424604,0.0002644709996364377,0.0,0.0,-0.6,0.0,8.511543273925781e-05,0.0003058910369873047,0
1.4098803997039795,0.004145139362663031,0.01852123998105526,-0.4024290442466736,-0.0001541768057102417,-0.6983344532744692,0.0099453447329292,0.008312590837215032,0.00024532548705586576,0.0,0.0,-0.6,0.0,9.226799011230469e-05,0.0002639293670654297,0
1.4201347827911377,0.004261184483766556,0.018542421981692314,-0.4040807783603668,-0.00012653486791237696,-0.6983697417976156,0.00997047493055868,0.00810754846520894,0.00022587934580944763,0.0,0.0,-0.6,0.0,0.00012612342834472656,0.0003237724304199219,0
1.42995023727417,0.004374597687274218,0.018561439588665962,-0.40571582317352295,-0.00011295254721577746,-0.6984025290626895,0.009993813087177268,0.007911946898774369,0.00020727889670877622,0.0,0.0,-0.6,0.0,0.0001456737518310547,0.000499725341796875,0
1.439974069595337,0.0044854748994112015,0.01857885532081127,-0.40733206272125244,-0.00010147244801377665,-0.6984399470106939,0.009881904183878923,0.0078079984307175155,0.0001896575528865446,0.0,0.0,-0.6,0.0,0.00014829635620117188,0.0005466938018798828,0
1.449949026107788,0.004699678160250187,0.018608171492815018,-0.4105071723461151,-6.034120501144632e-05,-0.6984891443796303,0.009856249525387637,0.007584349919736733,0.00016155570923765487,0.0,0.0,-0.6,0.0,0.00010561943054199219,0.0002968311309814453,0
1.45994234085083,0.004801776260137558,0.018620407208800316,-0.41206756234169006,-4.207062677042906e-05,-0.6985378278623614,0.009803864367124137,0.007360731410648397,0.00013870112678238074,0.0,0.0,-0.6,0.0,0.0001010894775390625,0.0003204345703125,0
1.469921588897705,0.004900667816400528,0.018630167469382286,-0.41361090540885925,-1.1181955725156596e-05,-0.6985823974993163,0.00981056066810153,0.007117787455401579,0.0001092831260039462,0.0,0.0,-0.6,0.0,9.560585021972656e-05,0.0002810955047607422,0
1.4798600673675537,0.00499592162668705,0.01863626204431057,-0.4151374399662018,2.5689336117138583e-06,-0.6986246879132912,0.0099107532974003,0.006804620567561738,8.583113837082174e-05,0.0,0.0,-0.6,0.0,8.58306884765625e-05,0.00029158592224121094,0
1.4899041652679443,0.005175298545509577,0.018641173839569092,-0.4181556701660156,3.724832693852467e-06,-0.6986721048815625,0.009812651548778183,0.006508597972393359,6.689318027097412e-05,0.0,0.0,-0.6,0.0,8.821487426757812e-05,0.0002644062042236328,0
1.4998979568481445,0.0052603199146687984,0.018642082810401917,-0.4196467399597168,3.324289743599514e-06,-0.6987226765341344,0.009707880825504316,0.006154518617305921,5.220690287077873e-05,0.0,0.0,-0.6,0.0,0.00010538101196289062,0.0002880096435546875,0
1.5098838806152344,0.005341547541320324,0.01864113286137581,-0.42111870646476746,4.1302335451038304e-05,-0.6987742853404975,0.00952065232062615,0.005870201660780054,2.6196653305474102e-05,0.0,0.0,-0.6,0.0,9.679794311523438e-05,0.00028228759765625,0
1.5199341773986816,0.005420532077550888,0.018639611080288887,-0.4225728213787079,5.569879930963102e-05,-0.6988216967356261,0.00914882691793593,0.005636851889376159,6.554194920576853e-06,0.0,0.0,-0.6,0.0,9.822845458984375e-05,0.00028705596923828125,0
1.5299196243286133,0.005532438401132822,0.018605589866638184,-0.4255685806274414,9.168112154746916e-05,-0.6988744541993493,0.009034572439910423,0.005266378271224821,-2.2917623701183135e-05,0.0,0.0,-0.6,0.0,9.465217590332031e-05,0.00027751922607421875,0
1.5399255752563477,0.005566571373492479,0.018571658059954643,-0.4271068572998047,0.00010746412957699192,-0.6989201028268535,0.008866437046764476,0.004942546517623605,-4.60262486645842e-05,0.0,0.0,-0.6,0.0,8.940696716308594e-05,0.0002605915069580078,0
1.5498483180999756,0.005597838666290045,0.018536943942308426,-0.4286264479160309,0.0001294048800609194,-0.6989566082258171,0.008737291473246013,0.004610975259692987,-7.265718535086338e-05,0.0,0.0,-0.6,0.0,9.322166442871094e-05,0.0002791881561279297,0
1.5598642826080322,0.005626481957733631,0.01850205846130848,-0.4301266372203827,0.00014160510849825126,-0.6989880546986229,0.008649865904185781,0.004181182066473034,-9.464111759225087e-05,0.0,0.0,-0.6,0.0,7.963180541992188e-05,0.0002455711364746094,0
1.5698516368865967,0.005674616899341345,0.01843126304447651,-0.4331004023551941,0.00014755179683925162,-0.6990208705207318,0.008639038183539682,0.003599710304376706,-0.0001138863298448094,0.0,0.0,-0.6,0.0,9.107589721679688e-05,0.00027489662170410156,0
1.5801808834075928,0.005695323925465345,0.018395040184259415,-0.4345579743385315,0.0001624401941892886,-0.6990484409726855,0.008547783420121264,0.0030773523293137206,-0.00013389967942395434,0.0,0.0,-0.6,0.0,0.00012636184692382812,0.0003151893615722656,0
1.5898282527923584,0.0057129585184156895,0.01835802011191845,-0.4359975755214691,0.00018452679499141988,-0.6990704865702202,0.00842339149764492,0.00254307913247749,-0.00015592265136584976,0.0,0.0,-0.6,0.0,8.535385131835938e-05,0.00025177001953125,0
1.599984884262085,0.005727783311158419,0.01832215115427971,-0.43741899728775024,0.00019036196741365494,-0.6990876477982068,0.008175661867357343,0.0020453203484641167,-0.00017282355355655209,0.0,0.0,-0.6,0.0,9.369850158691406e-05,0.0002639293670654297,0
1.6098802089691162,0.005749164614826441,0.018254149705171585,-0.4402068257331848,0.00021618324681922074,-0.6991073975753624,0.007921237605008293,0.0014047852611068726,-0.0001961298892800484,0.0,0.0,-0.6,0.0,9.1552734375e-05,0.0002663135528564453,0
1.6199793815612793,0.005755645222961903,0.018222345039248466,-0.44157418608665466,0.00021380571550093543,-0.6991218480371222,0.007613335542406544,0.0007375635036554779,-0.0002093108483056609,0.0,0.0,-0.6,0.0,9.560585021972656e-05,0.0002624988555908203,0
1.6299185752868652,0.005758614744991064,0.018191585317254066,-0.44292452931404114,0.00022266388733978908,-0.6991379542517209,0.007200842940383006,0.00019162587822364502,-0.00022540321590741914,0.0,0.0,-0.6,0.0,9.012222290039062e-05,0.0002636909484863281,0
1.6398355960845947,0.005759447813034058,0.018160440027713776,-0.44424793124198914,0.00023757879612696015,-0.6991588441673754,0.006819540826860353,-0.0003251400021214275,-0.000241241971022188,0.0,0.0,-0.6,0.0,8.845329284667969e-05,0.0002579689025878906,0
1.6498546600341797,0.005755068268626928,0.01809898018836975,-0.44684332609176636,0.0002581931708404003,-0.6991823648614123,0.00643810101939708,-0.0008854997495020433,-0.0002601482544905126,0.0,0.0,-0.6,0.0,9.655952453613281e-05,0.00027871131896972656,0
1.6601390838623047,0.005749110598117113,0.018068158999085426,-0.448116272687912,0.0002555091360166313,-0.6992102068867133,0.006056777070141268,-0.001397821580092707,-0.0002713025049356819,0.0,0.0,-0.6,0.0,0.0001068115234375,0.0002846717834472656,0
1.6699597835540771,0.0057396371848881245,0.018037281930446625,-0.4493716359138489,0.00025270210064081723,-0.6992423498423458,0.005749069139049103,-0.001919671973463123,-0.0002807710535394745,0.0,0.0,-0.6,0.0,8.821487426757812e-05,0.00025844573974609375,0
1.6800012588500977,0.0057270280085504055,0.01800585724413395,-0.4506095349788666,0.00026570697394950925,-0.6992789921296055,0.00533498799740671,-0.0023102519751765868,-0.0002928658606973707,0.0,0.0,-0.6,0.0,0.00012230873107910156,0.0003833770751953125,0
1.6898918151855469,0.005697203800082207,0.01794152706861496,-0.4530295431613922,0.0002526110317606879,-0.699337215671555,0.005008384491307969,-0.0027284723105456556,-0.00029550205689315377,0.0,0.0,-0.6,0.0,8.869171142578125e-05,0.00027441978454589844,0
1.69993257522583,0.005678580608218908,0.017908195033669472,-0.45421189069747925,0.00024632306599251045,-0.6994007363584204,0.004711110649019597,-0.0031307605603054494,-0.000298299920903875,0.0,0.0,-0.6,0.0,9.036064147949219e-05,0.000263214111328125,0
1.7100751399993896,0.005657761357724667,0.017874622717499733,-0.45534852147102356,0.00024633105193482317,-0.699464564535955,0.0043273441423250306,-0.00343878086509475,-0.00030020483670451875,0.0,0.0,-0.6,0.0,9.226799011230469e-05,0.0002639293670654297,0
1.719879150390625,0.005634106229990721,0.017840778455138206,-0.4564686715602875,0.00024382718170479732,-0.6995293124501754,0.004165467326504515,-0.0038497764288945935,-0.0003009118583022368,0.0,0.0,-0.6,0.0,7.414817810058594e-05,0.00023436546325683594,0
1.7298457622528076,0.005578264128416777,0.017772691324353218,-0.45866143703460693,0.00020204314812408974,-0.6995985178135632,0.00394586290581444,-0.00428578556985228,-0.0002861570237988981,0.0,0.0,-0.6,0.0,8.821487426757812e-05,0.0002646446228027344,0
1.7401254177093506,0.005545875057578087,0.017738714814186096,-0.45973578095436096,0.00021489672598532124,-0.6996613886093818,0.0037823443579000308,-0.0047000507039093265,-0.0002860603809798927,0.0,0.0,-0.6,0.0,0.00010657310485839844,0.0002827644348144531,0
1.749842882156372,0.005510484334081411,0.01770491898059845,-0.46079540252685547,0.00021271659135948688,-0.6997225505855882,0.0034918110403850946,-0.005036975421946427,-0.0002800448134323844,0.0,0.0,-0.6,0.0,8.940696716308594e-05,0.0002620220184326172,0
1.7601425647735596,0.005473461002111435,0.017671100795269012,-0.4618386924266815,0.00021455801193194472,-0.6997830612137549,0.003212255763636942,-0.005301034952066219,-0.00027859607251877624,0.0,0.0,-0.6,0.0,8.940696716308594e-05,0.00026679039001464844,0
1.7698452472686768,0.0053916932083666325,0.017605185508728027,-0.46387994289398193,0.00023789267597940398,-0.6998531807493924,0.0029075525360123954,-0.005580127369222875,-0.00028473406357518264,0.0,0.0,-0.6,0.0,9.322166442871094e-05,0.00027060508728027344,0
1.7799901962280273,0.005349952727556229,0.017572054639458656,-0.46489495038986206,0.00028373428894903045,-0.6999167413123268,0.0025115223397963633,-0.005700661129411107,-0.00030356590598877207,0.0,0.0,-0.6,0.0,8.7738037109375e-05,0.00025725364685058594,0
1.7898836135864258,0.005307365208864212,0.017539722844958305,-0.46589651703834534,0.0002687756730349,-0.6999732508756235,0.0022234785593681665,-0.005928489345218617,-0.0003066958667354716,0.0,0.0,-0.6,0.0,9.250640869140625e-05,0.0002689361572265625,0
1.799971103668213,0.005263012833893299,0.01750948466360569,-0.4668844938278198,0.00025908093476049163,-0.7000196894014078,0.0016481837986594256,-0.005992207303452927,-0.0003107469709886696,0.0,0.0,-0.6,0.0,8.440017700195312e-05,0.00024962425231933594,0
1.8098349571228027,0.0052184308879077435,0.017481999471783638,-0.46785855293273926,0.00026527238511113584,-0.7000669378957902,0.0010625429801255765,-0.006045758754838314,-0.0003155821376201253,0.0,0.0,-0.6,0.0,9.083747863769531e-05,0.0002665519714355469,0
1.8199255466461182,0.005120503716170788,0.017430104315280914,-0.46975839138031006,0.00023784175938828335,-0.7001332062022068,0.0006358213300212413,-0.006160203004354103,-0.0003084058477836845,0.0,0.0,-0.6,0.0,9.226799011230469e-05,0.0002932548522949219,0
1.829925537109375,0.0050675636157393456,0.017404688522219658,-0.47068580985069275,0.0002404508731181492,-0.7002029538725443,0.00020183382447082636,-0.006228311406317883,-0.00030856487231063935,0.0,0.0,-0.6,0.0,9.059906005859375e-05,0.0002655982971191406,0
1.839909553527832,0.005012920591980219,0.01738141104578972,-0.4715983271598816,0.00024802687475395627,-0.7002752298923678,-9.360623768905874e-05,-0.006325415899126404,-0.00030894983006574697,0.0,0.0,-0.6,0.0,9.250640869140625e-05,0.0002646446228027344,0
1.8498523235321045,0.004897641483694315,0.017338544130325317,-0.4733918309211731,0.0002542113006316436,-0.700357113320981,-0.0006198357807918873,-0.006334192593714888,-0.00031145938356860156,0.0,0.0,-0.6,0.0,9.036064147949219e-05,0.00026226043701171875,0
1.8600449562072754,0.004839059431105852,0.017320329323410988,-0.474273681640625,0.0002713491026809637,-0.7004369050698159,-0.0010671688334793047,-0.006318283989742912,-0.00031889913827738334,0.0,0.0,-0.6,0.0,9.083747863769531e-05,0.00026345252990722656,0
1.8698639869689941,0.004779170732945204,0.017303122207522392,-0.47514161467552185,0.0002885024781163932,-0.700513403854302,-0.0014265120854527178,-0.006267529460314447,-0.0003288139119397422,0.0,0.0,-0.6,0.0,9.465217590332031e-05,0.0002720355987548828,0
1.8799901008605957,0.0047177462838590145,0.017284659668803215,-0.4759952425956726,0.0002896049390086846,-0.7005885219722656,-0.0015939794492434406,-0.006239666928963053,-0.0003353014197042507,0.0,0.0,-0.6,0.0,8.249282836914062e-05,0.00025200843811035156,0
1.8898570537567139,0.004654591903090477,0.017266442999243736,-0.4768354296684265,0.00029694529291273607,-0.7006559113090315,-0.0018481022836127536,-0.0061565187492290535,-0.0003437948509176734,0.0,0.0,-0.6,0.0,9.489059448242188e-05,0.0002834796905517578,0
1.8999710083007812,0.004526881966739893,0.01723187044262886,-0.47847723960876465,0.0003207702042669476,-0.7007268039961052,-0.0021316703878988433,-0.005955276005900206,-0.00035797252131777873,0.0,0.0,-0.6,0.0,9.870529174804688e-05,0.00029349327087402344,0
1.9098830223083496,0.004457427188754082,0.01721576601266861,-0.47927796840667725,0.0003288699668843111,-0.7008009521357867,-0.0022747746694699146,-0.005836228340077385,-0.0003689448178640248,0.0,0.0,-0.6,0.0,9.512901306152344e-05,0.0002770423889160156,0
1.919917345046997,0.004385733976960182,0.017199557274580002,-0.4800651967525482,0.0003374895659001523,-0.7008681008504606,-0.0023887454243858284,-0.00571911142759412,-0.0003809796559261884,0.0,0.0,-0.6,0.0,9.250640869140625e-05,0.00026798248291015625,0
1.9298596382141113,0.004317173734307289,0.017209967598319054,-0.4820382595062256,0.0003596519963192664,-0.7009187170023871,-0.002554605058845289,-0.005506372932804794,-0.00039734306444629957,0.0,0.0,-0.6,0.0,9.107589721679688e-05,0.00026988983154296875,0
1.9398486614227295,0.004319262690842152,0.017234891653060913,-0.48320502042770386,0.0003687481281468787,-0.7009507800338093,-0.0027194133245590606,-0.005256757258997491,-0.00041069350018545025,0.0,0.0,-0.6,0.0,8.916854858398438e-05,0.0002689361572265625,0
1.949871301651001,0.0043191490694880486,0.017260070890188217,-0.48434969782829285,0.0003754731335621909,-0.7009722577288231,-0.002894419275881864,-0.00499552025818421,-0.0004236152227069342,0.0,0.0,-0.6,0.0,9.202957153320312e-05,0.0002732276916503906,0
1.9598748683929443,0.0043177055194973946,0.017285604029893875,-0.4854724705219269,0.0003725675308836071,-0.7009840112165822,-0.0031537076188022663,-0.004665901855607481,-0.0004317208770936872,0.0,0.0,-0.6,0.0,8.082389831542969e-05,0.0002543926239013672,0
1.9699029922485352,0.004308460745960474,0.01733541116118431,-0.48765498399734497,0.00040594697683366405,-0.7009895697743285,-0.003422764725116618,-0.004295928539703647,-0.00045159775124284157,0.0,0.0,-0.6,0.0,9.107589721679688e-05,0.0002727508544921875,0
1.9799704551696777,0.004297466017305851,0.017359811812639236,-0.4887150228023529,0.0004153929610149032,-0.7009921135072914,-0.003542175832704121,-0.00397930143647061,-0.0004649338802983736,0.0,0.0,-0.6,0.0,9.560585021972656e-05,0.0002872943878173828,0
1.9898416996002197,0.004284872207790613,0.017383109778165817,-0.4897550940513611,0.00041240418956744107,-0.7009926833151652,-0.0036773133771550457,-0.0036731963675886957,-0.0004754376421272157,0.0,0.0,-0.6,0.0,8.869171142578125e-05,0.00027251243591308594,0
1.9999606609344482,0.004270349163562059,0.01740555465221405,-0.4907985031604767,0.0004093032013977965,-0.7009927919244591,-0.0036603580821411006,-0.00341290427681624,-0.0004826187333731299,0.0,0.0,-0.6,0.0,9.226799011230469e-05,0.0002639293670654297,0
2.009875774383545,0.004235817119479179,0.01744619943201542,-0.4928278625011444,0.0004230404814437468,-0.7009839064369509,-0.0038342522622112967,-0.0030268490292519362,-0.000493959911966526,0.0,0.0,-0.6,0.0,9.703636169433594e-05,0.0002856254577636719,0
2.0198686122894287,0.004216786939650774,0.017466405406594276,-0.4938153922557831,0.0004195914977695931,-0.7009730870953539,-0.0038906553941354762,-0.0026484420146646362,-0.000499149337532477,0.0,0.0,-0.6,0.0,9.465217590332031e-05,0.000270843505859375,0
2.029949188232422,0.00419693673029542,0.017484653741121292,-0.4947839081287384,0.0004267033565622649,-0.7009697405650177,-0.0038275973197430184,-0.0022623238668373017,-0.0005076019960355004,0.0,0.0,-0.6,0.0,9.322166442871094e-05,0.0002942085266113281,0
2.0398752689361572,0.004174440633505583,0.017500927671790123,-0.49573156237602234,0.0004199314015053722,-0.7009772980865665,-0.003627562849012989,-0.001987257532150006,-0.0005098372423133066,0.0,0.0,-0.6,0.0,9.918212890625e-05,0.00028395652770996094,0
2.0498526096343994,0.004149246495217085,0.017517566680908203,-0.4966595768928528,0.00040863387961228285,-0.7009826326029707,-0.003601408858305606,-0.0017009397523979144,-0.0005093414382766886,0.0,0.0,-0.6,0.0,8.940696716308594e-05,0.00026726722717285156,0
2.060107469558716,0.004096679855138063,0.01755601167678833,-0.4984666109085083,0.0003636388462117649,-0.700978812244617,-0.0037879636012529243,-0.001259997714608328,-0.0004930771055359102,0.0,0.0,-0.6,0.0,0.0001010894775390625,0.00028395652770996094,0
2.0698726177215576,0.00406981073319912,0.01757499948143959,-0.49936380982398987,0.00036728837312802057,-0.7009739923202972,-0.003793076208121216,-0.0008162453147748782,-0.0004885796302574173,0.0,0.0,-0.6,0.0,0.00010156631469726562,0.00028228759765625,0
2.080113649368286,0.0040427143685519695,0.01759263128042221,-0.500244677066803,0.00035801579617638675,-0.7009693025157057,-0.0037633311020889735,-0.00041525144214703085,-0.00047783578109380966,0.0,0.0,-0.6,0.0,0.0001468658447265625,0.0004773139953613281,0
2.0899667739868164,0.003981767687946558,0.017628002911806107,-0.5019537210464478,0.0003410237169473877,-0.7009720371261893,-0.003512539026888015,-0.0001859641590856355,-0.0004661292878281998,0.0,0.0,-0.6,0.0,0.00012493133544921875,0.0004401206970214844,0
2.100165605545044,0.003947251942008734,0.017643986269831657,-0.5027827024459839,0.00035465003340653885,-0.7009788093958621,-0.0032251213419489107,1.8467037243316325e-05,-0.00046338153665015537,0.0,0.0,-0.6,0.0,0.0001342296600341797,0.00045490264892578125,0
2.110177993774414,0.0039106751792132854,0.017659472301602364,-0.5035941004753113,0.0003574428447823588,-0.7009896884530603,-0.002948291911511698,0.0001565089097994547,-0.0004593698553608088,0.0,0.0,-0.6,0.0,0.00013589859008789062,0.0004515647888183594,0
2.1199262142181396,0.003871845081448555,0.017675308510661125,-0.5043885707855225,0.000380302845113837,-0.700998580918137,-0.002664274755612009,0.00021346989393579587,-0.00046557655412152627,0.0,0.0,-0.6,0.0,0.00013303756713867188,0.0004742145538330078,0
2.129939079284668,0.0037900730967521667,0.017708659172058105,-0.5059297680854797,0.00039513119043255325,-0.7010113973038072,-0.0024726990804346933,0.00025823710555681516,-0.0004719054397310247,0.0,0.0,-0.6,0.0,0.00012874603271484375,0.000446319580078125,0
2.1401326656341553,0.0037468797527253628,0.01772431470453739,-0.5066961050033569,0.0004010001306724829,-0.7010252049639523,-0.00223540001575236,0.00029297363728623976,-0.00047849374685057403,0.0,0.0,-0.6,0.0,0.000148773193359375,0.0005638599395751953,0
2.1498348712921143,0.0037021259777247906,0.017739854753017426,-0.5074455142021179,0.0004003930130007133,-0.7010433682390727,-0.0020568670823676366,0.000311041971240751,-0.000482787095178827,0.0,0.0,-0.6,0.0,8.702278137207031e-05,0.0002617835998535156,0
2.1600120067596436,0.003654810367152095,0.017755581066012383,-0.5081772208213806,0.0003932724170945783,-0.7010664253282356,-0.0018017300621784402,0.00021484341642197342,-0.0004839254511207572,0.0,0.0,-0.6,0.0,0.00010561943054199219,0.0002884864807128906,0
2.1698477268218994,0.0035510642919689417,0.017787033692002296,-0.5095897316932678,0.0003509908403766704,-0.7010978384171955,-0.0015620805345652545,5.450792475891522e-05,-0.0004699709563461058,0.0,0.0,-0.6,0.0,9.059906005859375e-05,0.00026679039001464844,0
2.179886817932129,0.0034975081216543913,0.01780272088944912,-0.5102734565734863,0.0003370592698583764,-0.7011240289412973,-0.0013820245480006365,-3.230323713010863e-05,-0.0004602609688102932,0.0,0.0,-0.6,0.0,8.940696716308594e-05,0.0003020763397216797,0
2.190099000930786,0.0034427689388394356,0.01781703345477581,-0.5109440684318542,0.00033482720538498647,-0.7011454736912733,-0.001109845127060105,-0.00014949337858130443,-0.0004511413758241095,0.0,0.0,-0.6,0.0,9.274482727050781e-05,0.0002658367156982422,0
2.199843645095825,0.003385713556781411,0.017830707132816315,-0.511600136756897,0.00031968709595231096,-0.7011681009623751,-0.0007910102581377002,-0.0003313740908160476,-0.00043887348160415754,0.0,0.0,-0.6,0.0,0.00010609626770019531,0.0002789497375488281,0
2.209973096847534,0.0032671731896698475,0.01785433664917946,-0.5128896236419678,0.00033328854123455695,-0.7012065566823301,-0.0004632285868419022,-0.000497005075308361,-0.0004364884030628523,0.0,0.0,-0.6,0.0,9.179115295410156e-05,0.0002579689025878906,0
2.2201621532440186,0.003207278670743108,0.017864780500531197,-0.5135209560394287,0.0003326439504505934,-0.7012506912521309,-0.0003798128724875953,-0.0005243416447593195,-0.00043111814105242595,0.0,0.0,-0.6,0.0,0.00010395050048828125,0.0002875328063964844,0
2.2298364639282227,0.0031482037156820297,0.01787482015788555,-0.5141357183456421,0.0003297164518885126,-0.7012965126780416,-0.00036478354780022937,-0.00047436848606057,-0.0004273059598985396,0.0,0.0,-0.6,0.0,8.916854858398438e-05,0.0002593994140625,0
2.239964723587036,0.003089520148932934,0.017884651198983192,-0.5147342085838318,0.0003150140236062976,-0.7013463526170371,-0.0004155628783315842,-0.0003866771540212814,-0.0004185786941851996,0.0,0.0,-0.6,0.0,9.655952453613281e-05,0.00027680397033691406,0
2.2498371601104736,0.002970396541059017,0.017901532351970673,-0.5158817172050476,0.0002989940953618873,-0.7014096901821738,-0.00031092578504876133,-0.000377702782667162,-0.00040818241469001636,0.0,0.0,-0.6,0.0,9.655952453613281e-05,0.0002739429473876953,0
2.2600200176239014,0.0029087502043694258,0.017908494919538498,-0.5164340734481812,0.00029884761269066153,-0.7014669758960388,-0.0001525624418930731,-0.000365740236955692,-0.00040143424286532366,0.0,0.0,-0.6,0.0,9.72747802734375e-05,0.0002741813659667969,0
2.2698183059692383,0.0028455371502786875,0.017913883551955223,-0.516973614692688,0.00030166678793437223,-0.7015186018026627,0.0002512515970818195,-0.00048719834573560106,-0.0003964908756197586,0.0,0.0,-0.6,0.0,9.512901306152344e-05,0.00027680397033691406,0
2.2799789905548096,0.0027806158177554607,0.0179166067391634,-0.5174993276596069,0.00028922380151931215,-0.7015685857900761,0.0005950022476467244,-0.00058412275042643,-0.0003877327170395209,0.0,0.0,-0.6,0.0,8.58306884765625e-05,0.0002510547637939453,0
2.2900753021240234,0.0026494271587580442,0.017921365797519684,-0.5184960961341858,0.00030589409323150137,-0.7016260448216027,0.0008787511523249272,-0.0006346271501702318,-0.0003891885423925608,0.0,0.0,-0.6,0.0,8.869171142578125e-05,0.00026154518127441406,0
2.30013370513916,0.002583469497039914,0.017921915277838707,-0.5189734101295471,0.0003177957078155429,-0.7016890295892703,0.0011252722036169897,-0.0005940945616835136,-0.0003910958312320572,0.0,0.0,-0.6,0.0,0.00010037422180175781,0.0002846717834472656,0
2.3099026679992676,0.0025179709773510695,0.017920954152941704,-0.5194362998008728,0.00033067026517645727,-0.7017525846085352,0.0013998232643972841,-0.0005627306064994024,-0.00039710088020978776,0.0,0.0,-0.6,0.0,9.1552734375e-05,0.0002703666687011719,0
2.320003032684326,0.0024515362456440926,0.01792019233107567,-0.5198850035667419,0.0003297221319587942,-0.7018155292005903,0.0015438769269195182,-0.000554693220100551,-0.00039951464848919356,0.0,0.0,-0.6,0.0,0.00010037422180175781,0.00029277801513671875,0
2.329864501953125,0.002075455617159605,0.018073808401823044,-0.5209522247314453,0.0003251514027964381,-0.7018838775689245,0.0017621043146318655,-0.0008181646873403358,-0.0004007472110933078,0.0,0.0,-0.6,0.0,0.00013446807861328125,0.00033545494079589844,0
2.34000301361084,0.0017716980073601007,0.018224040046334267,-0.5215672850608826,0.00033394469476357016,-0.7019438627903309,0.0017364445546387917,-0.0010912418128857099,-0.0004053209113902143,0.0,0.0,-0.6,0.0,0.0001304149627685547,0.0003132820129394531,0
