time,x,y,z,yaw,throttle,roll_rate,pitch_rate,yaw_rate,x_ref,y_ref,z_ref,yaw_ref,pred_time,nr_time,ctrl_callback_time,metadata
2.384185791015625e-07,0.007866645231842995,-0.01712489128112793,0.020639576017856598,-0.041251400204787556,-0.7118985558430273,0.01857204638689198,0.005602395855339424,0.015469275076793283,0.0,0.0,-0.6,0.0,0.0003345012664794922,0.0005095005035400391,0.0017101764678955078,Sim
0.009944438934326172,0.007866645231842995,-0.01712489128112793,0.020639576017856598,-0.041251400204787556,-0.7263072654512224,0.03189702816043259,0.009070755768893483,0.026297767630549196,0.0,0.0,-0.6,0.0,0.00015425682067871094,0.0002620220184326172,0.0008623600006103516,Nonlinear
0.019960641860961914,0.007968236692249775,-0.017350701615214348,0.020977184176445007,-0.04127464916003169,-0.737669591325103,0.04132797181686443,0.010962329270907713,0.03388643077639861,0.0,0.0,-0.6,0.0,0.00021386146545410156,0.000331878662109375,0.0011878013610839844,1x Speed
0.030185461044311523,0.007968236692249775,-0.017350701615214348,0.020977184176445007,-0.04127464916003169,-0.7466527591289094,0.04754003849414006,0.011906000748747063,0.0391984949784879,0.0,0.0,-0.6,0.0,0.0002732276916503906,0.00040411949157714844,0.0012543201446533203,0OrderHold
0.03984665870666504,0.00812458898872137,-0.01770905964076519,0.021500159054994583,-0.04127461952540517,-0.7537852125354247,0.051582496519676425,0.012417187566803762,0.04291692880696798,0.0,0.0,-0.6,0.0,0.000194549560546875,0.0003116130828857422,0.0014829635620117188,QuatYawError
0.05008268356323242,0.00812458898872137,-0.01770905964076519,0.021500159054994583,-0.04127461952540517,-0.7594511829837484,0.05399320283481254,0.012524223783479184,0.045519832486906435,0.0,0.0,-0.6,0.0,0.00025773048400878906,0.0003960132598876953,0.0012688636779785156,PyJoules
0.059903621673583984,0.008130394853651524,-0.017762547358870506,0.02165108732879162,-0.041269324569587255,-0.7639623514230222,0.055327764702373224,0.012364946544409117,0.04733987945442948,0.0,0.0,-0.6,0.0,0.0002446174621582031,0.0003979206085205078,0.0013048648834228516,0
0.0700674057006836,0.008130394853651524,-0.017762547358870506,0.02165108732879162,-0.041269324569587255,-0.7675555651242724,0.055952111216255256,0.012094140935555714,0.048613912331694584,0.0,0.0,-0.6,0.0,0.00023508071899414062,0.00036597251892089844,0.0011048316955566406,0
0.07997965812683105,0.008003836497664452,-0.017589932307600975,0.02159094624221325,-0.0412310567813149,-0.7703635642863806,0.05591338573109587,0.011846365962774531,0.049491384925179176,0.0,0.0,-0.6,0.0,0.00019240379333496094,0.00031065940856933594,0.0010461807250976562,0
0.09020876884460449,0.008003836497664452,-0.017589932307600975,0.02159094624221325,-0.0412310567813149,-0.7726036298218795,0.05568458508978315,0.01157669511920831,0.05010561574061789,0.0,0.0,-0.6,0.0,0.0003209114074707031,0.0005290508270263672,0.0017576217651367188,0
0.10008931159973145,0.007936208508908749,-0.0174974724650383,0.02144092507660389,-0.0411829662980464,-0.7740909790219517,0.05478374732567409,0.011214628988336832,0.050517543380199516,0.0,0.0,-0.6,0.0,0.0002868175506591797,0.0004892349243164062,0.0016651153564453125,0
0.11029434204101562,0.007936208508908749,-0.0174974724650383,0.02144092507660389,-0.0411829662980464,-0.7752784844326601,0.05404349979197878,0.01091196051061016,0.050805892727907025,0.0,0.0,-0.6,0.0,0.0003120899200439453,0.0005140304565429688,0.0018835067749023438,0
0.11995100975036621,0.007846313528716564,-0.01739240251481533,0.020704956725239754,-0.040984334091509145,-0.7755333523274072,0.051693034137085654,0.010487817996783545,0.05093325019385083,0.0,0.0,-0.6,0.0,0.00027942657470703125,0.00048613548278808594,0.0015954971313476562,0
0.13019275665283203,0.007846313528716564,-0.01739240251481533,0.020704956725239754,-0.040984334091509145,-0.7757354590576,0.05002726568987665,0.010182730384209375,0.051022400420011424,0.0,0.0,-0.6,0.0,0.0003044605255126953,0.0005168914794921875,0.001775979995727539,0
0.14015579223632812,0.0077920700423419476,-0.01734319142997265,0.01977713033556938,-0.04073467151298794,-0.7753517432063783,0.04724460183492592,0.00976626501791912,0.05099118211137847,0.0,0.0,-0.6,0.0,0.00030612945556640625,0.0005140304565429688,0.001758575439453125,0
0.1500699520111084,0.0077920700423419476,-0.01734319142997265,0.01977713033556938,-0.04073467151298794,-0.7750425899757764,0.04532706759913593,0.009486427461801386,0.05096932929533541,0.0,0.0,-0.6,0.0,0.00027179718017578125,0.00040030479431152344,0.0015769004821777344,0
0.15988922119140625,0.007713182829320431,-0.017287233844399452,0.017553022131323814,-0.04016935317018532,-0.7739079933976963,0.041366718918550316,0.009011575269546846,0.05074203794555411,0.0,0.0,-0.6,0.0,0.00025916099548339844,0.0003871917724609375,0.0011262893676757812,0
0.1699388027191162,0.007713182829320431,-0.017287233844399452,0.017553022131323814,-0.04016935317018532,-0.7729962788615071,0.03868933289453098,0.008712197253264376,0.050582934000707395,0.0,0.0,-0.6,0.0,0.00015807151794433594,0.0002779960632324219,0.0008730888366699219,0
0.17991161346435547,0.007672301027923822,-0.017263613641262054,0.01556922122836113,-0.03971315398576883,-0.7716547556635714,0.03519865693297589,0.008258590622404676,0.05030048654515853,0.0,0.0,-0.6,0.0,0.0001819133758544922,0.0002968311309814453,0.0010194778442382812,0
0.19019246101379395,0.007672301027923822,-0.017263613641262054,0.01556922122836113,-0.03971315398576883,-0.7705776037054699,0.03286345862981744,0.007978872808787748,0.0501027733262743,0.0,0.0,-0.6,0.0,0.000225067138671875,0.0003490447998046875,0.0011932849884033203,0
0.1998889446258545,0.007607586216181517,-0.017236212268471718,0.01183521281927824,-0.03897591011859714,-0.768777931199841,0.02882573392005122,0.0075379474761754425,0.04968790762286599,0.0,0.0,-0.6,0.0,0.0001881122589111328,0.0003082752227783203,0.0010085105895996094,0
0.21007752418518066,0.007607586216181517,-0.017236212268471718,0.01183521281927824,-0.03897591011859714,-0.7673327724177562,0.02614723094486986,0.007277623760636509,0.049397501630480414,0.0,0.0,-0.6,0.0,0.00021576881408691406,0.0003752708435058594,0.0011920928955078125,0
0.21995830535888672,0.00757088465616107,-0.01721928082406521,0.008854907937347889,-0.038453029967374104,-0.7655491731172055,0.02247866563398999,0.006934832441050957,0.04899813737910198,0.0,0.0,-0.6,0.0,0.0001971721649169922,0.0003190040588378906,0.0010695457458496094,0
0.23012948036193848,0.00757088465616107,-0.01721928082406521,0.008854907937347889,-0.038453029967374104,-0.7641173892973223,0.020051974937383883,0.006740790802496062,0.048718582403136715,0.0,0.0,-0.6,0.0,0.0002105236053466797,0.00035572052001953125,0.0011105537414550781,0
0.23995542526245117,0.007521388120949268,-0.01718081906437874,0.0036630493123084307,-0.03751429210704068,-0.7620448300220971,0.015635220374939005,0.006653315604924654,0.0481708672223365,0.0,0.0,-0.6,0.0,0.0001876354217529297,0.0003101825714111328,0.0010476112365722656,0
0.2501208782196045,0.007521388120949268,-0.01718081906437874,0.0036630493123084307,-0.03751429210704068,-0.7603806604633245,0.01270918214513876,0.006641835110063545,0.04778746659577586,0.0,0.0,-0.6,0.0,0.00017595291137695312,0.00031566619873046875,0.0010571479797363281,0
0.25989580154418945,0.007492434233427048,-0.017141500487923622,-0.0002631556417327374,-0.03685129078750131,-0.7584326480024304,0.008954075868507414,0.006587880645102299,0.04727046066235661,0.0,0.0,-0.6,0.0,0.00018930435180664062,0.00030922889709472656,0.0010373592376708984,0
0.27017664909362793,0.007492434233427048,-0.017141500487923622,-0.0002631556417327374,-0.03685129078750131,-0.7568691860433232,0.006471379725927739,0.006595969327889445,0.04690855650896266,0.0,0.0,-0.6,0.0,0.00025272369384765625,0.00039458274841308594,0.0011668205261230469,0
0.27986717224121094,0.0074502211064100266,-0.017061064019799232,-0.006852733436971903,-0.035796938220798546,-0.7547195431020948,0.0024245664448637573,0.006588937715724447,0.04625984138907284,0.0,0.0,-0.6,0.0,0.00017690658569335938,0.00029277801513671875,0.0009253025054931641,0
0.2901334762573242,0.0074502211064100266,-0.017061064019799232,-0.006852733436971903,-0.035796938220798546,-0.7529941102158514,-0.0002510516392627499,0.00663253505986171,0.045805740805150895,0.0,0.0,-0.6,0.0,0.0002353191375732422,0.0003542900085449219,0.0011696815490722656,0
0.29993653297424316,0.007427999749779701,-0.0169916283339262,-0.01165895164012909,-0.03506060566605214,-0.7510373954427143,-0.0034624345132882616,0.006904160219852366,0.04521174568837474,0.0,0.0,-0.6,0.0,0.00020003318786621094,0.00032639503479003906,0.001089334487915039,0
0.31014013290405273,0.007427999749779701,-0.0169916283339262,-0.01165895164012909,-0.03506060566605214,-0.7494676203674396,-0.005579182790350747,0.007137497754338494,0.04479594910663192,0.0,0.0,-0.6,0.0,0.00023102760314941406,0.0003666877746582031,0.0011317729949951172,0
0.3200962543487549,0.007413861341774464,-0.01686103828251362,-0.01942700520157814,-0.033948100709105394,-0.7473863019547512,-0.008884378126689355,0.007425596697233819,0.044087702140556344,0.0,0.0,-0.6,0.0,0.00020265579223632812,0.0003249645233154297,0.0011439323425292969,0
0.32993412017822266,0.007413861341774464,-0.01686103828251362,-0.01942700520157814,-0.033948100709105394,-0.745716529755264,-0.011065448198329093,0.007673040779821492,0.04359192926430403,0.0,0.0,-0.6,0.0,0.0001647472381591797,0.00028014183044433594,0.0009343624114990234,0
0.34009742736816406,0.007414908614009619,-0.016752663999795914,-0.024950796738266945,-0.03322500514923218,-0.7438507675675768,-0.013654743536950457,0.008078013520621234,0.04297372741597497,0.0,0.0,-0.6,0.0,0.00018596649169921875,0.0003006458282470703,0.0010616779327392578,0
0.3502378463745117,0.007414908614009619,-0.016752663999795914,-0.024950796738266945,-0.03322500514923218,-0.742354578940059,-0.015359951753987213,0.008403752373046927,0.04254098612214423,0.0,0.0,-0.6,0.0,0.00021266937255859375,0.0003421306610107422,0.0012164115905761719,0
0.3600032329559326,0.0074328104965388775,-0.0165609922260046,-0.03371509537100792,-0.03207945803175565,-0.7403810284989862,-0.01798898522548418,0.00885773618381617,0.04180848704740943,0.0,0.0,-0.6,0.0,0.00016069412231445312,0.0002722740173339844,0.0008628368377685547,0
0.370192289352417,0.0074328104965388775,-0.0165609922260046,-0.03371509537100792,-0.03207945803175565,-0.7387983619648643,-0.019724239569056702,0.009220248778450665,0.04129573769509548,0.0,0.0,-0.6,0.0,0.000232696533203125,0.0003533363342285156,0.0011143684387207031,0
0.3799855709075928,0.007449927739799023,-0.016404956579208374,-0.03985084965825081,-0.031343676569980605,-0.7370521661119784,-0.021869464965553368,0.009667921650399465,0.040660895100309645,0.0,0.0,-0.6,0.0,0.00019860267639160156,0.0003218650817871094,0.0011174678802490234,0
0.3901653289794922,0.007449927739799023,-0.016404956579208374,-0.03985084965825081,-0.031343676569980605,-0.7356523265750199,-0.023288390832346857,0.01002270601817019,0.040216505283959536,0.0,0.0,-0.6,0.0,0.0002040863037109375,0.00032448768615722656,0.0010917186737060547,0
0.40015530586242676,0.007490440737456083,-0.016137300059199333,-0.0494239442050457,-0.03021473916426674,-0.7338560836403855,-0.025217382913419368,0.010440209260231799,0.0394820808853718,0.0,0.0,-0.6,0.0,0.0002288818359375,0.0003504753112792969,0.00115966796875,0
0.41013240814208984,0.007490440737456083,-0.016137300059199333,-0.0494239442050457,-0.03021473916426674,-0.7324161655568705,-0.02649225505577292,0.010776933667238846,0.03896798380636035,0.0,0.0,-0.6,0.0,0.0007486343383789062,0.0008869171142578125,0.0018646717071533203,0
0.42005109786987305,0.0074887764640152454,-0.01638546958565712,-0.05599408224225044,-0.029531851779389263,-0.7308416058536522,-0.027354931268280886,0.01105924561548383,0.03835203308172384,0.0,0.0,-0.6,0.0,0.00018143653869628906,0.00029850006103515625,0.0010380744934082031,0
0.43021464347839355,0.0074887764640152454,-0.01638546958565712,-0.05599408224225044,-0.029531851779389263,-0.7295798076473827,-0.027902769654986278,0.011297843957466507,0.03792086757447715,0.0,0.0,-0.6,0.0,0.0002346038818359375,0.00036263465881347656,0.0011909008026123047,0
0.44004082679748535,0.0074994610622525215,-0.01671024225652218,-0.06613871455192566,-0.02868737826782052,-0.7279643715449812,-0.027996888821179008,0.011525110211747314,0.03730237415256705,0.0,0.0,-0.6,0.0,0.00019240379333496094,0.00031256675720214844,0.001018524169921875,0
0.4500579833984375,0.0074994610622525215,-0.01671024225652218,-0.06613871455192566,-0.02868737826782052,-0.7266697772141143,-0.02801385680317348,0.011727858785203953,0.03686942875722987,0.0,0.0,-0.6,0.0,0.00019621849060058594,0.0003299713134765625,0.0011184215545654297,0
0.46002864837646484,0.00760279456153512,-0.016673361882567406,-0.07252324372529984,-0.028137480898129633,-0.7252736394664708,-0.027912329180922228,0.01207818434949574,0.03636015546685981,0.0,0.0,-0.6,0.0,0.0001862049102783203,0.00031375885009765625,0.0010104179382324219,0
0.47017550468444824,0.00760279456153512,-0.016673361882567406,-0.07252324372529984,-0.028137480898129633,-0.7241550774777866,-0.02780264632882227,0.012362250626965821,0.036003664163600686,0.0,0.0,-0.6,0.0,0.00020647048950195312,0.0003314018249511719,0.001064300537109375,0
0.48003244400024414,0.007872193120419979,-0.01626749336719513,-0.08157215267419815,-0.027299191839823496,-0.7227883178195305,-0.027866612271266147,0.012759139806688776,0.03543976185445461,0.0,0.0,-0.6,0.0,0.0002071857452392578,0.0003342628479003906,0.0011115074157714844,0
0.49002933502197266,0.007961246185004711,-0.016128309071063995,-0.08466757088899612,-0.02701685188042609,-0.7215408452200341,-0.027893499993459782,0.013075251211573014,0.034939152753278295,0.0,0.0,-0.6,0.0,0.00017142295837402344,0.0003032684326171875,0.0009763240814208984,0
0.5000452995300293,0.008049105294048786,-0.01598769798874855,-0.08779555559158325,-0.02671943296536478,-0.7203969168803147,-0.027893739811200028,0.013380371210623434,0.03447719428930686,0.0,0.0,-0.6,0.0,0.0001881122589111328,0.00030684471130371094,0.0010411739349365234,0
0.5103435516357422,0.008049105294048786,-0.01598769798874855,-0.08779555559158325,-0.02671943296536478,-0.719480674882023,-0.02787022285417628,0.013628251155268917,0.03415382336452678,0.0,0.0,-0.6,0.0,0.000213623046875,0.0003376007080078125,0.0012660026550292969,0
0.5200450420379639,0.008312337100505829,-0.01556178368628025,-0.09734548628330231,-0.025919371383074326,-0.7183389538149082,-0.027636875675949194,0.013882381048436308,0.033627440623820996,0.0,0.0,-0.6,0.0,0.00018262863159179688,0.0003027915954589844,0.0009756088256835938,0
0.5302283763885498,0.008398598991334438,-0.015418391674757004,-0.1005784198641777,-0.025662347108883973,-0.7172962534150563,-0.027344145232101106,0.014058772918614406,0.03316258860250645,0.0,0.0,-0.6,0.0,0.00020241737365722656,0.0003223419189453125,0.0010521411895751953,0
0.5401039123535156,0.008484912104904652,-0.015274624340236187,-0.1038326546549797,-0.02542666671867559,-0.7163363574364449,-0.027001868280772525,0.014284608520436717,0.032748812041258096,0.0,0.0,-0.6,0.0,0.00020837783813476562,0.0003368854522705078,0.0011408329010009766,0
0.549997091293335,0.008484912104904652,-0.015274624340236187,-0.1038326546549797,-0.02542666671867559,-0.7155676381950196,-0.026749772869355606,0.014473634355994646,0.032459168448384174,0.0,0.0,-0.6,0.0,0.0001964569091796875,0.00034356117248535156,0.0010769367218017578,0
0.5599679946899414,0.008744302205741405,-0.014843098819255829,-0.11373094469308853,-0.02467784719466117,-0.7145895316583482,-0.02603746148713648,0.014775385612513276,0.031975610611867135,0.0,0.0,-0.6,0.0,0.00019741058349609375,0.0003287792205810547,0.0011107921600341797,0
0.569939136505127,0.008744302205741405,-0.014843098819255829,-0.11373094469308853,-0.02467784719466117,-0.7138061824835464,-0.025530916104097447,0.015019246605550235,0.031637120126305124,0.0,0.0,-0.6,0.0,0.00020599365234375,0.00031948089599609375,0.0009465217590332031,0
0.5800464153289795,0.008923153392970562,-0.014555453322827816,-0.12041854858398438,-0.024144009348492253,-0.7129529525344828,-0.024762184669744326,0.015499626433183034,0.031199987594098616,0.0,0.0,-0.6,0.0,0.00018548965454101562,0.0003008842468261719,0.0010170936584472656,0
0.5902905464172363,0.009106738492846489,-0.014269335195422173,-0.12715379893779755,-0.023654329558861643,-0.712063623305021,-0.02360908871488988,0.016018530171991233,0.030710364900442,0.0,0.0,-0.6,0.0,0.00019931793212890625,0.0003173351287841797,0.0010983943939208984,0
0.6000001430511475,0.009199372492730618,-0.014128429815173149,-0.13053521513938904,-0.023416859668334292,-0.7112488649453907,-0.02256198209679314,0.016457101453216123,0.030278577805934816,0.0,0.0,-0.6,0.0,0.0001609325408935547,0.0002732276916503906,0.0008759498596191406,0
0.6100997924804688,0.009282751008868217,-0.013991317711770535,-0.1339246928691864,-0.023183356252957747,-0.7104992284037194,-0.021644218728995662,0.016824686031930654,0.029888763059013577,0.0,0.0,-0.6,0.0,0.00019884109497070312,0.00032067298889160156,0.0010688304901123047,0
0.6200079917907715,0.009366859681904316,-0.01385544240474701,-0.13732028007507324,-0.02304678559710999,-0.7098051325753862,-0.020688960029793514,0.01714668578220745,0.029564678740225933,0.0,0.0,-0.6,0.0,0.00020313262939453125,0.0003261566162109375,0.0011475086212158203,0
0.6301288604736328,0.00953731033951044,-0.013588975183665752,-0.14413930475711823,-0.022772995770745957,-0.7090730748458883,-0.019526760385010167,0.017384351221213692,0.029235148532187644,0.0,0.0,-0.6,0.0,0.000209808349609375,0.0003371238708496094,0.0010576248168945312,0
0.6400797367095947,0.009623169898986816,-0.013456675224006176,-0.14755207300186157,-0.02261879278991777,-0.708403060308168,-0.018468097364377916,0.017656255526872493,0.028946651268750425,0.0,0.0,-0.6,0.0,0.00019407272338867188,0.0003139972686767578,0.0010988712310791016,0
0.6499471664428711,0.009710488840937614,-0.013325901702046394,-0.15096619725227356,-0.0224601189060571,-0.7077807054463175,-0.01741911652586178,0.01786965170640416,0.028685200477896744,0.0,0.0,-0.6,0.0,0.00020122528076171875,0.00034046173095703125,0.0010783672332763672,0
0.6600062847137451,0.00979772862046957,-0.013197196647524834,-0.15438202023506165,-0.02232778765756597,-0.7071970124682911,-0.01635045545964447,0.018019661165595047,0.028452560706115092,0.0,0.0,-0.6,0.0,0.0002789497375488281,0.0004253387451171875,0.0013988018035888672,0
0.6701719760894775,0.00997875165194273,-0.012948132120072842,-0.16121245920658112,-0.02210262150498879,-0.7065773681456679,-0.015003816130634184,0.018058000742535368,0.028205275558651176,0.0,0.0,-0.6,0.0,0.0002353191375732422,0.00036597251892089844,0.0012574195861816406,0
0.6800363063812256,0.010071090422570705,-0.012826954945921898,-0.1646231859922409,-0.021960799185745217,-0.7060086650068781,-0.013704687952158866,0.018149079161996335,0.02797899258571041,0.0,0.0,-0.6,0.0,0.00021958351135253906,0.0003464221954345703,0.0014948844909667969,0
0.6898543834686279,0.010163774713873863,-0.012708925642073154,-0.16803060472011566,-0.021821987294685298,-0.705481005530083,-0.012408687160698997,0.018089835728550562,0.02776854004550421,0.0,0.0,-0.6,0.0,0.0002512931823730469,0.00040435791015625,0.001348733901977539,0
0.6999964714050293,0.010255008935928345,-0.012593083083629608,-0.17143918573856354,-0.021687307327215924,-0.70498883591034,-0.011255310889481295,0.0179503031817287,0.027570718279558943,0.0,0.0,-0.6,0.0,0.00025081634521484375,0.00038242340087890625,0.001689910888671875,0
0.7098894119262695,0.010434793308377266,-0.012362344190478325,-0.17824529111385345,-0.021410956041593723,-0.704451013006602,-0.010133704955081962,0.017651546926874623,0.027328611311288938,0.0,0.0,-0.6,0.0,0.0001976490020751953,0.00033020973205566406,0.0013022422790527344,0
0.7201488018035889,0.010523749515414238,-0.012247689068317413,-0.18163900077342987,-0.021272457999263767,-0.7039606618329541,-0.009089012517796707,0.01736920821829496,0.027107199667626102,0.0,0.0,-0.6,0.0,0.00023412704467773438,0.0003745555877685547,0.0012712478637695312,0
0.7298908233642578,0.010612769983708858,-0.012134648859500885,-0.18502500653266907,-0.021146563027384983,-0.7035048774778081,-0.00811443820311042,0.017093911745722692,0.026905000902607577,0.0,0.0,-0.6,0.0,0.0001773834228515625,0.00029730796813964844,0.0010793209075927734,0
0.7400293350219727,0.01070285215973854,-0.012022370472550392,-0.1884034126996994,-0.021026893685789163,-0.7030786992884602,-0.007215608181732417,0.016789515175261054,0.026718585763996102,0.0,0.0,-0.6,0.0,0.0001990795135498047,0.00032520294189453125,0.001352548599243164,0
0.7499034404754639,0.010793070308864117,-0.011910462751984596,-0.19177313148975372,-0.020904543657593214,-0.7026796477677754,-0.006467910840083031,0.01650866695675789,0.026542213906394673,0.0,0.0,-0.6,0.0,0.00020742416381835938,0.0003337860107421875,0.0011212825775146484,0
0.7600140571594238,0.010883682407438755,-0.0117981918156147,-0.19513384997844696,-0.020792735644516835,-0.7023034438961893,-0.005799594073447486,0.016186561460408273,0.026376825601170106,0.0,0.0,-0.6,0.0,0.00019168853759765625,0.0003173351287841797,0.0010097026824951172,0
0.7700357437133789,0.011063732206821442,-0.011575953103601933,-0.20181623101234436,-0.02054587375281593,-0.7019035045674258,-0.004963850830590548,0.015637573683713935,0.026168480578125167,0.0,0.0,-0.6,0.0,0.0002028942108154297,0.0003407001495361328,0.0010936260223388672,0
0.7801027297973633,0.011151337064802647,-0.01146785169839859,-0.20513729751110077,-0.02042497461308354,-0.7015341763913052,-0.004163847215564424,0.015093656478720009,0.025977301884594052,0.0,0.0,-0.6,0.0,0.00020074844360351562,0.000324249267578125,0.0010955333709716797,0
0.7898964881896973,0.011323811486363411,-0.011260436847805977,-0.2117408961057663,-0.020225958997744715,-0.7011446695850714,-0.0032317632023134155,0.014382314265556055,0.02576884594337004,0.0,0.0,-0.6,0.0,0.00019121170043945312,0.0003116130828857422,0.0010259151458740234,0
0.8001759052276611,0.011407257057726383,-0.011159437708556652,-0.21502359211444855,-0.020107421944619033,-0.7007903808736321,-0.002391677665715233,0.013740806675427463,0.025578475389591106,0.0,0.0,-0.6,0.0,0.0002391338348388672,0.00036644935607910156,0.001527547836303711,0
0.8099567890167236,0.011492162011563778,-0.011060349643230438,-0.21829140186309814,-0.019988320243069648,-0.7004668428628728,-0.0016093742606259733,0.013212179549604004,0.025400552863864917,0.0,0.0,-0.6,0.0,0.00019121170043945312,0.00031566619873046875,0.001024007797241211,0
0.8200502395629883,0.011577867902815342,-0.010963951237499714,-0.2215440273284912,-0.019841843651061297,-0.7001683073256664,-0.0008143291283574942,0.012823964488965452,0.025221078373853373,0.0,0.0,-0.6,0.0,0.0001990795135498047,0.0003185272216796875,0.0010528564453125,0
0.8299148082733154,0.011745955795049667,-0.010781320743262768,-0.22800475358963013,-0.019580421968733178,-0.6998520247377272,0.00020950637382888217,0.01211902813868242,0.02499741309997243,0.0,0.0,-0.6,0.0,0.00021409988403320312,0.0003380775451660156,0.0011272430419921875,0
0.840033769607544,0.011827518232166767,-0.01069436315447092,-0.23124442994594574,-0.01945380653081599,-0.6995665431788406,0.0011368168816882048,0.011450658711263294,0.024793366619036812,0.0,0.0,-0.6,0.0,0.00019359588623046875,0.00031256675720214844,0.0010063648223876953,0
0.8499484062194824,0.01190861314535141,-0.01061005238443613,-0.23446586728096008,-0.019340615598036775,-0.6993022882772176,0.001943024958232005,0.010927872426424512,0.024608087482589504,0.0,0.0,-0.6,0.0,0.0001952648162841797,0.00032973289489746094,0.001108407974243164,0
0.8601131439208984,0.012087785638868809,-0.010157208889722824,-0.2378017008304596,-0.019203600989154784,-0.6990533543002906,0.0023595282482799145,0.010612295193183692,0.0244270116087458,0.0,0.0,-0.6,0.0,0.0002124309539794922,0.00033855438232421875,0.001209259033203125,0
0.8699760437011719,0.012441118247807026,-0.009277564473450184,-0.24441061913967133,-0.018935250108298277,-0.6987780781102899,0.0022542834552820214,0.010338592325575385,0.024199626916733944,0.0,0.0,-0.6,0.0,0.00020241737365722656,0.00033926963806152344,0.0010912418365478516,0
0.8800294399261475,0.01261473260819912,-0.008850088343024254,-0.24768264591693878,-0.01881499517218694,-0.698526361143647,0.0019161720782873732,0.010051521277895378,0.0239953620312838,0.0,0.0,-0.6,0.0,0.00023317337036132812,0.00036787986755371094,0.0011782646179199219,0
0.889916181564331,0.012785185128450394,-0.008431173861026764,-0.25093334913253784,-0.018660434916648323,-0.6982872408374884,0.0014984751410366689,0.009807229699711576,0.023794416515641896,0.0,0.0,-0.6,0.0,0.0001926422119140625,0.0003190040588378906,0.0010154247283935547,0
0.9000949859619141,0.012951643206179142,-0.008021201007068157,-0.2541627287864685,-0.01849500065254645,-0.6980663027705593,0.0010569005261760933,0.009451537223219498,0.02359171680565427,0.0,0.0,-0.6,0.0,0.00022673606872558594,0.0003762245178222656,0.001172780990600586,0
0.9101831912994385,0.013113937340676785,-0.007619823329150677,-0.2573680877685547,-0.018315496782983547,-0.6978655570798618,0.0005314127698405586,0.009132497438148342,0.023382513057576937,0.0,0.0,-0.6,0.0,0.0002186298370361328,0.00034356117248535156,0.0012125968933105469,0
0.9200243949890137,0.013428756967186928,-0.006839251611381769,-0.26373738050460815,-0.017974051390911305,-0.697661609656753,-0.00024340205035922253,0.00868992990889523,0.02310802841189563,0.0,0.0,-0.6,0.0,0.00018739700317382812,0.0003027915954589844,0.0010025501251220703,0
0.9300625324249268,0.013579640537500381,-0.0064605348743498325,-0.26688453555107117,-0.017820695099112712,-0.6974742274284025,-0.0009258534596071406,0.008215962204686303,0.02285838055049435,0.0,0.0,-0.6,0.0,0.0001971721649169922,0.00033736228942871094,0.0010592937469482422,0
0.9399974346160889,0.013725748285651207,-0.00608977023512125,-0.27000731229782104,-0.017664118068122833,-0.6973010086595999,-0.0015793328005687783,0.007738113186222563,0.022624910660892037,0.0,0.0,-0.6,0.0,0.0001881122589111328,0.0003159046173095703,0.0011014938354492188,0
0.9498660564422607,0.013868876732885838,-0.005726311821490526,-0.27310580015182495,-0.01751720074920968,-0.6971415229015095,-0.0022547622072998747,0.007349607270116441,0.02240638774357799,0.0,0.0,-0.6,0.0,0.0001971721649169922,0.00032210350036621094,0.0010445117950439453,0
0.9601030349731445,0.014147750101983547,-0.005021162796765566,-0.279224693775177,-0.017195024962037838,-0.6969845357371989,-0.003143418753460147,0.0068616304114937415,0.0221326057812687,0.0,0.0,-0.6,0.0,0.00021839141845703125,0.00037288665771484375,0.0012402534484863281,0
0.9700233936309814,0.014282322488725185,-0.004677793476730585,-0.28224530816078186,-0.017053005011188876,-0.69684115388416,-0.003980914824970691,0.006502050397270129,0.021887700926083737,0.0,0.0,-0.6,0.0,0.00018930435180664062,0.0003306865692138672,0.0010688304901123047,0
0.9799740314483643,0.014414936304092407,-0.004341449588537216,-0.2852417528629303,-0.016901896268491902,-0.6967064185500226,-0.004686707985449782,0.006250349436196872,0.02165960174894301,0.0,0.0,-0.6,0.0,0.00019097328186035156,0.0003135204315185547,0.001024484634399414,0
0.9900038242340088,0.01467190682888031,-0.0036887237802147865,-0.2912476062774658,-0.016572824286871426,-0.6965718104793005,-0.005531604492965654,0.005926760687383852,0.02137653033183668,0.0,0.0,-0.6,0.0,0.0002200603485107422,0.00036644935607910156,0.0011303424835205078,0
1.0000412464141846,0.01479681208729744,-0.0033717877231538296,-0.29421043395996094,-0.016388657842911623,-0.69644782106524,-0.006258517737650753,0.005718574465630978,0.02110931792337757,0.0,0.0,-0.6,0.0,0.00019311904907226562,0.0003147125244140625,0.001039743423461914,0
1.0101430416107178,0.014920567162334919,-0.00306156394071877,-0.29714736342430115,-0.01621922782682832,-0.6963341072852993,-0.0068679646414673435,0.005597845347917239,0.020858732981424842,0.0,0.0,-0.6,0.0,0.00021123886108398438,0.00034356117248535156,0.0011136531829833984,0
1.0200178623199463,0.015041359700262547,-0.0027581427711993456,-0.30005747079849243,-0.016051850967271217,-0.6962323071062718,-0.007381707841690935,0.005365939543127623,0.020620557199724023,0.0,0.0,-0.6,0.0,0.00031638145446777344,0.000560760498046875,0.0019116401672363281,0
1.0304059982299805,0.01515898946672678,-0.0024591872934252024,-0.3029404282569885,-0.01587909140374287,-0.6961413668677526,-0.0078001380947452514,0.005046237652691807,0.02038904931621032,0.0,0.0,-0.6,0.0,0.0002722740173339844,0.0004215240478515625,0.001435995101928711,0
1.0399763584136963,0.01538480818271637,-0.0018796664662659168,-0.3086237907409668,-0.015496630538996987,-0.6960578632312453,-0.008354834100821521,0.004626273253570698,0.020083570973471136,0.0,0.0,-0.6,0.0,0.00020122528076171875,0.00032973289489746094,0.001188039779663086,0
1.0500080585479736,0.01538480818271637,-0.0018796664662659168,-0.3086237907409668,-0.015496630538996987,-0.6959910002653708,-0.0087443122110214,0.004336630374356736,0.0198697361335536,0.0,0.0,-0.6,0.0,0.00020003318786621094,0.0003407001495361328,0.0011181831359863281,0
1.059983730316162,0.01559850201010704,-0.0013233314966782928,-0.31421610713005066,-0.015149512900604255,-0.6959194489819354,-0.009221673948986145,0.004030039657979986,0.019589882631214032,0.0,0.0,-0.6,0.0,0.00021123886108398438,0.00033354759216308594,0.0011582374572753906,0
1.0703022480010986,0.01559850201010704,-0.0013233314966782928,-0.31421610713005066,-0.015149512900604255,-0.6958621785106048,-0.009556980129287513,0.003819117950305865,0.01939398517957636,0.0,0.0,-0.6,0.0,0.00020647048950195312,0.0003330707550048828,0.0012698173522949219,0
1.0799894332885742,0.01590341329574585,-0.0005271520931273699,-0.322430819272995,-0.014590394175666134,-0.6957991330527062,-0.009884530729768531,0.003613481232222484,0.01904718744157807,0.0,0.0,-0.6,0.0,0.00018835067749023438,0.0003075599670410156,0.001068115234375,0
1.0902092456817627,0.016001395881175995,-0.00027523472090251744,-0.3251148462295532,-0.014410113411763393,-0.6957409385870704,-0.010045934677068009,0.003527029902687144,0.01873682373851576,0.0,0.0,-0.6,0.0,0.00023126602172851562,0.0003559589385986328,0.0017783641815185547,0
1.0999724864959717,0.0160983819514513,-2.805590338539332e-05,-0.32777276635169983,-0.014239232332218578,-0.6956873285732519,-0.010153330604486732,0.003446775806004323,0.018455488741542913,0.0,0.0,-0.6,0.0,0.00020122528076171875,0.0003261566162109375,0.0011475086212158203,0
1.1101937294006348,0.016192620620131493,0.000213797262404114,-0.3304041922092438,-0.014061615890993012,-0.6956431697750561,-0.010206102091799008,0.0033268030220498434,0.01819194807820234,0.0,0.0,-0.6,0.0,0.00020360946655273438,0.00032639503479003906,0.0010995864868164062,0
1.1200578212738037,0.016373511403799057,0.0006838187109678984,-0.3355846405029297,-0.013698976979269115,-0.6956025621049995,-0.01023558267493053,0.003172568398931612,0.01787148002196774,0.0,0.0,-0.6,0.0,0.00020051002502441406,0.00032520294189453125,0.0010933876037597656,0
1.1298835277557373,0.016373511403799057,0.0006838187109678984,-0.3355846405029297,-0.013698976979269115,-0.6955700411116742,-0.01025709811377922,0.003066711487351335,0.017647152382603268,0.0,0.0,-0.6,0.0,0.00018715858459472656,0.00031065940856933594,0.0010323524475097656,0
1.1399450302124023,0.016543200239539146,0.0011333264410495758,-0.3406684100627899,-0.013356260504143264,-0.6955488752634644,-0.010266465304383047,0.002810426768276873,0.01736160435687611,0.0,0.0,-0.6,0.0,0.00019550323486328125,0.00031638145446777344,0.001100778579711914,0
1.1501564979553223,0.016543200239539146,0.0011333264410495758,-0.3406684100627899,-0.013356260504143264,-0.6955318825446265,-0.010273463919710218,0.0026321188540210714,0.01716172073886694,0.0,0.0,-0.6,0.0,0.0002281665802001953,0.0003581047058105469,0.0012116432189941406,0
1.1598961353302002,0.01676914654672146,0.0017678667791187763,-0.3480916917324066,-0.012781363304019668,-0.695519036725039,-0.010094073234940491,0.0022586632219218934,0.016806215756214358,0.0,0.0,-0.6,0.0,0.00025272369384765625,0.00037550926208496094,0.0010528564453125,0
1.1701927185058594,0.01676914654672146,0.0017678667791187763,-0.3480916917324066,-0.012781363304019668,-0.6955086454063842,-0.009968729740514649,0.0019979264478552127,0.01655736226835735,0.0,0.0,-0.6,0.0,0.00023365020751953125,0.0003604888916015625,0.0011835098266601562,0
1.1799342632293701,0.01690933108329773,0.00216854689642787,-0.352904736995697,-0.012463746952985815,-0.6955126404748599,-0.009702308388191885,0.0016763947785365814,0.016264058695219737,0.0,0.0,-0.6,0.0,0.00022459030151367188,0.0003566741943359375,0.0011467933654785156,0
1.190140962600708,0.01690933108329773,0.00216854689642787,-0.352904736995697,-0.012463746952985815,-0.6955157224888359,-0.009515648188686306,0.0014511553038400078,0.016058746194023435,0.0,0.0,-0.6,0.0,0.00022649765014648438,0.0003516674041748047,0.0012233257293701172,0
1.1999595165252686,0.01709691993892193,0.0027314170729368925,-0.35992735624313354,-0.011960289959843778,-0.6955331853307619,-0.0089697087812925,0.0009322877882849599,0.01572623107075772,0.0,0.0,-0.6,0.0,0.00020122528076171875,0.0003266334533691406,0.0011353492736816406,0
1.209951639175415,0.01709691993892193,0.0027314170729368925,-0.35992735624313354,-0.011960289959843778,-0.6955469506523267,-0.008586961980282033,0.0005682931404195,0.01549347048447175,0.0,0.0,-0.6,0.0,0.0001819133758544922,0.0003027915954589844,0.0010344982147216797,0
1.2200753688812256,0.01720709353685379,0.0030805389396846294,-0.3644793629646301,-0.01158768632415832,-0.6955765767745722,-0.008101589615944036,0.00031710699731708986,0.0151908117106897,0.0,0.0,-0.6,0.0,0.00021982192993164062,0.00034689903259277344,0.001384735107421875,0
1.2301065921783447,0.01720709353685379,0.0030805389396846294,-0.3644793629646301,-0.01158768632415832,-0.6956001481862744,-0.007760984985909561,0.00013991009343529754,0.014978950569042188,0.0,0.0,-0.6,0.0,0.0002243518829345703,0.0003521442413330078,0.0011930465698242188,0
1.2399466037750244,0.017364278435707092,0.0035639540292322636,-0.3711167573928833,-0.011081847845583855,-0.6956263536816989,-0.006840621762903947,2.2837261303231004e-05,0.014640958340423596,0.0,0.0,-0.6,0.0,0.0002067089080810547,0.0003323554992675781,0.0010538101196289062,0
1.2501206398010254,0.017364278435707092,0.0035639540292322636,-0.3711167573928833,-0.011081847845583855,-0.6956471448918397,-0.0061956060794436055,-6.020231635142398e-05,0.014404363780390391,0.0,0.0,-0.6,0.0,0.0002453327178955078,0.00038170814514160156,0.001222372055053711,0
1.2600231170654297,0.017581859603524208,0.004108557943254709,-0.37594130635261536,-0.010759929458505074,-0.6956658306410094,-0.0056191053701262796,1.885397876255068e-06,0.014118028193212714,0.0,0.0,-0.6,0.0,0.0003008842468261719,0.0005290508270263672,0.002070188522338867,0
1.2703781127929688,0.017581859603524208,0.004108557943254709,-0.37594130635261536,-0.010759929458505074,-0.6956807062300258,-0.00521505874378094,4.455248357307463e-05,0.013917593282188286,0.0,0.0,-0.6,0.0,0.0003075599670410156,0.0005385875701904297,0.0019443035125732422,0
1.280134916305542,0.01806587539613247,0.005233072675764561,-0.38371703028678894,-0.010317764964092386,-0.6956682941012277,-0.0049028321586907665,0.00042975272703428807,0.013611477159066552,0.0,0.0,-0.6,0.0,0.0003876686096191406,0.0006525516510009766,0.0022144317626953125,0
1.290097951889038,0.01806587539613247,0.005233072675764561,-0.38371703028678894,-0.010317764964092386,-0.6956583948633209,-0.004684681525650957,0.0007000367619420594,0.01339719587288126,0.0,0.0,-0.6,0.0,0.0002422332763671875,0.0003829002380371094,0.0012636184692382812,0
1.2999646663665771,0.0183685515075922,0.005932981614023447,-0.3887198269367218,-0.010025037037289252,-0.6956463084732988,-0.004636666550385339,0.0010428537260840252,0.013137426000000329,0.0,0.0,-0.6,0.0,0.0002193450927734375,0.0003571510314941406,0.00119781494140625,0
1.3102381229400635,0.0183685515075922,0.005932981614023447,-0.3887198269367218,-0.010025037037289252,-0.6956367015330105,-0.004603440280674338,0.0012834175766712327,0.012955587088983724,0.0,0.0,-0.6,0.0,0.00022149085998535156,0.0003592967987060547,0.001300811767578125,0
1.3199117183685303,0.018795879557728767,0.006917574442923069,-0.3959425687789917,-0.009579861647101067,-0.6956309734041863,-0.004577701694867792,0.001576793657412686,0.012661359079951418,0.0,0.0,-0.6,0.0,0.0001773834228515625,0.00030303001403808594,0.0009884834289550781,0
1.3300707340240479,0.018795879557728767,0.006917574442923069,-0.3959425687789917,-0.009579861647101067,-0.6956264477919102,-0.004559902308660814,0.0017824446953162863,0.012455399473628875,0.0,0.0,-0.6,0.0,0.0002205371856689453,0.00037026405334472656,0.0012044906616210938,0
1.3399875164031982,0.01905953325331211,0.007525541819632053,-0.40057969093322754,-0.009311731576429769,-0.6956249139917071,-0.0045022768723448825,0.0018978235240883477,0.012210678972701354,0.0,0.0,-0.6,0.0,0.0004169940948486328,0.0006361007690429688,0.002562284469604492,0
1.3502471446990967,0.01905953325331211,0.007525541819632053,-0.40057969093322754,-0.009311731576429769,-0.6956237033198914,-0.004462000975769654,0.001978674229774266,0.01203937462205206,0.0,0.0,-0.6,0.0,0.0003254413604736328,0.0005469322204589844,0.0021834373474121094,0
1.3600742816925049,0.0194229856133461,0.00836905837059021,-0.4073353409767151,-0.008857517331430167,-0.6956187067691286,-0.004481778146604588,0.0020547249328017473,0.011749131234722793,0.0,0.0,-0.6,0.0,0.0002579689025878906,0.000392913818359375,0.0017004013061523438,0
1.3700909614562988,0.0194229856133461,0.00836905837059021,-0.4073353409767151,-0.008857517331430167,-0.6956147286421314,-0.00449578211410429,0.0021082047637170313,0.011545960863592294,0.0,0.0,-0.6,0.0,0.0002224445343017578,0.00037217140197753906,0.0011208057403564453,0
1.379941701889038,0.019646529108285904,0.008893568068742752,-0.4116736650466919,-0.00859738014618396,-0.6956177269393833,-0.004537601911799029,0.002387034683875479,0.011306190159333623,0.0,0.0,-0.6,0.0,0.00019502639770507812,0.00033473968505859375,0.0010516643524169922,0
1.3902254104614258,0.019646529108285904,0.008893568068742752,-0.4116736650466919,-0.00859738014618396,-0.6956201911970578,-0.004566832259432695,0.0025820719377528598,0.011138350666352544,0.0,0.0,-0.6,0.0,0.00021839141845703125,0.0003447532653808594,0.0012521743774414062,0
1.3999509811401367,0.019963180646300316,0.009617897681891918,-0.4179355502128601,-0.008178857796988582,-0.6956395622557179,-0.0043498577856923215,0.0027724388727668127,0.010863917140317475,0.0,0.0,-0.6,0.0,0.0001919269561767578,0.00031375885009765625,0.0010600090026855469,0
1.4101107120513916,0.019963180646300316,0.009617897681891918,-0.4179355502128601,-0.008178857796988582,-0.6956550671933622,-0.004197411663144118,0.0029047856504426095,0.010671813672092977,0.0,0.0,-0.6,0.0,0.0002849102020263672,0.00040793418884277344,0.0012049674987792969,0
1.4198989868164062,0.02015247382223606,0.0100630484521389,-0.4219464659690857,-0.007890063073169645,-0.6956790204659664,-0.004003974438640765,0.0029735326235684487,0.010429043222903627,0.0,0.0,-0.6,0.0,0.0001976490020751953,0.0003256797790527344,0.0010287761688232422,0
1.4300575256347656,0.02015247382223606,0.0100630484521389,-0.4219464659690857,-0.007890063073169645,-0.695698168984744,-0.0038678398437305608,0.0030205034121460334,0.01025910390847114,0.0,0.0,-0.6,0.0,0.00021409988403320312,0.00034499168395996094,0.0011301040649414062,0
1.4399547576904297,0.020412908867001534,0.010677692480385303,-0.42773160338401794,-0.007501982014742992,-0.6957359249726421,-0.0036404380605345324,0.0031909422328856765,0.009994615991458398,0.0,0.0,-0.6,0.0,0.00021529197692871094,0.0003426074981689453,0.0011277198791503906,0
1.4499397277832031,0.020412908867001534,0.010677692480385303,-0.42773160338401794,-0.007501982014742992,-0.69576613241534,-0.0034801024107729223,0.0033084234761622845,0.009809474449549485,0.0,0.0,-0.6,0.0,0.00016880035400390625,0.00030684471130371094,0.0009543895721435547,0
1.4599483013153076,0.020579485222697258,0.011055457405745983,-0.43143680691719055,-0.007278706149179886,-0.6958119342822363,-0.003258900795572926,0.003485946012832642,0.009596146920627031,0.0,0.0,-0.6,0.0,0.0002181529998779297,0.00035071372985839844,0.0011184215545654297,0
1.4702627658843994,0.020579485222697258,0.011055457405745983,-0.43143680691719055,-0.007278706149179886,-0.6958485815085944,-0.0031026554018489328,0.003607971078575401,0.009446817650381382,0.0,0.0,-0.6,0.0,0.00023317337036132812,0.0003647804260253906,0.0012433528900146484,0
1.4799201488494873,0.0208089929074049,0.011580141261219978,-0.4367614686489105,-0.0068830732532708955,-0.6959251986858518,-0.0028497070565175293,0.0035368392079953978,0.00919392482524356,0.0,0.0,-0.6,0.0,0.00018978118896484375,0.00032329559326171875,0.0010237693786621094,0
1.4901843070983887,0.0208089929074049,0.011580141261219978,-0.4367614686489105,-0.0068830732532708955,-0.6959864349987215,-0.0026702138830412715,0.003483286877409869,0.009016899847647083,0.0,0.0,-0.6,0.0,0.0002315044403076172,0.0003674030303955078,0.0012428760528564453,0
1.499943733215332,0.020941879600286484,0.011898176744580269,-0.4401896297931671,-0.006643257970406294,-0.696057072083985,-0.0023548229673251452,0.0035551362159541547,0.008803051632255324,0.0,0.0,-0.6,0.0,0.00022172927856445312,0.0003619194030761719,0.0011963844299316406,0
1.5101101398468018,0.020941879600286484,0.011898176744580269,-0.4401896297931671,-0.006643257970406294,-0.6961135480638264,-0.0021318179691901928,0.003601984157456319,0.00865335788148109,0.0,0.0,-0.6,0.0,0.00020575523376464844,0.00033736228942871094,0.0011289119720458984,0
1.5199215412139893,0.021125096827745438,0.012327900156378746,-0.4451152980327606,-0.006305461422140084,-0.696197857460385,-0.0017451715918319238,0.0034865555431435992,0.008421898550339224,0.0,0.0,-0.6,0.0,0.0002052783966064453,0.0003361701965332031,0.0011212825775146484,0
1.5300018787384033,0.021125096827745438,0.012327900156378746,-0.4451152980327606,-0.006305461422140084,-0.6962652180179328,-0.0014718652821547966,0.0034015829451035907,0.008259877018539993,0.0,0.0,-0.6,0.0,0.0002224445343017578,0.0003719329833984375,0.0011682510375976562,0
1.5398972034454346,0.021235745400190353,0.012580005452036858,-0.4482631981372833,-0.006057464831202538,-0.6963484142854287,-0.0010241930056154947,0.0033259919509102736,0.008053463224678974,0.0,0.0,-0.6,0.0,0.0002033710479736328,0.0003361701965332031,0.0011255741119384766,0
1.5500390529632568,0.021235745400190353,0.012580005452036858,-0.4482631981372833,-0.006057464831202538,-0.6964148872230693,-0.0007082626887663646,0.0032689869676166584,0.007908973568976237,0.0,0.0,-0.6,0.0,0.00023126602172851562,0.0003657341003417969,0.0011858940124511719,0
1.5599124431610107,0.02136804163455963,0.012900235131382942,-0.45276451110839844,-0.005697127457137675,-0.6965256846550046,6.0724134525956736e-05,0.002760956770018412,0.007672704294709999,0.0,0.0,-0.6,0.0,0.0001976490020751953,0.0003170967102050781,0.0010786056518554688,0
1.5702049732208252,0.02136804163455963,0.012900235131382942,-0.45276451110839844,-0.005697127457137675,-0.6966140915407502,0.0006024409422482703,0.002399897505701092,0.007507315802723631,0.0,0.0,-0.6,0.0,0.00021958351135253906,0.00035071372985839844,0.0011248588562011719,0
1.57989501953125,0.02143576741218567,0.0130812618881464,-0.4556133449077606,-0.005457173876282619,-0.6967299267079887,0.0012721503061305206,0.0018946225925649128,0.0073015612655125284,0.0,0.0,-0.6,0.0,0.00017642974853515625,0.0002970695495605469,0.0009760856628417969,0
1.5901927947998047,0.02143576741218567,0.0130812618881464,-0.4556133449077606,-0.005457173876282619,-0.6968223903030196,0.0017443373232469321,0.0015353450590385532,0.007157533089464755,0.0,0.0,-0.6,0.0,0.00022649765014648438,0.00035834312438964844,0.0012068748474121094,0
1.6003022193908691,0.021509738638997078,0.013308902271091938,-0.4596809446811676,-0.005181214684331628,-0.6969592417052934,0.002509494385580029,0.0011911553681541419,0.0069532286692496935,0.0,0.0,-0.6,0.0,0.0002129077911376953,0.00033545494079589844,0.0011420249938964844,0
1.6099436283111572,0.021509738638997078,0.013308902271091938,-0.4596809446811676,-0.005181214684331628,-0.6970685482279512,0.0030489337367867434,0.0009438103543850051,0.006810215575099149,0.0,0.0,-0.6,0.0,0.00019073486328125,0.00031447410583496094,0.0009737014770507812,0
1.620239496231079,0.021548135206103325,0.01343198586255312,-0.4622645080089569,-0.004991479798178916,-0.6971989684311678,0.0038129520131090252,0.0006627632722162037,0.006638955826886484,0.0,0.0,-0.6,0.0,0.00021314620971679688,0.0003402233123779297,0.0011272430419921875,0
1.6301023960113525,0.021548135206103325,0.01343198586255312,-0.4622645080089569,-0.004991479798178916,-0.6973031562040507,0.004351193815209036,0.0004599915585420607,0.006519074003137635,0.0,0.0,-0.6,0.0,0.0002434253692626953,0.00038433074951171875,0.0012679100036621094,0
1.6398589611053467,0.021585162729024887,0.013567236252129078,-0.46593695878982544,-0.004695950336227394,-0.6974632137516968,0.005164026468859636,0.00012947549254097756,0.006324333178281622,0.0,0.0,-0.6,0.0,0.0001823902130126953,0.0003018379211425781,0.0009911060333251953,0
1.650184154510498,0.021585162729024887,0.013567236252129078,-0.46593695878982544,-0.004695950336227394,-0.6975911015747789,0.005736920400654003,-0.00010917534925012736,0.006188014600882411,0.0,0.0,-0.6,0.0,0.00023674964904785156,0.0003745555877685547,0.0012044906616210938,0
1.6599810123443604,0.021239615976810455,0.013988564722239971,-0.46874189376831055,-0.004513141357154176,-0.6977121423806378,0.005976719972620659,-0.000864879791480568,0.006024038229550471,0.0,0.0,-0.6,0.0,0.00029277801513671875,0.00042319297790527344,0.0012497901916503906,0
1.670105218887329,0.021239615976810455,0.013988564722239971,-0.46874189376831055,-0.004513141357154176,-0.6978087986327777,0.006147265556869373,-0.0013993450918882557,0.005909254769618149,0.0,0.0,-0.6,0.0,0.00021076202392578125,0.00033593177795410156,0.0011284351348876953,0
1.680065393447876,0.020548060536384583,0.014731232076883316,-0.47190603613853455,-0.004352129428983712,-0.6978885080876941,0.005730735129785155,-0.0023769035090332536,0.005768526874601584,0.0,0.0,-0.6,0.0,0.0002124309539794922,0.0003380775451660156,0.0011813640594482422,0
1.6900510787963867,0.02021101303398609,0.015085022896528244,-0.47344040870666504,-0.0042694824497524686,-0.6979534583931355,0.005258501489638055,-0.0033414453554215205,0.005639024730878274,0.0,0.0,-0.6,0.0,0.00018548965454101562,0.0003147125244140625,0.0010027885437011719,0
1.6999270915985107,0.0195505041629076,0.015756865963339806,-0.47641369700431824,-0.004094568749687362,-0.6980152777538585,0.004610449957473873,-0.004578329182709305,0.005482780592747556,0.0,0.0,-0.6,0.0,0.0001957416534423828,0.0003209114074707031,0.001087188720703125,0
1.7102186679840088,0.0195505041629076,0.015756865963339806,-0.47641369700431824,-0.004094568749687362,-0.6980645615468143,0.004158199522195943,-0.005446729681784472,0.005373409696056041,0.0,0.0,-0.6,0.0,0.0002543926239013672,0.0003871917724609375,0.0012230873107910156,0
1.7198669910430908,0.01858973503112793,0.016682490706443787,-0.48059654235839844,-0.0038795948261504854,-0.6981324117343897,0.0034615946742302933,-0.0069663254328653,0.005216234847045647,0.0,0.0,-0.6,0.0,0.00018644332885742188,0.0003101825714111328,0.0009984970092773438,0
1.7301526069641113,0.01858973503112793,0.016682490706443787,-0.48059654235839844,-0.0038795948261504854,-0.6981865165253127,0.002975604053164238,-0.008032641452179698,0.005106212452738376,0.0,0.0,-0.6,0.0,0.0002295970916748047,0.00036716461181640625,0.0012209415435791016,0
1.7399241924285889,0.017965860664844513,0.01724814996123314,-0.48323264718055725,-0.003725535364636937,-0.6982493215676508,0.0023485885519154573,-0.009309244092884361,0.004971424478655688,0.0,0.0,-0.6,0.0,0.0002205371856689453,0.0003571510314941406,0.0011823177337646484,0
1.7501378059387207,0.017965860664844513,0.01724814996123314,-0.48323264718055725,-0.003725535364636937,-0.6982994695305446,0.0019112437238537408,-0.010204993840074577,0.004877072896797825,0.0,0.0,-0.6,0.0,0.00021457672119140625,0.0003464221954345703,0.0011515617370605469,0
1.759965419769287,0.01705535128712654,0.01801755465567112,-0.48697733879089355,-0.003510782693925384,-0.6983618962624305,0.001371879626497858,-0.011561266475120891,0.0047304945379805004,0.0,0.0,-0.6,0.0,0.00020456314086914062,0.0003345012664794922,0.0011298656463623047,0
1.770129919052124,0.01705535128712654,0.01801755465567112,-0.48697733879089355,-0.003510782693925384,-0.6984117632444055,0.000995916337937232,-0.012512545062469516,0.004627889686808372,0.0,0.0,-0.6,0.0,0.00022745132446289062,0.00035953521728515625,0.0011773109436035156,0
1.7799508571624756,0.016465485095977783,0.0184780303388834,-0.48936566710472107,-0.0033419150396041173,-0.6984805799186887,0.000502346416448116,-0.013641092451053568,0.0044927409206173856,0.0,0.0,-0.6,0.0,0.00020694732666015625,0.0003387928009033203,0.0010886192321777344,0
1.7901222705841064,0.016465485095977783,0.0184780303388834,-0.48936566710472107,-0.0033419150396041173,-0.6985356111347044,0.00015859299448023676,-0.01443286381170246,0.004398136784283695,0.0,0.0,-0.6,0.0,0.00022840499877929688,0.00035500526428222656,0.0012564659118652344,0
1.7999343872070312,0.015594009310007095,0.01909717358648777,-0.49278202652931213,-0.0031135058195576417,-0.6986237138276312,-0.00037132091107801025,-0.015648144454090306,0.004246260431332673,0.0,0.0,-0.6,0.0,0.00019311904907226562,0.00031876564025878906,0.0010721683502197266,0
1.8100500106811523,0.015594009310007095,0.01909717358648777,-0.49278202652931213,-0.0031135058195576417,-0.6986942029231763,-0.0007400288380499183,-0.01650076933085991,0.004139946984266972,0.0,0.0,-0.6,0.0,0.0002295970916748047,0.0003600120544433594,0.0012440681457519531,0
1.8200514316558838,0.015025759115815163,0.019464699551463127,-0.49492597579956055,-0.0029790301286302962,-0.6987734680581559,-0.0010871512814512058,-0.017484212251074275,0.004015099187223245,0.0,0.0,-0.6,0.0,0.00020575523376464844,0.00033974647521972656,0.0011525154113769531,0
1.8301513195037842,0.015025759115815163,0.019464699551463127,-0.49492597579956055,-0.0029790301286302962,-0.6988369103487878,-0.001328093356776562,-0.018174002362136572,0.003927705729292635,0.0,0.0,-0.6,0.0,0.0002086162567138672,0.00033545494079589844,0.0011167526245117188,0
1.839958906173706,0.014188772067427635,0.019957171753048897,-0.4979535639286041,-0.0027832892042358314,-0.6989295906981452,-0.0017772213882488559,-0.0189585308557923,0.0037931274620932624,0.0,0.0,-0.6,0.0,0.00021076202392578125,0.00035881996154785156,0.0011785030364990234,0
1.8499524593353271,0.014188772067427635,0.019957171753048897,-0.4979535639286041,-0.0027832892042358314,-0.6990037984516141,-0.0020892311890264195,-0.019508893006567066,0.0036989226750537276,0.0,0.0,-0.6,0.0,0.0001811981201171875,0.00031375885009765625,0.0010302066802978516,0
1.8599510192871094,0.013642197474837303,0.02024829387664795,-0.49990102648735046,-0.0026890564206129806,-0.6990917993392749,-0.0023102411672472063,-0.02012435408441983,0.003597642030267474,0.0,0.0,-0.6,0.0,0.00020742416381835938,0.00034332275390625,0.0011050701141357422,0
1.870192289352417,0.013642197474837303,0.02024829387664795,-0.49990102648735046,-0.0026890564206129806,-0.6991622506488726,-0.0024626054645845905,-0.020555990867331647,0.0035267455789170935,0.0,0.0,-0.6,0.0,0.0002491474151611328,0.0003809928894042969,0.0011973381042480469,0
1.8799397945404053,0.012839379720389843,0.020621994510293007,-0.5026389360427856,-0.0025185725403573346,-0.6992679415886813,-0.0023502942305164195,-0.02090722633240645,0.0034131866078759747,0.0,0.0,-0.6,0.0,0.00020074844360351562,0.0003275871276855469,0.0010750293731689453,0
1.8900446891784668,0.012839379720389843,0.020621994510293007,-0.5026389360427856,-0.0025185725403573346,-0.6993524980500558,-0.0022688051022508354,-0.021153512304112734,0.0033336953281471802,0.0,0.0,-0.6,0.0,0.0002512931823730469,0.0003840923309326172,0.0013043880462646484,0
1.8999261856079102,0.012311499565839767,0.020832844078540802,-0.5043413639068604,-0.0023797200849775715,-0.6994666056908309,-0.002251984601550762,-0.02148105127084639,0.0032259817615696122,0.0,0.0,-0.6,0.0,0.00020170211791992188,0.00032806396484375,0.0010716915130615234,0
1.9101412296295166,0.012311499565839767,0.020832844078540802,-0.5043413639068604,-0.0023797200849775715,-0.6995579094372824,-0.002237140545015846,-0.02171045212587961,0.0031505822649653156,0.0,0.0,-0.6,0.0,0.0002117156982421875,0.00034308433532714844,0.0012254714965820312,0
1.919952630996704,0.011787613853812218,0.021017596125602722,-0.505944013595581,-0.002287029018361208,-0.699674442357429,-0.002141633858704297,-0.021948001679995704,0.003063043467361171,0.0,0.0,-0.6,0.0,0.00022363662719726562,0.00035452842712402344,0.0011129379272460938,0
1.9300892353057861,0.011787613853812218,0.021017596125602722,-0.505944013595581,-0.002287029018361208,-0.6997676715306995,-0.0020716589777622996,-0.022114045472366898,0.0030017663090382775,0.0,0.0,-0.6,0.0,0.00018978118896484375,0.0003192424774169922,0.0010395050048828125,0
1.939948558807373,0.011013779789209366,0.021239057183265686,-0.5082224011421204,-0.002142014782064317,-0.6998959748513699,-0.0016895330044385815,-0.022000664319090476,0.0029044919596009104,0.0,0.0,-0.6,0.0,0.00022125244140625,0.00034737586975097656,0.0012009143829345703,0
1.9501290321350098,0.011013779789209366,0.021239057183265686,-0.5082224011421204,-0.002142014782064317,-0.6999985399975512,-0.0014186451994636319,-0.021920427096180174,0.0028363999149947578,0.0,0.0,-0.6,0.0,0.00024056434631347656,0.0003681182861328125,0.0012617111206054688,0
1.959944248199463,0.010262921452522278,0.021392013877630234,-0.5103080868721008,-0.0019752356013017303,-0.7001356838869661,-0.001052381857097933,-0.021549476593824102,0.002726193290984476,0.0,0.0,-0.6,0.0,0.0001971721649169922,0.00032520294189453125,0.0010688304901123047,0
1.9702131748199463,0.010262921452522278,0.021392013877630234,-0.5103080868721008,-0.0019752356013017303,-0.7002452827174797,-0.000792512576541621,-0.021288341200779652,0.00264904865417728,0.0,0.0,-0.6,0.0,0.0002257823944091797,0.0003581047058105469,0.0012094974517822266,0
1.9799010753631592,0.009775684215128422,0.021462060511112213,-0.5115934610366821,-0.0018650714003363743,-0.7003688923898591,-0.00041949916057501107,-0.020751990566370292,0.0025537358330502335,0.0,0.0,-0.6,0.0,0.00021219253540039062,0.00034117698669433594,0.0011496543884277344,0
1.990133285522461,0.009775684215128422,0.021462060511112213,-0.5115934610366821,-0.0018650714003363743,-0.7004676396429299,-0.0001553965377509498,-0.02037495383629169,0.002487016858261309,0.0,0.0,-0.6,0.0,0.0002181529998779297,0.000347137451171875,0.0011734962463378906,0
2.0001251697540283,0.009298204444348812,0.021507984027266502,-0.5128137469291687,-0.001734949231847548,-0.7005831912133527,0.00011364446000339468,-0.01981981389571213,0.0023915177627257494,0.0,0.0,-0.6,0.0,0.00019884109497070312,0.0003223419189453125,0.0011014938354492188,0
2.0100045204162598,0.009298204444348812,0.021507984027266502,-0.5128137469291687,-0.001734949231847548,-0.7006755028741136,0.0003046685524745378,-0.019429553630636396,0.002324668395850853,0.0,0.0,-0.6,0.0,0.0001685619354248047,0.0002841949462890625,0.0009033679962158203,0
2.0198798179626465,0.008605442009866238,0.021543100476264954,-0.514519453048706,-0.0015884078115591938,-0.7008035997579292,0.0006201827808249522,-0.018671710102420257,0.0022229208064303003,0.0,0.0,-0.6,0.0,0.00020885467529296875,0.00033402442932128906,0.0010955333709716797,0
2.0300652980804443,0.008605442009866238,0.021543100476264954,-0.514519453048706,-0.0015884078115591938,-0.7009059013228749,0.0008439620735466397,-0.018139008935272694,0.002151697493835906,0.0,0.0,-0.6,0.0,0.0002334117889404297,0.0003693103790283203,0.0012602806091308594,0
2.0399463176727295,0.007942785508930683,0.021531609818339348,-0.5160619020462036,-0.0014447685178642286,-0.701043579387563,0.0013240040817960666,-0.0172835202214242,0.0020479764398842167,0.0,0.0,-0.6,0.0,0.0001895427703857422,0.00030994415283203125,0.0010232925415039062,0
2.0502092838287354,0.007942785508930683,0.021531609818339348,-0.5160619020462036,-0.0014447685178642286,-0.7011535090034914,0.001663108188588365,-0.01668200948551873,0.001975371702118043,0.0,0.0,-0.6,0.0,0.00022554397583007812,0.00035643577575683594,0.0011894702911376953,0
2.060006618499756,0.00752290990203619,0.02168976329267025,-0.5174708366394043,-0.0013062246828071877,-0.7012573141458672,0.0019303783402417794,-0.015693716552848052,0.0018725944475353224,0.0,0.0,-0.6,0.0,0.00020956993103027344,0.00034046173095703125,0.0011324882507324219,0
2.070204734802246,0.00752290990203619,0.02168976329267025,-0.5174708366394043,-0.0013062246828071877,-0.7013401559322721,0.0021196241948712204,-0.014999840323983766,0.0018006503693274228,0.0,0.0,-0.6,0.0,0.0002434253692626953,0.0003814697265625,0.0012028217315673828,0
2.0799262523651123,0.006933130789548159,0.0221501886844635,-0.5201122760772705,-0.001169648752172272,-0.7014157016647361,0.0021085262317618084,-0.013676237503336169,0.001699073540593795,0.0,0.0,-0.6,0.0,0.00022149085998535156,0.0003533363342285156,0.0011701583862304688,0
2.090127944946289,0.006933130789548159,0.0221501886844635,-0.5201122760772705,-0.001169648752172272,-0.7014759027923698,0.002102227370142926,-0.012748081518182517,0.0016279697604802623,0.0,0.0,-0.6,0.0,0.0002665519714355469,0.0004107952117919922,0.0012924671173095703,0
2.0999138355255127,0.006560107693076134,0.022415630519390106,-0.5217404365539551,-0.0010422307752019934,-0.7015350948425554,0.0019647919457988715,-0.011710331567362562,0.0015304153730369282,0.0,0.0,-0.6,0.0,0.00019860267639160156,0.00032520294189453125,0.0011034011840820312,0
2.110097885131836,0.006560107693076134,0.022415630519390106,-0.5217404365539551,-0.0010422307752019934,-0.7015822923461138,0.001869726665138903,-0.010982692773256805,0.001462127301826595,0.0,0.0,-0.6,0.0,0.00023746490478515625,0.0003731250762939453,0.0012505054473876953,0
2.120041608810425,0.006022656802088022,0.022756008431315422,-0.5239858627319336,-0.0008883787400899317,-0.701646718836438,0.0016762679701968438,-0.009738887707631354,0.0013566311388123434,0.0,0.0,-0.6,0.0,0.00020623207092285156,0.00033211708068847656,0.0010747909545898438,0
2.130211353302002,0.006022656802088022,0.022756008431315422,-0.5239858627319336,-0.0008883787400899317,-0.7016980785921059,0.00154208584420442,-0.008866843715119066,0.0012827838247023665,0.0,0.0,-0.6,0.0,0.0002193450927734375,0.00035262107849121094,0.0012085437774658203,0
2.1400139331817627,0.005687794182449579,0.022947056218981743,-0.5253525376319885,-0.0007798321449836507,-0.7017551442588443,0.001322220948518683,-0.0075904628002235715,0.0011903857316605277,0.0,0.0,-0.6,0.0,0.0001971721649169922,0.0003192424774169922,0.0010788440704345703,0
2.150160551071167,0.005687794182449579,0.022947056218981743,-0.5253525376319885,-0.0007798321449836507,-0.7018006319906374,0.0011694309922272619,-0.006695834752576784,0.0011257070665312392,0.0,0.0,-0.6,0.0,0.0002193450927734375,0.0004305839538574219,0.0012476444244384766,0
2.1601197719573975,0.005226512905210257,0.02318098396062851,-0.5272251963615417,-0.0006546843423766157,-0.7018664921891178,0.0010772687945830724,-0.005155871310111837,0.0010335015749630993,0.0,0.0,-0.6,0.0,0.00021195411682128906,0.0003399848937988281,0.0011827945709228516,0
2.169916868209839,0.005226512905210257,0.02318098396062851,-0.5272251963615417,-0.0006546843423766157,-0.7019189817098834,0.001014073093137367,-0.004076559142227888,0.0009689577308654011,0.0,0.0,-0.6,0.0,0.00017762184143066406,0.00029850006103515625,0.0009293556213378906,0
