time,x,y,z,yaw,throttle,roll_rate,pitch_rate,yaw_rate,x_ref,y_ref,z_ref,yaw_ref,pred_time,nr_time,metadata
7.152557373046875e-07,0.010696550831198692,-0.011529683135449886,-0.021903501823544502,-0.001472756112340138,-0.7280234868855245,0.24,-0.4226484852071446,0.12621610203782815,0.5557047111578932,0.22625709711945496,-0.8131285485597275,0.3351035159885339,0.0002799034118652344,0.0004699230194091797,Sim
0.009958267211914062,0.010774741880595684,-0.01166515238583088,-0.021795785054564476,-0.0014702603463645973,-0.7503431932536333,0.40800000000000003,-0.5358539396450013,0.17195493044228555,0.5546093714263011,0.22892890845440042,-0.8144644542272002,0.3392745255983024,8.511543273925781e-05,0.0002357959747314453,Nonlinear
0.020143985748291016,0.010852794162929058,-0.011799521744251251,-0.021689726039767265,-0.0014689449005388419,-0.767325119330518,0.5256000000000001,-0.6150977577515009,0.23373863173131423,0.5534756425685459,0.23165645487086087,-0.8158282274354304,0.3435411094016911,8.988380432128906e-05,0.0002582073211669922,1stOrderHold
0.030156373977661133,0.010929564945399761,-0.011932605877518654,-0.021586457267403603,-0.0014625459525421682,-0.7803140322618298,0.60792,-0.6705684304260506,0.2729418597837361,0.5523481328001707,0.23433211515318375,-0.8171660575765918,0.34773508877586146,7.700920104980469e-05,0.00022792816162109375,QuatYawError
0.04004335403442383,0.01108389813452959,-0.012196030467748642,-0.021386826410889626,-0.001403715801523143,-0.790510850327281,0.6407644392875164,-0.7093979012982354,0.3098182669423757,0.5512220525042588,0.23696887735099742,-0.8184844386754987,0.3518765372975301,8.630752563476562e-05,0.0002491474151611328,NoPyJoules
0.050157785415649414,0.011164247989654541,-0.012325117364525795,-0.021292729303240776,-0.001420432382609665,-0.798533462842247,0.6353648866963036,-0.7365785309087648,0.3380411791500923,0.5500570419879467,0.2396606988212089,-0.8198303494106044,0.35611326040719626,9.584426879882812e-05,0.0002646446228027344,0
0.06008434295654297,0.011244210414588451,-0.012451093643903732,-0.0212024487555027,-0.0014311295091424155,-0.8047473169910485,0.6086171045390157,-0.7556049716361354,0.3623892123632618,0.5489008900898458,0.24229695181445227,-0.8211484759072261,0.3602712871066506,8.440017700195312e-05,0.00024199485778808594,0
0.07022571563720703,0.011326450854539871,-0.012573919259011745,-0.021112430840730667,-0.0014238412510427466,-0.809484843226294,0.570969568440918,-0.7689234801452948,0.3823793132591948,0.5477066710029647,0.24498449448659038,-0.8224922472432952,0.364519295361436,9.632110595703125e-05,0.00025916099548339844,0
0.08002400398254395,0.011521699838340282,-0.012805240228772163,-0.021090814843773842,-0.0013490029988133033,-0.8126438388038724,0.5246729267222315,-0.7782464361017063,0.39940870738722767,0.5465403537295267,0.2475755273551968,-0.8237877636775983,0.36862359278589796,9.298324584960938e-05,0.000270843505859375,0
0.08996033668518066,0.011654524132609367,-0.012899862602353096,-0.02126733399927616,-0.0012277908898096334,-0.8145519946428103,0.4756511367917967,-0.7847725052711945,0.4138808715957351,0.5453450872309826,0.2501973937374887,-0.8250986968687444,0.3727857140955283,8.130073547363281e-05,0.00023365020751953125,0
0.10003781318664551,0.011819850653409958,-0.012974033132195473,-0.021612996235489845,-0.0010438254531948442,-0.8154731447857977,0.4265410016761761,-0.7893407536898361,0.42642039628189493,0.5441199955178854,0.25285060901175693,-0.8264253045058785,0.37700695758135844,9.012222290039062e-05,0.0002448558807373047,0
0.1099543571472168,0.012022854760289192,-0.01302527729421854,-0.022145336493849754,-0.000819380010709514,-0.8156389219634239,0.3784796672854926,-0.7925385275828853,0.4373480074370374,0.542901867011381,0.25545559848153016,-0.827727799240765,0.3811607898020959,8.034706115722656e-05,0.00022459030151367188,0
0.12005186080932617,0.012552795931696892,-0.013051857240498066,-0.023806443437933922,-0.00020767971083808878,-0.8148277875423667,0.32042950031639134,-0.7845069371428471,0.44691822953525734,0.5416486951325056,0.2581020942597211,-0.8290510471298604,0.38539042224535974,9.632110595703125e-05,0.00026345252990722656,0
0.13008904457092285,0.01287636999040842,-0.013033239170908928,-0.024940552189946175,0.00018781756216031361,-0.8134886841200909,0.27143394482860994,-0.770425903938463,0.45552079683496216,0.5403902238537,0.26072668824527334,-0.8303633441226366,0.38959478794778146,9.846687316894531e-05,0.000263214111328125,0
0.1400160789489746,0.013236019760370255,-0.013001678511500359,-0.026278899982571602,0.0006162934689516019,-0.8118038889471768,0.22867679621878978,-0.7523502475424504,0.46327992957283126,0.5391330541294096,0.2633164445018485,-0.8316582222509242,0.39375301438431753,8.511543273925781e-05,0.0002524852752685547,0
0.15018892288208008,0.013629850000143051,-0.012958313338458538,-0.027818653732538223,0.0011157448277380605,-0.8098722147108139,0.1912782053609557,-0.7312452255490935,0.47041717691485485,0.5378318792902789,0.26596403820645914,-0.8329820191032296,0.39801420528649883,9.655952453613281e-05,0.00026226043701171875,0
0.16009020805358887,0.014508668333292007,-0.01282774843275547,-0.03147970885038376,0.0025044018971483897,-0.8074276500175588,0.141200174079553,-0.6970813442315753,0.47666545377948577,0.5365529525463223,0.26853478194420916,-0.8342673909721046,0.4021616459206201,9.083747863769531e-05,0.0002598762512207031,0
0.17005109786987305,0.014990135096013546,-0.012731035239994526,-0.03359031677246094,0.0034655202308222126,-0.804776140128635,0.10375527036668455,-0.6637048614855494,0.48255462079019035,0.5352539280618062,0.2711147957865943,-0.8355573978932971,0.4063340536899609,8.7738037109375e-05,0.00024890899658203125,0
0.18013238906860352,0.015501600690186024,-0.012610496021807194,-0.03588544577360153,0.004605630836618232,-0.8020601794142361,0.07044096213431214,-0.6292841490896582,0.48795875018781626,0.5339265701164626,0.2737195968937375,-0.8368597984468686,0.410556895072445,9.393692016601562e-05,0.0002608299255371094,0
0.18993186950683594,0.016045209020376205,-0.012464241124689579,-0.038365598767995834,0.005933775189106911,-0.7993181215353132,0.041427529974811125,-0.5940594208193927,0.4929526485862365,0.532624167089406,0.2762453558565582,-0.8381226779282791,0.4146616918396114,7.343292236328125e-05,0.00022554397583007812,0
0.20019102096557617,0.017079481855034828,-0.011913938447833061,-0.044126443564891815,0.009057020570137289,-0.7962789084268093,-0.004010638042246058,-0.543958432358584,0.4970322450397094,0.5312478698921809,0.2788829516751078,-0.8394414758375539,0.41895903515359056,9.72747802734375e-05,0.00026297569274902344,0
0.21028947830200195,0.01766493357717991,-0.011591421440243721,-0.047273188829422,0.010863666526361872,-0.793163498533796,-0.03286415117721091,-0.49841646231012515,0.5011167379733512,0.5298803739444347,0.2814725373966457,-0.8407362686983229,0.42318906707101783,0.00010013580322265625,0.00027489662170410156,0
0.21999001502990723,0.018298111855983734,-0.011236099526286125,-0.050583384931087494,0.012810007261360935,-0.7900661090531229,-0.0571096820695286,-0.45398376626411463,0.5047680482291768,0.5285548759019494,0.28395376940670264,-0.8419768847033513,0.42725241839371986,8.130073547363281e-05,0.00024056434631347656,0
0.23020577430725098,0.018981575965881348,-0.010846036486327648,-0.05405212938785553,0.01492706613050041,-0.7870246411236216,-0.07613767821499286,-0.41108642402247764,0.5082863699844402,0.52714641689091,0.2865600376170322,-0.8432800188085161,0.4315315856332592,8.940696716308594e-05,0.00025725364685058594,0
0.239973783493042,0.02051558904349804,-0.00995497964322567,-0.06144203618168831,0.019538582736733853,-0.7837893582270479,-0.10964587582660504,-0.3542170825376869,0.5106007777559227,0.5257876705684016,0.2890455422217301,-0.844522771110865,0.43562319975302966,8.58306884765625e-05,0.0002512931823730469,0
0.25017762184143066,0.021374939009547234,-0.00945260189473629,-0.0653531551361084,0.022020260100412095,-0.7805780308611886,-0.12593299684769577,-0.304687162016158,0.5133144192585228,0.5243557850654089,0.29163506419571483,-0.8458175320978574,0.4398973735655251,8.845329284667969e-05,0.0002636909484863281,0
0.2603275775909424,0.022299395874142647,-0.008909461088478565,-0.0694006085395813,0.02461686039799586,-0.7774377325044993,-0.1381071139818063,-0.25771842486722807,0.5156948627137234,0.5229188082044843,0.29420387493369576,-0.8471019374668478,0.4441489770877821,9.083747863769531e-05,0.0002598762512207031,0
0.2699570655822754,0.023294879123568535,-0.008326685056090355,-0.07357977330684662,0.027344476275920303,-0.7743957571140753,-0.14564299681111528,-0.21334989880388605,0.5179675329313496,0.521543882803517,0.2966344186203469,-0.8483172093101734,0.4481825675853025,7.581710815429688e-05,0.00023245811462402344,0
0.28012752532958984,0.025509774684906006,-0.007032614201307297,-0.08234333246946335,0.03308660010579541,-0.7712013065228968,-0.16558794244159564,-0.15636835668249705,0.5190403983618868,0.5200794495595936,0.2991945289369276,-0.8495972644684637,0.452442759802075,9.393692016601562e-05,0.00026679039001464844,0
0.290128231048584,0.026735665276646614,-0.006321662571281195,-0.08691591024398804,0.03611732816692308,-0.7681001995637811,-0.1697678774627137,-0.10774869238945559,0.5206457199966995,0.5186272049407595,0.30170485958190235,-0.8508524297909511,0.4566318456177424,9.703636169433594e-05,0.0002987384796142578,0
0.3000152111053467,0.02804163284599781,-0.005566969979554415,-0.09159629046916962,0.03922443444888814,-0.765102658466422,-0.17103150280250842,-0.062257191856768396,0.5219709638094683,0.5171795638550116,0.30417971452866477,-0.8520898572643323,0.460773294139411,8.368492126464844e-05,0.0002396106719970703,0
0.31021642684936523,0.029430173337459564,-0.004766711033880711,-0.09638022631406784,0.04241438182528312,-0.7622294786483206,-0.16854894892072356,-0.01998694175172383,0.5234028346719098,0.5156735343443907,0.3067259460442896,-0.8533629730221448,0.46504636939795674,0.00012302398681640625,0.0004074573516845703,0
0.32006096839904785,0.03247196227312088,-0.00302863004617393,-0.10624752193689346,0.04903261591300128,-0.7592186477148145,-0.1763565768433389,0.03345019214718816,0.5234323639958631,0.5142082750990703,0.30917608222441584,-0.8545880411122079,0.46917004131934914,9.34600830078125e-05,0.0002579689025878906,0
0.3300821781158447,0.034128352999687195,-0.0020914971828460693,-0.11132019758224487,0.05248948375636952,-0.7563298169603614,-0.17089617606751556,0.07823629798722226,0.5242216565611557,0.5127047642455775,0.3116629986377702,-0.855831499318885,0.47336771582953197,8.654594421386719e-05,0.0002551078796386719,0
0.3402273654937744,0.03588026016950607,-0.0011096267262473702,-0.1164792850613594,0.05600661492436655,-0.7535562800597174,-0.1636122190527245,0.11982714324732238,0.5247829223411867,0.5111704010724405,0.3141732341677761,-0.857086617083888,0.4776173219809714,0.00013685226440429688,0.00043272972106933594,0
0.3501405715942383,0.03772379830479622,-8.43267043819651e-05,-0.12171890586614609,0.05958666591718009,-0.750921253341928,-0.1532405495250113,0.15783323440190344,0.5254702614126778,0.5096592507465292,0.31661877412510864,-0.8583093870625542,0.48176975604213657,0.00012302398681640625,0.00040841102600097656,0
0.3602631092071533,0.041689805686473846,0.0020921616815030575,-0.13243642449378967,0.06698581501715203,-0.748164499188247,-0.15061559480408962,0.20480068023057973,0.5247226366882436,0.5081041175259675,0.3191084545309912,-0.8595542272654956,0.4860098746821926,9.107589721679688e-05,0.00025916099548339844,0
0.370330810546875,0.04381435737013817,0.003243048209697008,-0.13789771497249603,0.07077279363544604,-0.7455539647896223,-0.13765115577513926,0.24341094900075838,0.5248628505562246,0.506545345462109,0.3215770716184108,-0.8607885358092053,0.4902270235578467,0.00010371208190917969,0.0002770423889160156,0
0.38006019592285156,0.04603324458003044,0.004435354378074408,-0.14342176914215088,0.07464125502936138,-0.7430683500269613,-0.12388962970574087,0.27899101646531965,0.5247278720147998,0.505027558260817,0.3239554990999798,-0.8619777495499898,0.494302458973995,8.678436279296875e-05,0.0002455711364746094,0
0.3902418613433838,0.04834725335240364,0.005667771212756634,-0.14900556206703186,0.078535901292353,-0.7407275521700529,-0.10827961807923522,0.3111451880496999,0.5248685442947987,0.5034272574653039,0.3264368184518447,-0.8632184092259223,0.49856734501218875,0.00013375282287597656,0.0004267692565917969,0
0.40018534660339355,0.053264230489730835,0.008249332197010517,-0.16033340990543365,0.08648048657582122,-0.7382711063556412,-0.09833085625377172,0.35028643304685503,0.523453236634195,0.5018526255318375,0.32885246273488855,-0.8644262313674442,0.5027324623780455,7.724761962890625e-05,0.00023102760314941406,0
0.41008424758911133,0.051825836300849915,0.00697410199791193,-0.16606740653514862,0.09049890494941144,-0.7359819066406472,-0.07465929354588782,0.3770487696251549,0.5230551230916476,0.500273540541623,0.33124973152283316,-0.8656248657614165,0.506878904326758,8.630752563476562e-05,0.00024390220642089844,0
0.4202275276184082,0.050510868430137634,0.00575832836329937,-0.17184442281723022,0.09425525210120764,-0.733808960514631,-0.04909890461908728,0.3978337062602719,0.5226050981898002,0.4986435933973334,0.33369831699275143,-0.8668491584963757,0.5111277115298704,9.655952453613281e-05,0.0002598762512207031,0
0.4299955368041992,0.04931718483567238,0.004600060172379017,-0.177655890583992,0.09801689906630934,-0.7317610106951499,-0.021504771645347764,0.4131108767355022,0.5224319874172562,0.49706262133574763,0.33604873228571347,-0.8680243661428567,0.5152193256496408,7.653236389160156e-05,0.000232696533203125,0
0.43999528884887695,0.047289807349443436,0.0024500892031937838,-0.1893874853849411,0.10564115212130383,-0.7295953269948153,0.008513055049347167,0.4265528220792484,0.5209255524136406,0.49543266526208685,0.33844715125305,-0.869223575626525,0.5194080119911447,8.654594421386719e-05,0.000247955322265625,0
0.4501965045928955,0.04645276442170143,0.0014531542547047138,-0.19530414044857025,0.10949265558398583,-0.727516672516232,0.038425534665240936,0.43437778924074044,0.5204958008154535,0.4937579461456019,0.34088574422829243,-0.8704428721141462,0.5236810872496904,0.00010704994201660156,0.0002753734588623047,0
0.46004319190979004,0.045728281140327454,0.0005051668267697096,-0.20124970376491547,0.1133511456932341,-0.7255770046857272,0.06680283241251371,0.43956363532403986,0.5199179157406941,0.49213004447179864,0.34323172832386206,-0.8716158641619309,0.5278056579879506,8.106231689453125e-05,0.00023984909057617188,0
0.4701268672943115,0.04511468484997749,-0.0003957771696150303,-0.20722024142742157,0.11724683646641712,-0.7237854707365395,0.09407410631977163,0.4418008852458483,0.5196882988906869,0.4904514111270356,0.34562611782603964,-0.8728130589130197,0.5320294980558437,9.131431579589844e-05,0.00027179718017578125,0
0.4802258014678955,0.04460997134447098,-0.0012514300178736448,-0.21321186423301697,0.12115926333977592,-0.7221316764331913,0.1197279996522885,0.4420181746546687,0.5195248500099499,0.4887585617483079,0.34801590239201063,-0.8740079511960053,0.5362597297103527,0.00013113021850585938,0.00043082237243652344,0
0.49025940895080566,0.04392791539430618,-0.0028250713367015123,-0.2252461463212967,0.12896399585749546,-0.720398930182393,0.14760716257401654,0.44032034068516535,0.5180365776878909,0.4870651310984482,0.35038201732973046,-0.8751910086648652,0.5404625973846613,0.00012636184692382812,0.0004184246063232422,0
0.500208854675293,0.04374072700738907,-0.0035479648504406214,-0.23131993412971497,0.13285744915798428,-0.7187611610938776,0.17231988634640363,0.43591208663890135,0.5175612855590089,0.4853745940982188,0.3527201488488988,-0.8763600744244493,0.5446302114640399,0.00014400482177734375,0.0004506111145019531,0
0.5102448463439941,0.043650925159454346,-0.004230778198689222,-0.23740285634994507,0.13676249435080476,-0.7172601064313675,0.19481658267566743,0.4305320869114401,0.5169860959387726,0.4836579811031807,0.3550703554440941,-0.877535177722047,0.5488340778237573,0.00011706352233886719,0.0004069805145263672,0
0.5201776027679443,0.04374874755740166,-0.005481942556798458,-0.2495919018983841,0.14457918430508596,-0.7156841596001322,0.21950882513434983,0.4221891349369147,0.515247402324296,0.4819478211893838,0.3573881610389545,-0.8786940805194772,0.5529947011052744,8.821487426757812e-05,0.000247955322265625,0
0.5301086902618408,0.04393073171377182,-0.0060544139705598354,-0.25569623708724976,0.14849625191154392,-0.7142017927371346,0.24006204818316168,0.41220963427064217,0.5145286144153728,0.480226844034494,0.3596973425932832,-0.8798486712966416,0.5571546253070054,9.1552734375e-05,0.0002639293670654297,0
0.5399622917175293,0.044196996837854385,-0.006593368947505951,-0.2618034780025482,0.1523899949822548,-0.7128567564300669,0.2579915820633878,0.4019833714809869,0.5137561423278959,0.47850835963039934,0.36198031681822757,-0.8809901584091138,0.5612820922329511,8.630752563476562e-05,0.0002512931823730469,0
0.5500593185424805,0.04454484209418297,-0.007097318768501282,-0.26791101694107056,0.15630156134617243,-0.7116387464226144,0.27366933893862544,0.39089040918274043,0.5133534012074992,0.476736163239826,0.3643111728445478,-0.8821555864222739,0.5655115249391331,8.916854858398438e-05,0.0002655982971191406,0
0.5600254535675049,0.0454673133790493,-0.008009236305952072,-0.2801203727722168,0.16413528654556284,-0.7103528875717748,0.2905805109227187,0.37729064270060225,0.5115699064638944,0.47497580648376664,0.36660330502478483,-0.8833016525123923,0.5696861298163732,8.463859558105469e-05,0.0002498626708984375,0
0.5700039863586426,0.04604160413146019,-0.00841682218015194,-0.28619641065597534,0.16803586672714876,-0.7091545478411571,0.30317124821764,0.3630677923161431,0.5109094306089598,0.47320221891087,0.3688897667567224,-0.8844448833783611,0.573865927857739,8.58306884765625e-05,0.00023794174194335938,0
0.5801117420196533,0.04668649286031723,-0.008790163323283195,-0.29226580262184143,0.17192543355973425,-0.708073947966555,0.31307763019569945,0.3493861570494375,0.5101831758836971,0.47139444210084624,0.37119709044715304,-0.8855985452235765,0.5780998546482606,9.274482727050781e-05,0.0002715587615966797,0
0.590083122253418,0.04739874228835106,-0.0091279661282897,-0.2983260154724121,0.17582190951743398,-0.7071026781228328,0.3209894044624407,0.33538925512544226,0.509802942440907,0.4696000322201731,0.3734646030600656,-0.8867323015300328,0.5822766566334,8.249282836914062e-05,0.00024127960205078125,0
0.6000664234161377,0.05019664764404297,-0.007610882632434368,-0.30906063318252563,0.18376709330471722,-0.70610240170548,0.32615535604556234,0.3205563312690567,0.5080044009414381,0.4677925504066396,0.37572613667943244,-0.8878630683397162,0.5864584520455833,8.702278137207031e-05,0.00025010108947753906,0
0.6102712154388428,0.050077132880687714,-0.006178532261401415,-0.3144269287586212,0.18781631605538815,-0.7051882848762737,0.3284092488899222,0.3043637717874089,0.5073263361626417,0.4659337116003026,0.3780288036570309,-0.8890144018285154,0.5907330253322423,0.00010132789611816406,0.00027370452880859375,0
0.6201603412628174,0.05001373216509819,-0.0047431751154363155,-0.31979385018348694,0.19048707329247172,-0.7043676669508178,0.32803323063372664,0.28800315165832263,0.5070113702532889,0.4641215579959223,0.38025146864073744,-0.8901257343203687,0.5948753726707787,0.00012087821960449219,0.00040602684020996094,0
0.6302368640899658,0.05000844597816467,-0.003298429772257805,-0.3251603841781616,0.19315676560707087,-0.7036254009194053,0.3254333410056575,0.2713871128861092,0.5072454913988441,0.46226415864012355,0.3825073171022204,-0.8912536585511102,0.5990962166824453,9.655952453613281e-05,0.00026607513427734375,0
0.6401124000549316,0.05005720257759094,-0.0018474389798939228,-0.3305250406265259,0.19586430322026083,-0.7029491374115857,0.3207653316560613,0.2549087393789869,0.5077531146884552,0.46043316827594044,0.38470936764183356,-0.8923546838209168,0.6032328715141517,8.296966552734375e-05,0.0002486705780029297,0
0.6501691341400146,0.05030668526887894,0.0010803770273923874,-0.34126582741737366,0.20127988603359068,-0.7021837166117638,0.31366571681561883,0.2349878019717323,0.5075615897818028,0.4585578027388246,0.3869428143115481,-0.893471407155774,0.6074454264369253,8.654594421386719e-05,0.00024390220642089844,0
0.6604452133178711,0.05049818754196167,0.002560270018875599,-0.34662649035453796,0.20398487742188331,-0.7014613763273886,0.3035319719562509,0.21605426215336143,0.5082720151878832,0.4566303435722174,0.3892155306884845,-0.8946077653442422,0.611749860417307,0.0001347064971923828,0.0004527568817138672,0
0.6700713634490967,0.0507313534617424,0.004052293952554464,-0.35197773575782776,0.20669819208606463,-0.7008040377289814,0.29163557957207153,0.19853909341123008,0.5089482094903358,0.4548145712111767,0.3913357967449355,-0.8956678983724677,0.6157820527552551,0.00011968612670898438,0.0004191398620605469,0
0.6801557540893555,0.051321569830179214,0.0070775761269032955,-0.3626508414745331,0.21216428184918062,-0.7000710344829997,0.2767854980838249,0.17866311068832322,0.5089677951047229,0.45290180296208893,0.3935479092482758,-0.8967739546241379,0.6200061924287705,0.0001361370086669922,0.0004558563232421875,0
0.6902837753295898,0.05167628452181816,0.00861381832510233,-0.3679713010787964,0.21490437913598784,-0.6993840980022787,0.2598917423867895,0.16060307244516797,0.5097746874492494,0.4509699300802814,0.3957601826401768,-0.8978800913200884,0.6242486080452668,0.0001354217529296875,0.0004420280456542969,0
0.7001044750213623,0.05206068232655525,0.010174577124416828,-0.3732791543006897,0.2176529640894025,-0.6987673235154512,0.24233520518830143,0.14416002919596688,0.5105758672775779,0.449086357674805,0.39789627209912026,-0.8989481360495601,0.6283622931125713,0.0001220703125,0.0004119873046875,0
0.7100956439971924,0.05247846618294716,0.01175424549728632,-0.3785732090473175,0.22039654110683649,-0.6982163964773771,0.22435981533522734,0.1287359309063657,0.5116792603093316,0.44715970738549143,0.4000602405774932,-0.9000301202887465,0.6325473841866036,0.00012612342834472656,0.0004184246063232422,0
0.7199816703796387,0.05341362580657005,0.01497615035623312,-0.3891453742980957,0.22591126112905396,-0.6975903106285533,0.20274073809594773,0.11236439343067761,0.5118307341948137,0.44524306897148197,0.40219225444164897,-0.9010961272208244,0.6366884332341087,7.43865966796875e-05,0.000232696533203125,0
0.730104923248291,0.05392666161060333,0.016621991991996765,-0.3944048583507538,0.22868212359110673,-0.6970169918298033,0.18117669941254513,0.09732489147994026,0.5128210210347189,0.4432699050537356,0.4043659126010157,-0.9021829563005078,0.6409288514797874,8.7738037109375e-05,0.0002465248107910156,0
0.7401223182678223,0.05446808412671089,0.018291696906089783,-0.3996454179286957,0.23143890708212558,-0.6965155720428755,0.15953282288187218,0.08415236206345379,0.513760372209545,0.4413069284256714,0.4065073122632597,-0.9032536561316298,0.6451249280933162,9.1552734375e-05,0.0002567768096923828,0
0.7499644756317139,0.05503683537244797,0.01998777873814106,-0.40486693382263184,0.23421674892080835,-0.6960745364061612,0.13820620034393377,0.0720963576571012,0.5149400572886754,0.4393682155994897,0.4086019715088516,-0.9043009857544257,0.6492476013292997,8.368492126464844e-05,0.00023293495178222656,0
0.7602975368499756,0.056245509535074234,0.023464776575565338,-0.4152526259422302,0.23977761810263784,-0.6955532270825078,0.11303106705014261,0.05980586646934317,0.5152195074949981,0.43732210670503874,0.41079115738665395,-0.905395578693327,0.653575903890951,8.797645568847656e-05,0.00025272369384765625,0
0.7701163291931152,0.05688360333442688,0.02525758370757103,-0.42041313648223877,0.24255505629988727,-0.695087391385319,0.08889921312358062,0.0487467538590364,0.5162309978155362,0.4353677234923362,0.4128618962087694,-0.9064309481043846,0.6576887900099285,9.72747802734375e-05,0.00026917457580566406,0
0.7800154685974121,0.05754080414772034,0.0270825307816267,-0.4255508482456207,0.24536001478269712,-0.6946914630685405,0.06560739121047982,0.03921770204188691,0.5171859207503678,0.43338742209602626,0.414940167215661,-0.9074700836078304,0.6618353318271819,8.58306884765625e-05,0.0002474784851074219,0
0.7902584075927734,0.058216650038957596,0.02893909066915512,-0.43066632747650146,0.24822668903339778,-0.6943616223867741,0.04321299823699706,0.03071246766173201,0.518408119640684,0.4313279013592848,0.4170806175177589,-0.9085403087588794,0.6661258840803813,0.0001308917999267578,0.00043892860412597656,0
0.8000578880310059,0.059625737369060516,0.032754261046648026,-0.4408198595046997,0.2540683964879967,-0.6939718730772065,0.016681585379856707,0.023261581901915292,0.5185187707716982,0.42934765027488186,0.4191188318406102,-0.9095594159203051,0.6702306808475477,0.00013065338134765625,0.0004279613494873047,0
0.810122013092041,0.06035619601607323,0.03471609950065613,-0.44585755467414856,0.25703917107945473,-0.6936435857088209,-0.007368397480266065,0.01629875954449625,0.5194520968751956,0.4273038959529393,0.42120230353529586,-0.9106011517676479,0.6744463316950886,9.608268737792969e-05,0.0002834796905517578,0
0.8201239109039307,0.061102040112018585,0.03671656921505928,-0.4508694112300873,0.2600487668164067,-0.6933865119610962,-0.030428278406711584,0.010951802589102503,0.5202599849403295,0.4252627615642291,0.4232630194415355,-0.9116315097207677,0.6786359168534604,8.869171142578125e-05,0.00025010108947753906,0
0.8301048278808594,0.06186433508992195,0.038754940032958984,-0.4558541774749756,0.2631113086948082,-0.6931951398229266,-0.05193998270163848,0.006382848955753081,0.5212887554674535,0.4232160021537729,0.4253095525860872,-0.9126547762930436,0.6828167135802349,8.463859558105469e-05,0.00024700164794921875,0
0.8400092124938965,0.06342989951372147,0.04295600950717926,-0.46574124693870544,0.2693018611206046,-0.6929385446679872,-0.07750975303033247,0.003690080238055882,0.5211659059120196,0.42117520127797037,0.4273306095149997,-0.9136653047574999,0.6869654525053877,9.131431579589844e-05,0.0002570152282714844,0
0.8501803874969482,0.06423258036375046,0.04511963576078415,-0.4706406593322754,0.27245922245857984,-0.6927551619357407,-0.09948823770400801,0.0009848335524519536,0.5218966521837659,0.4190693837578942,0.42939591474160393,-0.914697957370802,0.6912259443277827,9.846687316894531e-05,0.00026869773864746094,0
0.8601055145263672,0.06504960358142853,0.04732275754213333,-0.4755125045776367,0.27566546609922776,-0.6926421807589237,-0.12010079860528812,-0.00040645799392939716,0.5224661099773109,0.4170047441344986,0.43140125564179965,-0.9157006278208998,0.6953833718159919,8.726119995117188e-05,0.00025153160095214844,0
0.8701136112213135,0.06588078290224075,0.04956822469830513,-0.48035284876823425,0.27892280270377684,-0.6925909294768883,-0.13908954852198394,-0.0011883140724361033,0.5232717483261197,0.4149131286197164,0.43341330817015605,-0.916706654085078,0.6995755535564265,9.131431579589844e-05,0.00025463104248046875,0
0.8800206184387207,0.06758110225200653,0.05418833717703819,-0.4899378716945648,0.2855373624635816,-0.6924855859755227,-0.16174510415830107,0.0005126531990508672,0.5228287611206813,0.41283307840358835,0.43539504978331656,-0.9176975248916582,0.7037253910355288,8.153915405273438e-05,0.00024247169494628906,0
0.8901002407073975,0.06845126301050186,0.05656450241804123,-0.49468114972114563,0.28888828722809257,-0.692449881320573,-0.18030199202906297,0.001604384399471198,0.5232823955976802,0.4107070725984507,0.43740107512169074,-0.9187005375608454,0.7079475333382268,9.226799011230469e-05,0.0002620220184326172,0
0.9001295566558838,0.06933440268039703,0.05898519977927208,-0.49939170479774475,0.29227501685484863,-0.6924712037443185,-0.19729385323160403,0.0037407373105175423,0.5235914997979078,0.40858200273807754,0.4393867852343099,-0.9196933926171549,0.7121486033787995,9.465217590332031e-05,0.0002593994140625,0
0.9101016521453857,0.07023096829652786,0.0614495575428009,-0.5040693879127502,0.29567185772829724,-0.6925404039559925,-0.21227166830599786,0.006162217914874289,0.5241510561039371,0.40645953848776917,0.4413509301817656,-0.9206754650908827,0.7163257049695615,8.249282836914062e-05,0.00023794174194335938,0
0.9200844764709473,0.07206418365240097,0.06653421372175217,-0.5133260488510132,0.3027248756020142,-0.6925526022011717,-0.23049240230651505,0.011584086941301891,0.5233783039566399,0.4043253335182712,0.4433069192730233,-0.9216534596365116,0.7205073006446631,9.059906005859375e-05,0.0002579689025878906,0
0.9300422668457031,0.0730004534125328,0.06914502382278442,-0.5178602337837219,0.3063106705711548,-0.6926225729966557,-0.24430655661724243,0.015808924455513997,0.5235231783531333,0.40218710322564727,0.44524772205926283,-0.9226238610296313,0.7246784101229723,9.012222290039062e-05,0.0002512931823730469,0
0.9400134086608887,0.07394945621490479,0.07180020213127136,-0.5223627686500549,0.30992851403988386,-0.6927311873211823,-0.2565935212962757,0.020753951251801184,0.5235129931333034,0.40003667133229975,0.4471807929566895,-0.9235903964783447,0.728855112239571,8.344650268554688e-05,0.000240325927734375,0
0.9501452445983887,0.0749109610915184,0.0744992196559906,-0.5268340110778809,0.31358646960422204,-0.6928691631798075,-0.2668498705845117,0.025625033883055794,0.5237799060759397,0.39784206673541794,0.44913437848342364,-0.9245671892417118,0.7330991257527212,9.655952453613281e-05,0.0002617835998535156,0
0.960111141204834,0.07686912268400192,0.08002719283103943,-0.5356815457344055,0.32099461267245294,-0.6929613013533418,-0.27943145330951125,0.033574691051002616,0.522657146506599,0.3956740979765017,0.451045461334533,-0.9255227306672664,0.7372736307614204,8.130073547363281e-05,0.00024080276489257812,0
0.9701895713806152,0.07786630839109421,0.08285614848136902,-0.5400572419166565,0.3247459056473087,-0.6930988392813429,-0.28770794534583316,0.0397734584160077,0.5225339814316764,0.3934723129261515,0.4529674811292138,-0.9264837405646069,0.741495273721414,8.654594421386719e-05,0.00024771690368652344,0
0.9804813861846924,0.07887695729732513,0.0857265442609787,-0.5444017052650452,0.32853904938151973,-0.6932600790600637,-0.2946569279031238,0.04653159096182371,0.52229211339488,0.39121427632630834,0.4549191026968233,-0.9274595513484116,0.7458062990254934,9.083747863769531e-05,0.0002684593200683594,0
0.9905960559844971,0.07990919053554535,0.08863911032676697,-0.5487140417098999,0.3323705773175866,-0.6934413928641112,-0.299749744951251,0.05307288530305214,0.522316337446588,0.38898567382852944,0.4568261655774162,-0.928413082788708,0.7500431220037005,0.00012564659118652344,0.0007581710815429688,0
1.000035285949707,0.08986882865428925,0.09570209681987762,-0.557531476020813,0.3395886903922952,-0.6936282140956456,-0.30977988508695287,0.06883699127741189,0.5210160804244864,0.38689750658392985,0.45859603072763055,-0.9292980153638153,0.7539970174056002,0.00013780593872070312,0.0003612041473388672,0
1.010056972503662,0.09475816041231155,0.09927085041999817,-0.5618799924850464,0.3430135544824554,-0.6938945950104903,-0.31350749897968255,0.08279614837851484,0.5208593476937776,0.38467167461467566,0.46046465960933536,-0.9302323298046676,0.7581948916528649,0.00010013580322265625,0.0002703666687011719,0
1.020005702972412,0.09959034621715546,0.10286243259906769,-0.5661956071853638,0.34648423558169883,-0.6941744582822227,-0.31574373607324635,0.09790404258549273,0.5206106387957314,0.3824531195552098,0.46230899985019586,-0.9311544999250979,0.7623622061266208,8.940696716308594e-05,0.0002589225769042969,0
1.0300531387329102,0.10436795651912689,0.10647556930780411,-0.5704775452613831,0.34998458899252327,-0.6944654784068983,-0.3153457762073782,0.11297040248299578,0.5207343492152444,0.3802035787552955,0.4641607897072585,-0.9320803948536291,0.7665708661763003,9.131431579589844e-05,0.00025773048400878906,0
1.0399847030639648,0.11377019435167313,0.1137678399682045,-0.5789377689361572,0.3570229200559858,-0.6947551098443349,-0.3161826830894054,0.1338123672346435,0.5196112720759998,0.3779711689451356,0.4659804668076203,-0.93299023340381,0.7707309901151133,8.296966552734375e-05,0.00024437904357910156,0
1.050201177597046,0.11839686334133148,0.11744771152734756,-0.5831176042556763,0.3605838444164811,-0.6950615789140983,-0.3114373630400465,0.15134406366818962,0.5195309471558583,0.375665630444843,0.46784114195149473,-0.9339205709757473,0.7750104569602752,9.417533874511719e-05,0.0002684593200683594,0
1.0603845119476318,0.1229853704571724,0.12115269154310226,-0.5872647762298584,0.36416165295310177,-0.6953293606033882,-0.30552083709133643,0.16873504669002287,0.519367672653083,0.37335845552176145,0.46968442989991144,-0.9348422149499557,0.7792760420782551,9.226799011230469e-05,0.0002601146697998047,0
1.0700032711029053,0.12752993404865265,0.1248786672949791,-0.5913800597190857,0.36784590603301115,-0.6955606153723357,-0.29743006588290144,0.18514380242989936,0.5194117291050387,0.3711708858267393,0.4714150756123457,-0.9357075378061728,0.7833051384914359,7.987022399902344e-05,0.00023984909057617188,0
1.080090045928955,0.13649576902389526,0.13239334523677826,-0.599497377872467,0.37527096012798344,-0.6957609839494279,-0.28977478732353523,0.20594549651982136,0.5181700343862352,0.36886826034363546,0.4732189836756974,-0.9366094918378487,0.7875302768503603,9.465217590332031e-05,0.00026488304138183594,0
1.090210199356079,0.1409192532300949,0.13617944717407227,-0.6035096645355225,0.3790084275672115,-0.6959615286634375,-0.2777376063055354,0.2229497097101927,0.5179389806861195,0.3665492046934563,0.4750175581371647,-0.9375087790685823,0.7917693968050074,9.298324584960938e-05,0.0002613067626953125,0
1.1000261306762695,0.14530710875988007,0.1399821937084198,-0.6074907183647156,0.3827562225927476,-0.6961126938825123,-0.26504252251751037,0.23920720733305811,0.5175599784910992,0.3642914835769099,0.4767512086962486,-0.9383756043481243,0.7958810845014943,8.416175842285156e-05,0.0002460479736328125,0
1.1102113723754883,0.14966154098510742,0.14380048215389252,-0.6114432215690613,0.38651527743783953,-0.6962232184408234,-0.2509587854779018,0.2539399634095856,0.5175367073857623,0.36194015162458876,0.47853874100428867,-0.9392693705021443,0.8001474685678014,9.202957153320312e-05,0.00025653839111328125,0
1.1201188564300537,0.1582758128643036,0.15148001909255981,-0.6192629337310791,0.39405715079275294,-0.6963185985463853,-0.2362412171588587,0.2717133676500533,0.5161239731786151,0.3596445258813107,0.4802664000360708,-0.9401332000180354,0.8042975057839855,8.7738037109375e-05,0.0002498626708984375,0
1.1301963329315186,0.16254764795303345,0.15534374117851257,-0.6231164336204529,0.3978689360996075,-0.6963964906367037,-0.2190511939345287,0.2856370019794033,0.5157749181363556,0.3573010521317845,0.4820124045556502,-0.941006202277825,0.8085187492698155,9.489059448242188e-05,0.0002593994140625,0
1.1402041912078857,0.16678854823112488,0.15922033786773682,-0.6269422173500061,0.40177574049792647,-0.6964241459711327,-0.20203430735547448,0.2985901117475547,0.5152652709516587,0.35496537893433533,0.483735030526014,-0.9418675152630069,0.8127108311417093,0.0001010894775390625,0.0002689361572265625,0
1.150174856185913,0.17100068926811218,0.16310927271842957,-0.6307408809661865,0.40567918175621825,-0.6964211565164519,-0.184723120294074,0.31008798686892924,0.5150671230926804,0.3526301272110297,0.48543999977662844,-0.9427199998883142,0.8168873335212261,8.249282836914062e-05,0.0002372264862060547,0
1.1603047847747803,0.17934516072273254,0.17091694474220276,-0.6382578015327454,0.4135781310886453,-0.6964272419439725,-0.166021625148238,0.32345144185106245,0.5134484942895469,0.35024918787289316,0.4871606576832521,-0.943580328841626,0.8211305480860493,9.34600830078125e-05,0.00026035308837890625,0
1.170220136642456,0.18347662687301636,0.17483149468898773,-0.6419757008552551,0.41752815792372816,-0.6964141306966244,-0.14633049087835137,0.3332387818539949,0.5128888622239052,0.3479105513576976,0.48883355884593566,-0.9444167794229678,0.8252838809640825,9.560585021972656e-05,0.0002732276916503906,0
1.180020809173584,0.1875811368227005,0.17875245213508606,-0.6456678509712219,0.42150987181785926,-0.6963619765456808,-0.1275387578330674,0.34217252467308035,0.5121728142507342,0.3455911108398972,0.4904760790379546,-0.9452380395189772,0.8293891770739532,8.368492126464844e-05,0.00024080276489257812,0
1.1900968551635742,0.19165880978107452,0.18267834186553955,-0.6493337750434875,0.42549724976622966,-0.6962955465441665,-0.108769578089222,0.34944266752970604,0.5118138011094847,0.3431984163257064,0.4921532759532614,-0.9460766379766307,0.833609821348538,9.322166442871094e-05,0.0002627372741699219,0
1.200087547302246,0.1997312754392624,0.19054725766181946,-0.656570553779602,0.4335351737101506,-0.6962412106371564,-0.08812691575172388,0.3570898386261002,0.5099926424918049,0.34081795372081614,0.49380474118983064,-0.9469023705949153,0.8377947126854884,8.630752563476562e-05,0.0002512931823730469,0
1.2101616859436035,0.20372404158115387,0.19448789954185486,-0.6601516008377075,0.43766219088895075,-0.6961684146288186,-0.06811191186579692,0.3618081024830539,0.5092643929315004,0.3384095621186394,0.49545834160570024,-0.9477291708028501,0.8420145580117462,8.940696716308594e-05,0.00024962425231933594,0
1.2201502323150635,0.2076902538537979,0.19842807948589325,-0.6637079119682312,0.4417837574495143,-0.6960694223370232,-0.049345182964721804,0.36585436815140193,0.5083955098040135,0.3360137116928335,0.4970862958827223,-0.9485431479413611,0.8461985505318288,8.916854858398438e-05,0.0002579689025878906,0
1.2299919128417969,0.21162854135036469,0.20236589014530182,-0.6672397255897522,0.4458973280079046,-0.6959633471255042,-0.03129281194800059,0.36847101086055756,0.5078398519659825,0.3336454287818044,0.49867898276647454,-0.9493394913832373,0.8503210240307306,8.368492126464844e-05,0.0002448558807373047,0
1.2401187419891357,0.21942166984081268,0.21023094654083252,-0.6742305755615234,0.45416852887418985,-0.6958755331593155,-0.011150682871102314,0.3706453128881731,0.5058302809058753,0.33120064843276437,0.5003060368191817,-0.9501530184095908,0.8545629403045225,0.00010323524475097656,0.0002810955047607422,0
1.2502467632293701,0.22327598929405212,0.21415436267852783,-0.6776911020278931,0.45831032530986954,-0.6957727050362041,0.007445414860754836,0.37038271188261546,0.504970182984332,0.3287476445635553,0.5019212948201285,-0.9509606474100643,0.8588053559210187,9.5367431640625e-05,0.00026226043701171875,0
1.2601616382598877,0.2271013855934143,0.21806924045085907,-0.6811261773109436,0.46245410250038516,-0.695659160845996,0.02436046134104731,0.3697496281781646,0.5039693073221679,0.32633863375344274,0.503490909669615,-0.9517454548348074,0.86295848906197,8.606910705566406e-05,0.00025343894958496094,0
1.2701189517974854,0.23089896142482758,0.22197459638118744,-0.6845518350601196,0.4665847970247604,-0.6955453512310331,0.04027691637473685,0.3680246033830279,0.5033330472741807,0.32391176955690915,0.5050556063865758,-0.9525278031932878,0.8671293988031976,9.560585021972656e-05,0.00026798248291015625,0
1.2799758911132812,0.23840054869651794,0.2297765612602234,-0.6913291811943054,0.4750028729358493,-0.6954631993480829,0.058289890660805414,0.3650449636597444,0.5011515957160491,0.3215019800103313,0.5065930090806983,-0.9532965045403491,0.8712582638887156,0.00016760826110839844,0.0005328655242919922,0
1.2901804447174072,0.24210438132286072,0.2336602509021759,-0.6946804523468018,0.4793082932733053,-0.69536352629818,0.07378752779606211,0.3603257227147232,0.5001537915591406,0.31899952017039074,0.5081725161114682,-0.9540862580557341,0.8755327373068337,0.0001418590545654297,0.0004944801330566406,0
1.3002970218658447,0.24577419459819794,0.23753191530704498,-0.6980078816413879,0.48360972552219395,-0.6952510041499484,0.08751232748642432,0.35542359829934794,0.49901712318800767,0.3165109748657134,0.509726203750166,-0.9548631018750829,0.8797703592333677,9.012222290039062e-05,0.0002529621124267578,0
1.3099992275238037,0.24940802156925201,0.24138955771923065,-0.7013111114501953,0.4879061819044648,-0.6951422719678881,0.09996834520194293,0.349628435945066,0.4981829055607744,0.3141172502415587,0.5112048054358272,-0.9556024027179135,0.8838344096358559,8.368492126464844e-05,0.00024819374084472656,0
1.3202059268951416,0.25656747817993164,0.24905887246131897,-0.7078413963317871,0.496515628442005,-0.6950723848075929,0.11421314413267494,0.34185009280690193,0.4958678175978899,0.3115916027727286,0.5127481575603389,-0.9563740787801693,0.8881097818708419,0.00012087821960449219,0.0003070831298828125,0
1.330195426940918,0.26008808612823486,0.2528684437274933,-0.7110664248466492,0.5008113448350525,-0.6949899249970782,0.1255044333534792,0.3328332021092718,0.4947238139917811,0.3091123583925334,0.5142465847130206,-0.9571232923565103,0.892294173865088,8.96453857421875e-05,0.0002655982971191406,0
1.3400897979736328,0.2635677754878998,0.2566613554954529,-0.7142776846885681,0.5050874399893523,-0.6949043143234307,0.13480725721668793,0.3240601121506372,0.49346380042718285,0.30664962033204624,0.5157189257242862,-0.9578594628621431,0.8964387183115238,9.107589721679688e-05,0.00025534629821777344,0
1.350069522857666,0.2669983506202698,0.2604511082172394,-0.7174611687660217,0.5093757394321885,-0.694831946098411,0.14274241405626376,0.3147496823403719,0.49258189364541527,0.30415853381345953,0.5171920207316104,-0.9585960103658051,0.9006190156955939,9.179115295410156e-05,0.0002617835998535156,0
1.360133171081543,0.2737312316894531,0.2679717242717743,-0.7237428426742554,0.5181382606627795,-0.6948007043559136,0.15218312032892437,0.3031100057747648,0.4901270702291394,0.3016393330940482,0.5186653186117015,-0.9593326593058507,0.9048344668060531,9.059906005859375e-05,0.0002582073211669922,0
1.370297908782959,0.27703097462654114,0.2717009484767914,-0.7268431782722473,0.5224882124707249,-0.6947547048445607,0.15868708211441207,0.2907627927092773,0.4889246559962652,0.2990875830215155,0.5201409594353708,-0.9600704797176853,0.9090922621778446,9.322166442871094e-05,0.00025725364685058594,0
1.3801345825195312,0.2802848815917969,0.2754080593585968,-0.7299163341522217,0.5268239377428596,-0.6946993711045523,0.16328789108651026,0.27908460121538514,0.4875638669393411,0.2966113162619532,0.5215570218733053,-0.9607785109366527,0.9132126384373879,9.179115295410156e-05,0.00025844573974609375,0
1.3900997638702393,0.2834925353527069,0.27909237146377563,-0.7329629063606262,0.5311760496598142,-0.6946498700583694,0.16668874748749152,0.26713005567166187,0.48660003084520703,0.2940958631745783,0.5229795629502167,-0.9614897814751083,0.9173868438404644,8.416175842285156e-05,0.0002512931823730469,0
1.4000699520111084,0.29635533690452576,0.2897043824195862,-0.7390918135643005,0.5396250698001048,-0.694606007683226,0.1664172928355963,0.25885756101729496,0.4841841429806423,0.29157231880834866,0.5243906777439151,-0.9621953388719575,0.9215631464828995,9.036064147949219e-05,0.00025391578674316406,0
1.4101502895355225,0.3026198446750641,0.2949244976043701,-0.7421280741691589,0.5436954288285027,-0.6945922922945713,0.16558967457918258,0.2508413338058599,0.4830582706750673,0.2890140116783308,0.5258050028799627,-0.9629025014399812,0.92578558839122,9.5367431640625e-05,0.0002620220184326172,0
1.4200804233551025,0.3087800145149231,0.30009007453918457,-0.7451373934745789,0.547769324531386,-0.6945951593763219,0.1635007452362693,0.2445627064158181,0.4818507654997919,0.2864871170253815,0.5271860504399611,-0.9635930252199805,0.9299451131187876,8.630752563476562e-05,0.0002448558807373047,0
1.430131435394287,0.314828485250473,0.3051992952823639,-0.74811851978302,0.5519402357116914,-0.6946274892219376,0.16131044009251735,0.23874911611324012,0.4810488009680348,0.2839227429284162,0.5285715429797602,-0.96428577148988,0.9341552711965803,0.00010442733764648438,0.0002689361572265625,0
1.4399645328521729,0.32076767086982727,0.31025221943855286,-0.7510718703269958,0.556106207351546,-0.6946853231855384,0.15877466412286734,0.23373462904954728,0.48032782654241424,0.28140748230425944,0.5299149260996314,-0.9649574630498157,0.9382741494280105,9.083747863769531e-05,0.00025463104248046875,0
1.4501287937164307,0.3323218524456024,0.3201928436756134,-0.7568944096565247,0.5644179812779212,-0.6947587247030826,0.15545688586429782,0.22932334427676518,0.47827448104795883,0.27880083152521895,0.5312909714467643,-0.965645485723382,0.9425317450627201,8.606910705566406e-05,0.00025343894958496094,0
1.460716724395752,0.33793699741363525,0.32508209347724915,-0.7597649097442627,0.5685772476434993,-0.6948561985916352,0.1525012086592373,0.22400357702139045,0.4774068924507709,0.2760783754391804,0.5327107382199677,-0.9663553691099838,0.9469668070945699,0.00010895729064941406,0.0002918243408203125,0
1.4699697494506836,0.3434430956840515,0.32991844415664673,-0.762607216835022,0.5727320589724881,-0.6949559017593779,0.14883278932600794,0.21951596633802897,0.4762799730471399,0.2736932388543687,0.5339400818494576,-0.9669700409247288,0.950842705166044,8.082389831542969e-05,0.00023674964904785156,0
1.4800374507904053,0.3541300594806671,0.3394329845905304,-0.7682207226753235,0.58100148975457,-0.6950668034979299,0.14443895424428965,0.21457580264914178,0.47406228953191326,0.27109188800250955,0.5352655306100279,-0.9676327653050139,0.9550598540416982,9.512901306152344e-05,0.00025916099548339844,0
1.490168809890747,0.35931161046028137,0.3441168963909149,-0.7709928154945374,0.5851141402744607,-0.6951866489109637,0.1401569307433055,0.20881362816658058,0.4729408647314095,0.26846760928189867,0.536586565957872,-0.9682932829789359,0.9593036678177667,9.179115295410156e-05,0.0002646446228027344,0
1.5000178813934326,0.3643854260444641,0.34875237941741943,-0.7737363576889038,0.589298022411677,-0.6953017866095808,0.1350683809832295,0.20377620627585818,0.47175030955332364,0.26591027894392893,0.5378584605190866,-0.9689292302595433,0.9634292372414356,8.463859558105469e-05,0.0002598762512207031,0
1.51023268699646,0.36935147643089294,0.3533410131931305,-0.7764502763748169,0.5934804534155966,-0.6954276341438493,0.13007646342865636,0.19849304037361412,0.47097724284636294,0.26325162045297756,0.5391647098326089,-0.9695823549163044,0.9677080050068114,9.632110595703125e-05,0.0002701282501220703,0
1.5202066898345947,0.378958135843277,0.36237096786499023,-0.781790018081665,0.6018158041374365,-0.6955613541471687,0.12397140934089039,0.19284523915954832,0.46873093136806654,0.26064944494410863,0.5404274852839445,-0.9702137426419721,0.9718859055459005,0.0001354217529296875,0.0004582405090332031,0
1.5300259590148926,0.38359934091567993,0.36681222915649414,-0.7844160795211792,0.605946808139215,-0.6956991909686571,0.11824941695041125,0.18618062174082461,0.46766742969858066,0.2580817215707688,0.5416584024928148,-0.9708292012464074,0.9759989914019597,0.00011467933654785156,0.00029969215393066406,0
1.540160894393921,0.3881340026855469,0.37120580673217773,-0.7870138883590698,0.6100769565641752,-0.6958327518374965,0.11213823077761217,0.18017605948994286,0.46655218136404947,0.25542535649720277,0.5429160959653682,-0.971458047982684,0.9802443032061414,0.00014400482177734375,0.0004851818084716797,0
1.550236701965332,0.39256176352500916,0.3755504786968231,-0.7895826101303101,0.6141988434573726,-0.6959718427046521,0.10654341755588739,0.17367782704746348,0.46582661542997605,0.2527784133819741,0.5441535387444354,-0.9720767693722177,0.9844648476121853,0.00013184547424316406,0.0004687309265136719,0
1.5603344440460205,0.40110260248184204,0.3840949833393097,-0.7946457862854004,0.6223908454073288,-0.696111770198536,0.09967057521929566,0.16668867497736894,0.46369647932165897,0.25011969370414994,0.5453807283186143,-0.9726903641593071,0.9886945799239901,9.775161743164062e-05,0.0002741813659667969,0
1.5701661109924316,0.4052146077156067,0.38829711079597473,-0.79713374376297,0.6264946580256857,-0.696250209789372,0.09307464832496042,0.15875337573566314,0.4627024085075067,0.24752530649883092,0.546563100330291,-0.9732815501651455,0.9928128589441749,9.775161743164062e-05,0.00028395652770996094,0
1.5801045894622803,0.40921661257743835,0.3924543857574463,-0.7995930314064026,0.6305887448152449,-0.6963761011304639,0.08586201716868565,0.15152311301906649,0.46163478608597985,0.24489705344361545,0.5477457742553884,-0.9738728871276942,0.9969758790706732,8.7738037109375e-05,0.0002620220184326172,0
1.5901861190795898,0.4131086468696594,0.39656776189804077,-0.8020244240760803,0.6346563366485185,-0.6964999596441148,0.07893582827171731,0.1439578005104528,0.46097144948516333,0.24222519728960945,0.5489325585151693,-0.9744662792575847,1.0011988203216982,0.00010037422180175781,0.00027251243591308594,0
1.6001265048980713,0.4205594062805176,0.40465912222862244,-0.8068013787269592,0.6428038819599745,-0.6966205618778486,0.07072502906968525,0.13571738839944614,0.4588717164886081,0.2395851166599706,0.5500899670735945,-0.9750449835367971,1.0053626393965236,0.0001468658447265625,0.0004916191101074219,0
1.6102080345153809,0.4241175949573517,0.4086395800113678,-0.8091481328010559,0.6468478566682183,-0.6967381959887966,0.06278203834370186,0.12674064455686318,0.4579717545830697,0.23690190123888155,0.5512508405339652,-0.9756254202669825,1.0095855806475484,0.00013327598571777344,0.0004513263702392578,0
1.6200881004333496,0.42756542563438416,0.41257649660110474,-0.8114672899246216,0.6508948512047914,-0.6968474802151602,0.05455346619555526,0.11861830958104518,0.4569561955413658,0.23426684814593995,0.5523758175913995,-0.9761879087956997,1.0137241329815316,0.00010418891906738281,0.00029969215393066406,0
1.6299920082092285,0.43090328574180603,0.41646888852119446,-0.8137555122375488,0.654893347916701,-0.6969637692903355,0.046853619798758794,0.11022765287597776,0.4563420291383911,0.23162007504507895,0.5534908678886328,-0.9767454339443163,1.0178726721696025,9.679794311523438e-05,0.0002777576446533203,0
1.6400227546691895,0.4372355341911316,0.4241274893283844,-0.8182492256164551,0.6629540782721232,-0.6970767207143396,0.0383605432920583,0.10099384570320355,0.45432447731890346,0.22893399562217345,0.5546072715430862,-0.977303635771543,1.0220743414214206,9.751319885253906e-05,0.0002796649932861328,0
1.6500554084777832,0.440234899520874,0.4278905391693115,-0.8204552531242371,0.6670048129677735,-0.6971877818176183,0.03008557572821705,0.09122389727855143,0.45346027600520206,0.2262420230835006,0.5557108483654829,-0.9778554241827414,1.0262768096215658,0.00010609626770019531,0.0002963542938232422,0
1.6601641178131104,0.4431224763393402,0.43160945177078247,-0.8226335048675537,0.6710319564791406,-0.6972928564371864,0.02159037231004356,0.08223567383490818,0.4525293559411042,0.22352426318556623,0.556809575858165,-0.9784047879290825,1.0305111358862509,8.821487426757812e-05,0.00025653839111328125,0
1.6700751781463623,0.44589775800704956,0.43528518080711365,-0.824784517288208,0.6750704036507152,-0.6973952304772163,0.01335469594066125,0.07327575022694324,0.4519434714861288,0.22085446126945918,0.5578739167028487,-0.9789369583514242,1.034662671130548,0.00010275840759277344,0.0002818107604980469,0
1.6799895763397217,0.4511162042617798,0.44250696897506714,-0.8290072083473206,0.6830896287488458,-0.6974946498341409,0.004302872728296218,0.06361881888058446,0.449962730519123,0.21817868987031264,0.5589258083918419,-0.9794629041959209,1.0388156045344177,8.606910705566406e-05,0.0002613067626953125,0
1.6900081634521484,0.4535598158836365,0.4460541903972626,-0.831077516078949,0.6871018817223047,-0.6975943693311912,-0.004580216326559182,0.053676574385135345,0.4491335327399688,0.21546971040036098,0.559975717241368,-0.9799878586206839,1.043012180490651,9.012222290039062e-05,0.00025916099548339844,0
1.7000749111175537,0.4558933973312378,0.4495602548122406,-0.8331271409988403,0.6910868843897491,-0.6976943936668696,-0.013531312709922928,0.04462405834760787,0.44823695920410506,0.21274262006222022,0.5610174485780828,-0.9805087242890413,1.0472289298921413,0.00011587142944335938,0.0002999305725097656,0
1.710019826889038,0.45810815691947937,0.4530319571495056,-0.8351489305496216,0.6950327895747117,-0.6978030881849012,-0.021863011574726407,0.03547864708367619,0.4477153685158758,0.21004358866243908,0.5620335317948602,-0.98101676589743,1.0513946464692434,9.417533874511719e-05,0.00026702880859375,0
1.720137596130371,0.4602113664150238,0.45646047592163086,-0.8371445536613464,0.6991009508233689,-0.6979082074582101,-0.03016312616284027,0.026792602362033683,0.4472827460451611,0.20729266557250772,0.5630539501680496,-0.9815269750840248,1.0556327677384818,9.107589721679688e-05,0.0002658367156982422,0
1.7301661968231201,0.4640844762325287,0.46319058537483215,-0.8410572409629822,0.7071872570229777,-0.6980071107924825,-0.039002623910858,0.01732189911432433,0.445491695527785,0.20456109461435526,0.5640520885256758,-0.9820260442628379,1.059833538173432,9.894371032714844e-05,0.0002913475036621094,0
1.7400131225585938,0.4658544957637787,0.4664929211139679,-0.8429742455482483,0.7112341894936719,-0.6980986795657745,-0.04760131177439055,0.007534854773742182,0.44474256178299226,0.20187433144596162,0.5650192512678183,-0.9825096256339091,1.063958208780233,8.749961853027344e-05,0.0002551078796386719,0
1.750128984451294,0.467514306306839,0.4697535037994385,-0.8448680639266968,0.7152634281185911,-0.698182686439337,-0.05618144099604313,-0.0013336138297309133,0.44393152867723024,0.19910942728000255,0.5659995017384992,-0.9829997508692496,1.0681955311011444,9.560585021972656e-05,0.00027370452880859375,0
1.7602078914642334,0.4705066680908203,0.47614750266075134,-0.8485811352729797,0.7232101506404094,-0.6982606308755925,-0.06491796728304895,-0.011076252544240646,0.4419886403452587,0.19634989013311052,0.56696271539204,-0.98348135769602,1.0724173737982199,9.083747863769531e-05,0.0002655982971191406,0
1.7700920104980469,0.47183990478515625,0.4792816638946533,-0.8504192233085632,0.7271772951130462,-0.698337939607279,-0.07359822971486056,-0.02078799152487988,0.441089682452004,0.19363915902458462,0.5678942472787091,-0.9839471236393544,1.076557623897398,0.00010371208190917969,0.0002892017364501953,0
1.7802176475524902,0.47305893898010254,0.4823821187019348,-0.8522332906723022,0.731116923265568,-0.6984144191385351,-0.08208345363357118,-0.029644814304099865,0.44020820706513675,0.1908576093727871,0.568835101716222,-0.984417550858111,1.0807990408284853,0.00014090538024902344,0.00047397613525390625,0
1.7901089191436768,0.4741688072681427,0.48543864488601685,-0.8540231585502625,0.7351366234579426,-0.6984995292879651,-0.09005144843610029,-0.03829492665894428,0.43963138515322997,0.18813602659739467,0.5697410249368957,-0.9848705124684478,1.0849422869838898,0.00013875961303710938,0.0004856586456298828,0
1.8002228736877441,0.48419955372810364,0.49390047788619995,-0.8580664396286011,0.7429186875320325,-0.6985792953116592,-0.10065506863146276,-0.0411457660887223,0.4377914033355958,0.18534872701034136,0.5706538788053981,-0.985326939402699,1.0891788103564741,9.703636169433594e-05,0.0002837181091308594,0
1.8102190494537354,0.4889472723007202,0.49803388118743896,-0.8600440621376038,0.7466747252530205,-0.6987182498102731,-0.10833506008568027,-0.043784320692999326,0.43710720350240634,0.18258953384603538,0.5715427036800378,-0.9857713518400189,1.093365998669865,9.655952453613281e-05,0.0002689361572265625,0
1.8201193809509277,0.49352118372917175,0.502102255821228,-0.8619917631149292,0.7504502272618365,-0.6988862661544557,-0.11536815092811399,-0.04440079466118031,0.4363630671062756,0.17985259495856196,0.5724098567343783,-0.9862049283671891,1.0975130398298227,9.298324584960938e-05,0.00026416778564453125,0
1.8303322792053223,0.4979234039783478,0.5061067342758179,-0.8639107942581177,0.7541832161675407,-0.6990807847449542,-0.12070404295068861,-0.044399316015420444,0.43606751689278794,0.1770249328389498,0.5732906532932185,-0.9866453266466092,1.1017910086468714,0.0001373291015625,0.00047850608825683594,0
1.8401501178741455,0.5062260627746582,0.5139315128326416,-0.8676634430885315,0.7615904335817832,-0.6992621122279992,-0.1265877891856553,-0.04125558085121851,0.43446810254093166,0.17430258447886657,0.574124210466679,-0.9870621052333395,1.1059034952916855,9.441375732421875e-05,0.00028514862060546875,0
1.8502142429351807,0.5101318955421448,0.5177559852600098,-0.8695005774497986,0.7652436926713067,-0.6994688711358883,-0.12934016452977715,-0.039528694569807316,0.4340157618522722,0.17150787127638709,0.5749652598985805,-0.9874826299492903,1.1101191461392264,9.465217590332031e-05,0.0002639293670654297,0
1.860304355621338,0.5138794183731079,0.5215190052986145,-0.8713114261627197,0.768977715980267,-0.6996786477946714,-0.13141820602948534,-0.036888914094224734,0.4334823400416827,0.16870186791505062,0.5757948243619186,-0.9878974121809593,1.114345682657723,9.560585021972656e-05,0.0002727508544921875,0
1.8701133728027344,0.517472505569458,0.5252221822738647,-0.8730944395065308,0.7727018985205854,-0.6998974991486263,-0.13206070722698843,-0.034326600325951195,0.43328155153011166,0.16597018892207924,0.5765881514470873,-0.9882940757235437,1.1184544741665245,8.988380432128906e-05,0.0002536773681640625,0
1.8802132606506348,0.5242016315460205,0.532454252243042,-0.8765829205513,0.780093140238869,-0.7000888201706346,-0.13322951610455022,-0.02938492519859711,0.4318393489462525,0.16315360905643622,0.5773914615335591,-0.9886957307667795,1.1226851052951972,9.489059448242188e-05,0.00026679039001464844,0
1.8901922702789307,0.5273423790931702,0.5359843373298645,-0.8782901167869568,0.7837601727869791,-0.70029158981441,-0.13198985080219255,-0.026236400404021205,0.43145666402423805,0.16036692025973923,0.5781716448308465,-0.9890858224154232,1.1268651030736445,0.00014328956604003906,0.0004971027374267578,0
1.9002408981323242,0.5303383469581604,0.5394574403762817,-0.8799731731414795,0.7874179159647066,-0.700473821639866,-0.1304921925011626,-0.022706990211148113,0.43102473447766776,0.15755702079047737,0.5789436805075509,-0.9894718402537754,1.1310742624660284,0.00014448165893554688,0.0004909038543701172,0
1.9101231098175049,0.5331923365592957,0.5428740382194519,-0.8816338181495667,0.7910650229566115,-0.7006424070363719,-0.1280064493182532,-0.019717207759641565,0.43092424847326766,0.15479003134798897,0.5796896119435716,-0.9898448059717857,1.1352137136168796,9.679794311523438e-05,0.00027370452880859375,0
1.9200844764709473,0.5384798645973206,0.5495457649230957,-0.8849337697029114,0.7983081136174417,-0.7007852718010839,-0.12595103957077317,-0.015073114204841134,0.42958647184752635,0.15199730517448684,0.5804281344143252,-0.9902140672071625,1.139386321123302,8.96453857421875e-05,0.0002598762512207031,0
1.9302361011505127,0.5409185290336609,0.5528020858764648,-0.886548638343811,0.8019911272400064,-0.7009251493081601,-0.12217656709278288,-0.012303657546771821,0.4292965632942802,0.14914761464627901,0.5811669201230616,-0.9905834600615308,1.143638623725345,9.1552734375e-05,0.00026607513427734375,0
1.9401006698608398,0.543225109577179,0.5560048222541809,-0.888142466545105,0.8056697675035777,-0.7010426658211107,-0.11859277382161738,-0.009264055064249488,0.4288969062123553,0.14637506408969508,0.5818714124381241,-0.990935706219062,1.1477706846041713,9.608268737792969e-05,0.00026917457580566406,0
1.950270175933838,0.5454004406929016,0.5591546893119812,-0.8897144198417664,0.8093208822841893,-0.7011503993866403,-0.11439273294547779,-0.006915937043824844,0.42888381247579366,0.14351332485818666,0.5825838356735866,-0.9912919178367933,1.1520304773467802,8.916854858398438e-05,0.00026106834411621094,0
1.9602718353271484,0.5493646860122681,0.5652969479560852,-0.8927919268608093,0.8165524036171047,-0.7012393455014083,-0.11058199703752687,-0.0032406967907654713,0.42759858617316837,0.1406954362564793,0.5832707726404598,-0.9916353863202299,1.1562199626366112,9.083747863769531e-05,0.00026416778564453125,0
