time,x,y,z,yaw,throttle,roll_rate,pitch_rate,yaw_rate,x_ref,y_ref,z_ref,yaw_ref,pred_time,nr_time,metadata
4.76837158203125e-07,0.009806424379348755,-0.015012216754257679,0.006351417396217585,-0.005431915320370469,-0.7265302139770858,0.13158843062744777,-0.295490774748466,0.12770074486256444,0.5557047372301581,0.22625703308397038,-0.8131285165419851,0.335103416119993,0.17933893203735352,0.17972278594970703,Sim
0.18061447143554688,0.009806424379348755,-0.015012216754257679,0.006351417396217585,-0.005431915320370469,-0.7447202480044619,0.2250630396705881,-0.4468435423239262,0.24546205514948677,0.5338627786872183,0.2738439948809579,-0.8369219974404789,0.4107588292621003,0.0005130767822265625,0.0007510185241699219,Jax
0.18973946571350098,0.011501932516694069,-0.012573019601404667,0.007600834593176842,-0.005570629630924785,-0.7593339742817984,0.2751019334044038,-0.5527904796267483,0.3293803355101558,0.5326498536641168,0.27619582435582735,-0.8380979121779136,0.4145810979271229,0.00039839744567871094,0.0005919933319091797,0OrderHold
0.20004487037658691,0.011501932516694069,-0.012573019601404667,0.007600834593176842,-0.005570629630924785,-0.7714228067716579,0.3012608920308952,-0.6269533357387238,0.38974191038404826,0.5312675682413708,0.2788454248053937,-0.8394227124026968,0.41889781573803225,0.00047469139099121094,0.0006978511810302734,QuatYawError
0.2097644805908203,0.011388655751943588,-0.011577647179365158,0.0077512869611382484,-0.005594569198280156,-0.7815732127409986,0.31269564734729166,-0.6788673350171067,0.43353073439270573,0.5299517785477229,0.2813380749456164,-0.8406690374728082,0.4229691565440046,0.00046062469482421875,0.0006842613220214844,NoPyJoules
0.2200791835784912,0.011388655751943588,-0.011577647179365158,0.0077512869611382484,-0.005594569198280156,-0.7901354293685073,0.316244864523689,-0.7152071345119747,0.4658031358538112,0.5285426378224175,0.2839765483340495,-0.8419882741670247,0.42728976922800826,0.0005567073822021484,0.0008332729339599609,0
0.22992682456970215,0.011324068531394005,-0.010946696624159813,0.007867646403610706,-0.005609482124529243,-0.7973657376832007,0.3149973283948462,-0.7406449941583824,0.4899462754043293,0.527185046849114,0.28648896379912686,-0.8432444818995634,0.43141473944043196,0.0005776882171630859,0.0008523464202880859,0
0.24024105072021484,0.011324068531394005,-0.010946696624159813,0.007867646403610706,-0.005609482124529243,-0.8034558890593791,0.3116642189055608,-0.7584514959108677,0.5084666235149281,0.5257503284010917,0.2891134590193688,-0.8445567295096843,0.4357351523873539,0.0006642341613769531,0.0010199546813964844,0
0.2503073215484619,0.011296908371150494,-0.01005427073687315,0.007906235754489899,-0.005489452197508972,-0.8082232755584525,0.30672615920053525,-0.7709160471376074,0.5229670626784267,0.5243375023910392,0.29166793376428424,-0.8458339668821421,0.43995170205176276,0.0009894371032714844,0.0015387535095214844,0
0.26047348976135254,0.011296908371150494,-0.01005427073687315,0.007906235754489899,-0.005489452197508972,-0.8122308144455256,0.30207720829218093,-0.7796412329963252,0.5347142973107755,0.5228980588954205,0.29424075177208425,-0.847120375886042,0.44421009663479943,0.001308441162109375,0.0018680095672607422,0
0.2704765796661377,0.011437895707786083,-0.009463119320571423,0.007416789885610342,-0.005280616775710902,-0.8149877030937062,0.2953412953877982,-0.7832856335369245,0.5444303260258345,0.5214693836682208,0.29676536505577245,-0.8483826825278862,0.4484001811358756,0.0010027885437011719,0.0017061233520507812,0
0.28058409690856934,0.011437895707786083,-0.009463119320571423,0.007416789885610342,-0.005280616775710902,-0.8172824131268226,0.2902986974753996,-0.7828663384803873,0.5528192124458751,0.5200134133221562,0.2993092881369376,-0.8496546440684687,0.45263400805785625,0.0014371871948242188,0.0020520687103271484,0
0.2901790142059326,0.011962512508034706,-0.008544555865228176,0.005424933973699808,-0.0045498113642067975,-0.8181628247097206,0.2803144175035041,-0.7618884330294696,0.5599245611633215,0.5186197995550778,0.3017175889958206,-0.8508587944979102,0.45665311761694943,0.0009341239929199219,0.0015256404876708984,0
0.30037403106689453,0.011962512508034706,-0.008544555865228176,0.005424933973699808,-0.0045498113642067975,-0.8186664827604091,0.273582497514608,-0.7454635418271869,0.566499723724326,0.5171268035397774,0.3042694021105843,-0.8521347010552921,0.4609235962934323,0.0009002685546875,0.0014045238494873047,0
0.3106200695037842,0.012498919852077961,-0.00793234258890152,0.003168689087033272,-0.0035905169972146904,-0.8183000319697009,0.2633889815298314,-0.7173043032956642,0.5723520358792175,0.5156136855650224,0.306826542623115,-0.8534132713115574,0.4652154468376632,0.0008978843688964844,0.0013687610626220703,0
0.320293664932251,0.012498919852077961,-0.00793234258890152,0.003168689087033272,-0.0035905169972146904,-0.8177096701080585,0.25692793110006146,-0.6970638679629766,0.5779681665965074,0.5141734996350601,0.30923391190656113,-0.8546169559532806,0.469267513015246,0.0008909702301025391,0.001344442367553711,0
0.33058953285217285,0.013546647503972054,-0.006995568051934242,-0.00162955978885293,-0.0008640174165679831,-0.8162723088828503,0.24035896361768816,-0.6534312311836878,0.5824943249518953,0.5126283241779099,0.3117887125130538,-0.8558943562565269,0.4735802360845203,0.0008549690246582031,0.0014050006866455078,0
0.34048986434936523,0.013546647503972054,-0.006995568051934242,-0.00162955978885293,-0.0008640174165679831,-0.8146187207058901,0.22976836634469447,-0.623189159228186,0.587217746109675,0.5111305373423047,0.3142380845730937,-0.8571190422865468,0.47772727724447805,0.001260519027709961,0.0019457340240478516,0
0.3501577377319336,0.014404872432351112,-0.006320242304354906,-0.005770782474428415,0.0021093226148752335,-0.8125206756900174,0.2132113353401436,-0.5792562741041434,0.59092777596951,0.5096566238154965,0.3166230026403476,-0.8583115013201738,0.4817769465770798,0.0008246898651123047,0.0012731552124023438,0
0.360490083694458,0.014404872432351112,-0.006320242304354906,-0.005770782474428415,0.0021093226148752335,-0.8103476275155185,0.20298770010414255,-0.5495677472658189,0.5951477894186843,0.5080691077124159,0.31916419252213996,-0.85958209626107,0.48610494953310845,0.0009007453918457031,0.0013370513916015625,0
0.3701179027557373,0.015979966148734093,-0.005192953627556562,-0.013436689972877502,0.008313588092876523,-0.8076633780020258,0.18152467911406361,-0.490931087678236,0.5972875286587721,0.5065784340281386,0.3215249448761306,-0.8607624724380653,0.4901378409508427,0.0007312297821044922,0.0011203289031982422,0
0.38022470474243164,0.015979966148734093,-0.005192953627556562,-0.013436689972877502,0.008313588092876523,-0.8048528326896176,0.16800252670311133,-0.4514392308102634,0.600372943707705,0.5050017987285329,0.3239956531821782,-0.861997826591089,0.4943713682672008,0.0008256435394287109,0.001252889633178711,0
0.39051127433776855,0.017248785123229027,-0.0043420856818556786,-0.01948147639632225,0.013440899084315524,-0.8017494696720844,0.14991738946033709,-0.3984058528449885,0.6022258127298655,0.5033847468105543,0.3265023685648759,-0.863251184282438,0.49868019646338085,0.0007715225219726562,0.001169443130493164,0
0.40021514892578125,0.017248785123229027,-0.0043420856818556786,-0.01948147639632225,0.013440899084315524,-0.7987133723313218,0.13903506735620563,-0.36344061839822733,0.6050470607132055,0.5018478886506003,0.3288596914444437,-0.8644298457222218,0.5027449459456552,0.000820159912109375,0.0012502670288085938,0
0.41047239303588867,0.019572949036955833,-0.002873427467420697,-0.02985920011997223,0.022377601808077033,-0.7952785928999453,0.11899204964179724,-0.29995596941151215,0.6052819045085551,0.5002113895498871,0.3313435766158309,-0.8656717883079155,0.5070414903113073,0.0007712841033935547,0.0011763572692871094,0
0.420210599899292,0.019572949036955833,-0.002873427467420697,-0.02985920011997223,0.022377601808077033,-0.791899170382356,0.10683199588431655,-0.25800936890722753,0.606975967511195,0.49864632354615757,0.33369423730999714,-0.8668471186549985,0.511120620863468,0.0008566379547119141,0.0014514923095703125,0
0.4299912452697754,0.02144853211939335,-0.0017344633815810084,-0.03758765012025833,0.029074290275516956,-0.7883339436211698,0.09154532690815037,-0.20403784590887897,0.6071868992831692,0.49706331836452994,0.3360477012812942,-0.868023850640647,0.515217528015905,0.0007257461547851562,0.0010890960693359375,0
0.4403257369995117,0.02144853211939335,-0.0017344633815810084,-0.03758765012025833,0.029074290275516956,-0.7850124331310953,0.0829866016884828,-0.16897174566768744,0.608957886734302,0.4953786045866366,0.3385262738958333,-0.8692631369479166,0.5195464297888016,0.0008285045623779297,0.001256704330444336,0
0.4499363899230957,0.024821793660521507,0.0002455844369251281,-0.05036766827106476,0.04002419778581313,-0.7813090890512269,0.06721338390693574,-0.10736922023860714,0.6076009744316122,0.4938007981022008,0.34082366671583925,-0.8704118333579196,0.5235721306715926,0.00070953369140625,0.0010752677917480469,0
0.4602649211883545,0.024821793660521507,0.0002455844369251281,-0.05036766827106476,0.04002419778581313,-0.7778538943390356,0.058345152831703016,-0.06709512756712485,0.6082735322940745,0.49209325865943765,0.34328446626950043,-0.8716422331347502,0.5278985357309672,0.0006558895111083984,0.000982522964477539,0
0.4699864387512207,0.02747556008398533,0.0017651458038017154,-0.059563592076301575,0.04784193771558496,-0.7742513015184823,0.04753154811582753,-0.016311632890607587,0.6073397646641555,0.49047486840124743,0.34559282901527194,-0.8727964145076359,0.5319706754852664,0.00067138671875,0.001001596450805664,0
0.48008227348327637,0.02747556008398533,0.0017651458038017154,-0.059563592076301575,0.04784193771558496,-0.7710316994689167,0.04222852830661526,0.016492272527880193,0.6082719549023408,0.48878270251370887,0.34798199626330556,-0.8739909981316527,0.5361996088487442,0.0007741451263427734,0.0011417865753173828,0
0.4898824691772461,0.03210919350385666,0.004375627730041742,-0.07426608353853226,0.06022491701875514,-0.7674036894897546,0.031461245954270155,0.07294240376976696,0.6058202785816966,0.48712895675503465,0.3502932763995786,-0.8751466381997892,0.5403047052215332,0.0006155967712402344,0.0009052753448486328,0
0.5002615451812744,0.03210919350385666,0.004375627730041742,-0.07426608353853226,0.06022491701875514,-0.7641702974312952,0.02622121155688862,0.10974635984622168,0.6057344418593749,0.48536561140094303,0.35273250951590607,-0.8763662547579529,0.5446522824115739,0.0008168220520019531,0.0012433528900146484,0
0.509845495223999,0.03564470261335373,0.006342966575175524,-0.08462168276309967,0.06884680008246247,-0.7608085385220719,0.0194694649890882,0.1551549850653672,0.6039465872391782,0.4837265060551802,0.3549769955076633,-0.8774884977538316,0.5486667980177866,0.0006327629089355469,0.0009853839874267578,0
0.5203158855438232,0.03564470261335373,0.006342966575175524,-0.08462168276309967,0.06884680008246247,-0.7579152208772273,0.0170946436436521,0.18458526600486555,0.6043398273483118,0.481923934039351,0.35742037127174947,-0.8787101856358747,0.5530526248589837,0.0007967948913574219,0.0012331008911132812,0
0.5298879146575928,0.04164709895849228,0.009666213765740395,-0.10089006274938583,0.0822482950379216,-0.7545600555663432,0.010624756695208064,0.23356873416406118,0.6010930576845046,0.48026522305533453,0.35964609760653565,-0.8798230488032678,0.5570621470381524,0.0006730556488037109,0.0010211467742919922,0
0.5403673648834229,0.04164709895849228,0.009666213765740395,-0.10089006274938583,0.0822482950379216,-0.7516941895070791,0.008452042863727877,0.26561894209411707,0.6004664177157258,0.4784374816819055,0.3620739926063129,-0.8810369963031564,0.5614517688839028,0.0009396076202392578,0.0014955997467041016,0
0.5505492687225342,0.04611937329173088,0.012124120257794857,-0.11214374750852585,0.09144836319857487,-0.7486912416923887,0.005398823444216051,0.30420475606360986,0.5981771131973318,0.47664987964940353,0.36442405550431095,-0.8822120277521555,0.5657167547906374,0.0011370182037353516,0.0018353462219238281,0
0.5605125427246094,0.04611937329173088,0.012124120257794857,-0.11214374750852585,0.09144836319857487,-0.746196189665071,0.005550106058169046,0.3294244854902911,0.5981396580618523,0.47488948724972946,0.3667151140867922,-0.883357557043396,0.5698901612453869,0.0009522438049316406,0.001569986343383789,0
0.570763349533081,0.05351643264293671,0.01617649756371975,-0.12953537702560425,0.10563323083075077,-0.7432306709033868,0.0029757812824621225,0.36921134346875234,0.594404284684764,0.4730667982693009,0.3690634151134904,-0.8845317075567452,0.5741840091604353,0.0008418560028076172,0.0012598037719726562,0
0.5804107189178467,0.05351643264293671,0.01617649756371975,-0.12953537702560425,0.10563323083075077,-0.7407929835601633,0.0034236460242313836,0.39545655632902,0.5933049417348971,0.4713407984217056,0.37126520405660024,-0.8856326020283001,0.5782250897985216,0.0009484291076660156,0.0014011859893798828,0
0.5901908874511719,0.05890396237373352,0.019123729318380356,-0.1414477676153183,0.115280995926499,-0.7382087262728028,0.003088421083321355,0.42622039113616406,0.5904537451231054,0.4695805795728487,0.37348906180506475,-0.8867445309025324,0.5823217972138769,0.0007750988006591797,0.0011677742004394531,0
0.6003799438476562,0.05890396237373352,0.019123729318380356,-0.1414477676153183,0.115280995926499,-0.736130306368494,0.0051426512486302265,0.4466330568324353,0.5900583977211579,0.46773561076426884,0.3757970175812687,-0.8878985087906344,0.5865897791768379,0.0008769035339355469,0.0013179779052734375,0
0.6099305152893066,0.06376323103904724,0.021860849112272263,-0.15577520430088043,0.12996389100583097,-0.7337406390797362,0.005783889569500209,0.4734218026679836,0.5857757874563193,0.46599595447694153,0.37795207422519095,-0.8889760371125954,0.5905903131873276,0.0007221698760986328,0.0011188983917236328,0
0.6203632354736328,0.06376323103904724,0.021860849112272263,-0.15577520430088043,0.12996389100583097,-0.7318455219792489,0.008522117972420527,0.4913715746977412,0.5844167232079264,0.464084267079088,0.38029698006908447,-0.8901484900345422,0.5949603607990659,0.0009076595306396484,0.0013687610626220703,0
0.6306247711181641,0.06753942370414734,0.023982493206858635,-0.16564175486564636,0.13979932526197297,-0.7298972782123196,0.010815322709640666,0.5099420415351337,0.5813889711832154,0.46219243652200187,0.3825939775033779,-0.891296988751689,0.5992587027984537,0.0007948875427246094,0.0012278556823730469,0
0.6401402950286865,0.06753942370414734,0.023982493206858635,-0.16564175486564636,0.13979932526197297,-0.7283730102654864,0.014501066678478494,0.5224958208416742,0.5807642217969496,0.4604279814850607,0.3847155752833417,-0.8923577876416708,0.6032445561334345,0.0007727146148681641,0.0011897087097167969,0
0.6504337787628174,0.0739634558558464,0.02759361080825329,-0.18086102604866028,0.15464738553642723,-0.7265199712930673,0.016852062740156007,0.5380848803370695,0.5763757895571816,0.4585083056918526,0.3870014646116816,-0.8935007323058408,0.6075562805173,0.0008087158203125,0.0012159347534179688,0
0.6604890823364258,0.0739634558558464,0.02759361080825329,-0.18086102604866028,0.15464738553642723,-0.7250811290787071,0.020657338775704314,0.5487871314880705,0.5748833819947416,0.4566220909873842,0.38922521246999014,-0.8946126062349951,0.6117682362288285,0.0009248256683349609,0.0013837814331054688,0
0.6700031757354736,0.07872283458709717,0.030277913436293602,-0.19126208126544952,0.1645561238650756,-0.7235667408792168,0.023753399243769863,0.5587671075820019,0.5716173745836755,0.4548274680687332,0.3913208073821088,-0.8956604036910544,0.6157534903525639,0.0007488727569580078,0.0011408329010009766,0
0.6802725791931152,0.07872283458709717,0.030277913436293602,-0.19126208126544952,0.1645561238650756,-0.7224004887009592,0.028046773906437353,0.565795679443108,0.5709442701515386,0.45287958089723435,0.3935734813301645,-0.8967867406650822,0.6200551280138008,0.0008199214935302734,0.001249074935913086,0
0.6901087760925293,0.08652889728546143,0.03469105809926987,-0.20711766183376312,0.1793937640563266,-0.7209613595971092,0.03069370296741855,0.5722717639139775,0.5664540486345012,0.4510034022480336,0.39572203774960324,-0.8978610188748015,0.6241753045362625,0.0008275508880615234,0.0012407302856445312,0
0.7002608776092529,0.08652889728546143,0.03469105809926987,-0.20711766183376312,0.1793937640563266,-0.7198511537049139,0.03466165370634009,0.5770104682771222,0.5649056114408338,0.44905627829712247,0.39793021865892175,-0.8989651093294608,0.6284278068753872,0.0008504390716552734,0.0012938976287841797,0
0.7104284763336182,0.09214521199464798,0.03788568079471588,-0.21782317757606506,0.18924794111879922,-0.7186766435921903,0.03772403669891486,0.5798266491822418,0.5617235097141584,0.44709534584034,0.40013216782446615,-0.900066083912233,0.6326868006696692,0.0007407665252685547,0.0011000633239746094,0
0.7202820777893066,0.09214521199464798,0.03788568079471588,-0.21782317757606506,0.18924794111879922,-0.7177714259439026,0.04187451319609608,0.5821261248395042,0.5610438268689845,0.4451846685798686,0.40225689659896763,-0.9011284482994838,0.6368142675956149,0.0007855892181396484,0.0012030601501464844,0
0.7304000854492188,0.10111835598945618,0.043026190251111984,-0.23408950865268707,0.2039939148662818,-0.716620309818582,0.044025407973480826,0.5803812229701896,0.5566276389917254,0.4432122143615555,0.4044291446480168,-0.9022145723240084,0.6410524887333943,0.0007333755493164062,0.0010993480682373047,0
0.7402598857879639,0.10111835598945618,0.043026190251111984,-0.23408950865268707,0.2039939148662818,-0.7157184359254329,0.047558589844212386,0.5796082604692431,0.555085123987068,0.4412798990222635,0.406536653598296,-0.9032683267991479,0.6451825522414028,0.0009107589721679688,0.0013551712036132812,0
0.7499339580535889,0.10742677748203278,0.046672273427248,-0.2450355887413025,0.2137196095241361,-0.7147553642726369,0.049860112353713716,0.5758038305508068,0.5518777784047196,0.4393742423552935,0.40859549086439,-0.904297745432195,0.6492348181560673,0.0006210803985595703,0.0009257793426513672,0
0.7604701519012451,0.10742677748203278,0.046672273427248,-0.2450355887413025,0.2137196095241361,-0.7139983753867077,0.0535566871537887,0.5736800805597972,0.5512876515933459,0.4372878334344664,0.4108276411467348,-0.9054138205733674,0.6536482087145467,0.0006802082061767578,0.0010292530059814453,0
0.7697784900665283,0.11732564121484756,0.05245489627122879,-0.2615419626235962,0.22826105540476974,-0.7130623290806735,0.054692755076629386,0.5653313847572069,0.5468837254319254,0.435435131869431,0.4127908016584808,-0.9063954008292403,0.6575472762875044,0.0005884170532226562,0.0009131431579589844,0
0.7800707817077637,0.11732564121484756,0.05245489627122879,-0.2615419626235962,0.22826105540476974,-0.7123047305466865,0.05754628508341105,0.5600956309326027,0.545417630998639,0.4333763289140548,0.4149517532641319,-0.9074758766320659,0.6618585013286655,0.0006344318389892578,0.0009412765502929688,0
0.7901451587677002,0.12417597323656082,0.056511953473091125,-0.27258366346359253,0.2378437207958797,-0.7115123650178584,0.05877256702394567,0.5510226551361884,0.5423803642348124,0.43135072988876066,0.41705700788313516,-0.9085285039415676,0.6660784465234643,0.0006258487701416016,0.0009257793426513672,0
0.7999672889709473,0.12417597323656082,0.056511953473091125,-0.27258366346359253,0.2378437207958797,-0.7108648721288492,0.061562267175263516,0.5452740555575404,0.5417971225267497,0.4293660024541212,0.41910003094317183,-0.9095500154715859,0.6701927308020141,0.0005576610565185547,0.0008332729339599609,0
0.8098921775817871,0.134759783744812,0.06288252770900726,-0.2892436981201172,0.25205763359809474,-0.7100985842563272,0.06095762115967227,0.5316147792859394,0.5376176538047492,0.4273506823831885,0.4211548340772347,-0.9105774170386173,0.6743500584216823,0.0005660057067871094,0.0008380413055419922,0
0.8202972412109375,0.134759783744812,0.06288252770900726,-0.2892436981201172,0.25205763359809474,-0.7094465079884679,0.06256782253919949,0.5227234935917158,0.5363264049683081,0.4252273014912986,0.4232986440640086,-0.9116493220320042,0.6787085212826787,0.0007605552673339844,0.0011327266693115234,0
0.829939603805542,0.14199048280715942,0.06730622053146362,-0.30035412311553955,0.2613074661779732,-0.7087599475082375,0.062482233180946534,0.5096812431701433,0.5334685192493162,0.42324996450329744,0.42527575471446455,-0.9126378773572322,0.6827475046814064,0.0006260871887207031,0.0009512901306152344,0
0.840191125869751,0.14199048280715942,0.06730622053146362,-0.30035412311553955,0.2613074661779732,-0.7081744989562375,0.06439877780884411,0.5012185752557695,0.5330782620598274,0.42113762757759343,0.42736763873545247,-0.9136838193677261,0.6870416522020775,0.0008189678192138672,0.0012161731719970703,0
0.8500003814697266,0.15304599702358246,0.07418884336948395,-0.31701114773750305,0.27510573120293624,-0.7075084282320974,0.06206951931805862,0.4837746727727267,0.5291715781698697,0.41910673998721154,0.4293594537183173,-0.9146797268591587,0.6911505435794199,0.0007281303405761719,0.0011146068572998047,0
0.8602993488311768,0.15304599702358246,0.07418884336948395,-0.31701114773750305,0.27510573120293624,-0.7069112346637948,0.06242390230871282,0.47224732103073747,0.528054643933852,0.4169643267482033,0.4314403205768065,-0.9157201602884032,0.6954645649397256,0.0007684230804443359,0.0011763572692871094,0
0.8705215454101562,0.1605079472064972,0.07893449813127518,-0.32813745737075806,0.2841934290261066,-0.7063042229273292,0.06065950623046679,0.45622920326672994,0.5254706273346055,0.4148276672508713,0.4334951054893243,-0.9167475527446621,0.6997464286298686,0.0007297992706298828,0.0011010169982910156,0
0.8799018859863281,0.1605079472064972,0.07893449813127518,-0.32813745737075806,0.2841934290261066,-0.7057608932732303,0.061225445514581416,0.4456546222141412,0.5251352953973537,0.41285806330415226,0.43537135822736966,-0.9176856791136848,0.7036756565021716,0.0005376338958740234,0.0008363723754882812,0
0.8898801803588867,0.17178571224212646,0.08626516908407211,-0.3448396623134613,0.29769258377399516,-0.7051582019533318,0.05703336671797843,0.42581685131898295,0.5214057101089034,0.4107535922519273,0.43735738984512135,-0.9186786949225606,0.7078553546749965,0.0006322860717773438,0.0009486675262451172,0
0.9000859260559082,0.17178571224212646,0.08626516908407211,-0.3448396623134613,0.29769258377399516,-0.7045941612650592,0.05604577043980452,0.4126090610329312,0.5203981235657013,0.40859126827165426,0.4393781691119406,-0.9196890845559702,0.7121303274358188,0.0006587505340576172,0.0009579658508300781,0
0.9097909927368164,0.1793329417705536,0.0912826731801033,-0.35593381524086,0.30658875460386276,-0.7040223080449318,0.05292731538027958,0.39517108717586247,0.5178812706547404,0.40652580209039485,0.4412898959128354,-0.9206449479564176,0.7161955762607976,0.0004947185516357422,0.0007507801055908203,0
0.9201469421386719,0.1793329417705536,0.0912826731801033,-0.35593381524086,0.30658875460386276,-0.7034988322616753,0.052702275743512376,0.38365969993888455,0.5177461229434683,0.4043119494423337,0.4433191260685014,-0.9216595630342507,0.7205334662023731,0.0007276535034179688,0.001065969467163086,0
0.9298253059387207,0.19064660370349884,0.09898841381072998,-0.3724941611289978,0.31981998507397,-0.7029528035216318,0.047358586183498814,0.36293408652263687,0.5142100870713922,0.4022337905666784,0.4452055454802439,-0.9226027727401219,0.7245875297507735,0.0006139278411865234,0.0009610652923583984,0
0.940162181854248,0.19064660370349884,0.09898841381072998,-0.3724941611289978,0.31981998507397,-0.7024283432285038,0.045566397251102564,0.3491023526600622,0.513358623899669,0.4000045156069799,0.44720955657725536,-0.9236047782886276,0.7289174302090788,0.0007760524749755859,0.0011718273162841797,0
0.9498631954193115,0.19815602898597717,0.1042328029870987,-0.38347893953323364,0.32854922542268994,-0.7018986943269198,0.04145767193666129,0.3314226954165819,0.511012924968967,0.3979032892878461,0.4490801402577414,-0.9245400701288706,0.7329809812688626,0.0006670951843261719,0.0010411739349365234,0
0.9601235389709473,0.19815602898597717,0.1042328029870987,-0.38347893953323364,0.32854922542268994,-0.7014069209748749,0.0405091949283157,0.3197382477241998,0.5109826845308088,0.3956713952542727,0.4510478322501252,-0.9255239161250626,0.7372788239255461,0.00061798095703125,0.0009307861328125,0
0.9699316024780273,0.2093142867088318,0.11224723607301712,-0.3998562693595886,0.3412726890475168,-0.7009035834762806,0.03377159540094835,0.2990434365336866,0.5077308085691812,0.3935287867736842,0.45291841868092775,-0.9264592093404638,0.7413872159601841,0.000637054443359375,0.0009517669677734375,0
0.9802572727203369,0.2093142867088318,0.11224723607301712,-0.3998562693595886,0.3412726890475168,-0.7004132763593727,0.030984117922033698,0.28522538984298756,0.5070764689688063,0.391263550393366,0.4548767241061889,-0.9274383620530944,0.7457124225970682,0.0007815361022949219,0.0011911392211914062,0
0.9899592399597168,0.21664997935295105,0.11768114566802979,-0.41069620847702026,0.3496626434167823,-0.6999228570226246,0.02572239040321699,0.26763667730740537,0.5049961947623723,0.3891262606299099,0.45670641914492877,-0.9283532095724644,0.7497763731310153,0.0006866455078125,0.001046895980834961,0
1.0003948211669922,0.21664997935295105,0.11768114566802979,-0.41069620847702026,0.3496626434167823,-0.699463926460552,0.023979634498441215,0.2560212420932601,0.5051791997895251,0.38681780993225745,0.45866325547095216,-0.9293316277354761,0.7541476191652442,0.0008497238159179688,0.0012791156768798828,0
1.0098869800567627,0.22644944489002228,0.12495078146457672,-0.42608264088630676,0.3621612242875293,-0.6990486996882987,0.016535196770605713,0.23500074533904014,0.5021113751157478,0.3847095055901824,0.4604330530148301,-0.930216526507415,0.758123685383219,0.0007150173187255859,0.0010797977447509766,0
1.0203557014465332,0.22644944489002228,0.12495078146457672,-0.42608264088630676,0.3621612242875293,-0.6986315350579365,0.013235968943359065,0.2209224749099158,0.5016083272324768,0.3823749089944119,0.46237368974836274,-0.9311868448741814,0.7625088131446298,0.0008714199066162109,0.0012886524200439453,0
1.0305044651031494,0.23285433650016785,0.12991192936897278,-0.43628138303756714,0.3704168756282919,-0.6982362206967307,0.007528322160979048,0.20311950536116066,0.49975449212526657,0.3801023195603194,0.46424371472844383,-0.9321218573642218,0.7667599173241824,0.0007917881011962891,0.0011744499206542969,0
1.040144920349121,0.23285433650016785,0.12991192936897278,-0.43628138303756714,0.3704168756282919,-0.6978554344592143,0.005290241748428641,0.19127249360781304,0.4999710863921923,0.37793508390146463,0.4660097341863074,-0.9330048670931537,0.7707981017745832,0.0007481575012207031,0.001149892807006836,0
1.0501995086669922,0.24224233627319336,0.13749393820762634,-0.45145657658576965,0.3826245076436332,-0.6975007453880228,-0.002542618348014043,0.1713522351223411,0.4971242593727534,0.3756660078196656,0.4678408389279787,-0.9339204194639893,0.775009757880489,0.00075531005859375,0.0011491775512695312,0
1.060518741607666,0.24224233627319336,0.13749393820762634,-0.45145657658576965,0.3826245076436332,-0.69714301165743,-0.0061680292624952185,0.15801843676443078,0.49675241111402957,0.37332798342295737,0.46970865096711606,-0.934854325483558,0.7793322680667694,0.0008504390716552734,0.001283407211303711,0
1.0698904991149902,0.24833613634109497,0.14263075590133667,-0.46147775650024414,0.39073328459880974,-0.6968097100644552,-0.012449222137634294,0.14160559008669515,0.49492343509049336,0.37119657983739757,0.4713948441773823,-0.9356974220886911,0.7832579006716006,0.0006773471832275391,0.0010442733764648438,0
1.080345869064331,0.24833613634109497,0.14263075590133667,-0.46147775650024414,0.39073328459880974,-0.6964910446785845,-0.01497747553122765,0.13075242442365956,0.4952854305208781,0.3688097463932855,0.4732645887506484,-0.9366322943753241,0.7876374357947223,0.0009105205535888672,0.0013554096221923828,0
1.0898334980010986,0.25718843936920166,0.15046150982379913,-0.47638562321662903,0.40281304498784143,-0.6962015824178881,-0.02340896316878703,0.11294725769233266,0.4924992621549226,0.3666356841297292,0.47495081337200107,-0.9374754066860005,0.7916116045104203,0.0006783008575439453,0.0010793209075927734,0
1.0999836921691895,0.25718843936920166,0.15046150982379913,-0.47638562321662903,0.40281304498784143,-0.6959109155119604,-0.02751125935397264,0.10106625979775903,0.49214327944514236,0.36430126236450944,0.4767437364450894,-0.9383718682225446,0.7958633079012182,0.0005619525909423828,0.000843048095703125,0
1.1102392673492432,0.26288384199142456,0.15576088428497314,-0.48621901869773865,0.4108326665945445,-0.6956374558653821,-0.03380492903926207,0.08671075850219817,0.49049778727990095,0.3619336998113084,0.4785436207294981,-0.939271810364749,0.8001591531870841,0.0006887912750244141,0.0010540485382080078,0
1.1201963424682617,0.26288384199142456,0.15576088428497314,-0.48621901869773865,0.4108326665945445,-0.6953797767609667,-0.03645564614456062,0.07725844848209702,0.49090989827151765,0.3596265393148776,0.4802798686395306,-0.9401399343197653,0.8043299630597709,0.0008111000061035156,0.0012471675872802734,0
1.1301982402801514,0.2710936665534973,0.16380782425403595,-0.5007821321487427,0.42289975674970903,-0.695133812209631,-0.044757428192665205,0.06208805398653211,0.48824436664754306,0.35730060778201245,0.4820127339382275,-0.9410063669691138,0.8085195482181426,0.0007550716400146484,0.001142263412475586,0
1.1401667594909668,0.2710936665534973,0.16380782425403595,-0.5007821321487427,0.42289975674970903,-0.6948947042895224,-0.048820770649813286,0.05204098700130262,0.4879443419547621,0.35497413040255027,0.4837286085657465,-0.9418643042828732,0.8126951517807914,0.0008320808410644531,0.0012679100036621094,0
1.1499056816101074,0.27633219957351685,0.1692347675561905,-0.5103628635406494,0.43087266571233496,-0.6946636221078729,-0.05524533545618133,0.039960473231260826,0.48627420954551615,0.3526932789900072,0.48539411920137326,-0.9426970596006866,0.8167745819385749,0.0006744861602783203,0.0010159015655517578,0
1.1606404781341553,0.27633219957351685,0.1692347675561905,-0.5103628635406494,0.43087266571233496,-0.694454446296832,-0.05787869285454869,0.03213624857067215,0.4867913336469709,0.35017014243641553,0.4872174784899044,-0.9436087392449521,0.8212711629916055,0.0007073879241943359,0.0010905265808105469,0
1.1699798107147217,0.2838136553764343,0.1774522364139557,-0.524461567401886,0.4427552727495931,-0.6942512278662958,-0.06602312019656216,0.019654262236784827,0.4841644422946638,0.34796732937250896,0.48879314406951724,-0.9443965720347586,0.8251832134748774,0.0006890296936035156,0.001026153564453125,0
1.1803090572357178,0.2838136553764343,0.1774522364139557,-0.524461567401886,0.4427552727495931,-0.694062363455135,-0.06993855236307152,0.011505759629663274,0.48394812382841645,0.34552277601947173,0.4905242208615166,-0.9452621104307583,0.8295099181398746,0.0007882118225097656,0.0011858940124511719,0
1.1898839473724365,0.28854668140411377,0.1829759180545807,-0.5337241888046265,0.4506724955651175,-0.6938808448583681,-0.0759114414117162,0.0020664767404099844,0.4823317737624641,0.3432490585610808,0.4921179571982023,-0.9460589785991012,0.833520638741534,0.0007522106170654297,0.0011451244354248047,0
1.2002825736999512,0.28854668140411377,0.1829759180545807,-0.5337241888046265,0.4506724955651175,-0.6937240014764483,-0.0783114560976189,-0.003933230441229776,0.4828337582803453,0.3407714059061237,0.4938368646797886,-0.9469184323398943,0.8378764051519266,0.0008559226989746094,0.0013761520385742188,0
1.210207462310791,0.2952572703361511,0.19132468104362488,-0.5474028587341309,0.4625011789546338,-0.6935631068400541,-0.08552621713143813,-0.013235864097902394,0.48030827727598485,0.33839860015729634,0.49546582870222466,-0.9477329143511123,0.8420337327715948,0.0008907318115234375,0.00135040283203125,0
1.2205021381378174,0.2952572703361511,0.19132468104362488,-0.5474028587341309,0.4625011789546338,-0.6934234372187008,-0.0888209823169769,-0.01915942382186034,0.4801575140687932,0.33592916050328886,0.4971434391838592,-0.9485717195919295,0.8463459564981647,0.001056671142578125,0.0015931129455566406,0
1.2299308776855469,0.2994633913040161,0.19692231714725494,-0.5563632249832153,0.4703746231067446,-0.6932917782011473,-0.09397206685399477,-0.026111464787849772,0.47858052306739035,0.33366013948237633,0.49866914013261454,-0.9493345700663072,0.8502954576842658,0.0007305145263671875,0.001107931137084961,0
1.2404882907867432,0.2994633913040161,0.19692231714725494,-0.5563632249832153,0.4703746231067446,-0.6931861286141472,-0.0957977988586843,-0.03036896985124874,0.47913502703498956,0.33111128296658654,0.5003651849321864,-0.9501825924660932,0.8547177365428833,0.00142669677734375,0.0024886131286621094,0
1.2499444484710693,0.30538615584373474,0.20534150302410126,-0.5695502161979675,0.4819342843031568,-0.6930856973095942,-0.102094825878824,-0.037018002796969166,0.476673706013764,0.3288209794633924,0.5018732543827528,-0.9509366271913764,0.8586787226111855,0.0008099079132080078,0.0012509822845458984,0
1.2605721950531006,0.30538615584373474,0.20534150302410126,-0.5695502161979675,0.4819342843031568,-0.6930062841955048,-0.10472398919547857,-0.04107733362258551,0.47662013345672427,0.32623871906998203,0.5035556554935882,-0.9517778277467941,0.8631304626893619,0.0009543895721435547,0.0014450550079345703,0
1.2699592113494873,0.309063196182251,0.21098245680332184,-0.5781852006912231,0.4895466993966918,-0.6929277000345218,-0.1090715581769404,-0.045626736404356466,0.47520251109015693,0.3239507619471063,0.5050305969284329,-0.9525152984642165,0.8670624868808093,0.0007259845733642578,0.0011472702026367188,0
1.2800498008728027,0.309063196182251,0.21098245680332184,-0.5781852006912231,0.4895466993966918,-0.6928722259696282,-0.11043996591240392,-0.048236816653623504,0.47579513387095784,0.3214838831839311,0.5066044935183466,-0.9533022467591732,0.8712892231363877,0.0005650520324707031,0.0008423328399658203,0
1.289846658706665,0.31417790055274963,0.21947818994522095,-0.5909099578857422,0.500929390723913,-0.6928077449218571,-0.11555419797713153,-0.052125987780063,0.47348036834840335,0.3190814975113123,0.5081210465488891,-0.9540605232744446,0.8753929213496044,0.0006136894226074219,0.0009126663208007812,0
1.3002371788024902,0.31417790055274963,0.21947818994522095,-0.5909099578857422,0.500929390723913,-0.6927658905631934,-0.11741744083037489,-0.054263931790941265,0.4734922548252482,0.31652571778178107,0.5097170489425759,-0.9548585244712879,0.8797452922296074,0.0006718635559082031,0.000990152359008789,0
1.3099191188812256,0.31732338666915894,0.2251633256673813,-0.5992645621299744,0.5084765317476457,-0.6927203489613576,-0.1205139166204902,-0.05659680450378169,0.472191223353055,0.314137042969273,0.511192642977695,-0.9555963214888474,0.883800853806121,0.0004794597625732422,0.0007402896881103516,0
1.3202807903289795,0.31732338666915894,0.2251633256673813,-0.5992645621299744,0.5084765317476457,-0.6926984219368525,-0.1209819265030248,-0.057639456934130105,0.47290815021153737,0.3115730497300947,0.512759431587453,-0.9563797157937264,0.8881411405926776,0.0008497238159179688,0.001322031021118164,0
1.3298723697662354,0.3216562271118164,0.23371291160583496,-0.6115569472312927,0.5199071706426379,-0.6926666409273871,-0.1246440225588014,-0.05936063539598634,0.470630121997277,0.3091926494060329,0.5141983134484962,-0.9570991567242481,0.8921588519921984,0.0008215904235839844,0.0012860298156738281,0
1.3403985500335693,0.3216562271118164,0.23371291160583496,-0.6115569472312927,0.5199071706426379,-0.6926573068167368,-0.12548834859849722,-0.05997195148915215,0.4706889696247884,0.30657265791210025,0.5157646802764904,-0.9578823401382451,0.8965680480719607,0.0010166168212890625,0.0015411376953125,0
1.3500487804412842,0.32428640127182007,0.2394234538078308,-0.6195889711380005,0.5274884149060913,-0.6926464452560778,-0.12764526231903656,-0.06051824868447479,0.46940300621002157,0.304163718785272,0.5171889714356968,-0.9585944857178483,0.9006103271325375,0.0007975101470947266,0.0011970996856689453,0
1.360290765762329,0.32428640127182007,0.2394234538078308,-0.6195889711380005,0.5274884149060913,-0.6926560762396116,-0.12749300646629097,-0.06031957320322366,0.4701115521000835,0.3015998260170658,0.5186882926637882,-0.9593441463318941,0.9049004799115734,0.0008273124694824219,0.0012559890747070312,0
1.3699493408203125,0.32786357402801514,0.24799896776676178,-0.6313910484313965,0.5388767093269395,-0.6926543446646835,-0.12985466174397797,-0.06008980221992141,0.4678542193166927,0.29917520720827173,0.5200905646057113,-0.9600452823028556,0.9089462543710809,0.0007977485656738281,0.001194000244140625,0
1.3802881240844727,0.32786357402801514,0.24799896776676178,-0.6313910484313965,0.5388767093269395,-0.6926727688467408,-0.1298359748348722,-0.05934516695632475,0.4678980672418347,0.29657261069444973,0.5215790319653181,-0.9607895159826589,0.9132769537777132,0.0009479522705078125,0.001430511474609375,0
1.389939785003662,0.33000361919403076,0.25371110439300537,-0.639093816280365,0.5463933805072112,-0.6926907328576921,-0.13079449972773927,-0.058428758605819,0.4666260064541883,0.2941362997536297,0.5229568215132515,-0.9614784107566257,0.9173198320495354,0.0007462501525878906,0.0011401176452636719,0
1.4003956317901611,0.33000361919403076,0.25371110439300537,-0.639093816280365,0.5463933805072112,-0.6927263751614064,-0.12978281911178086,-0.0571948055518027,0.46737793512766734,0.29148977181177943,0.5244365671166692,-0.9622182835583346,0.9216995669097388,0.0009005069732666016,0.0013551712036132812,0
1.409900188446045,0.33638814091682434,0.26274511218070984,-0.6516803503036499,0.5573238618496258,-0.6926910687598589,-0.1293023538838741,-0.05331718962117965,0.46529842144888395,0.2890775685312433,0.5257700632140102,-0.962885031607005,0.9256808262918391,0.0007205009460449219,0.0011336803436279297,0
1.4204237461090088,0.33638814091682434,0.26274511218070984,-0.6516803503036499,0.5573238618496258,-0.6926882460103623,-0.1272651365758222,-0.049979720954157085,0.4654958270247504,0.2863996342420049,0.5272335815424183,-0.9636167907712091,0.9300889238176518,0.0009279251098632812,0.0013816356658935547,0
1.4300200939178467,0.3403143584728241,0.2687426209449768,-0.6598691344261169,0.5644759476551968,-0.6926536966133763,-0.1252169887123602,-0.04529725159548008,0.46445940585812423,0.2839511869495681,0.5285562632586349,-0.9642781316293174,0.9341086325879903,0.0009696483612060547,0.001552581787109375,0
1.4402759075164795,0.3403143584728241,0.2687426209449768,-0.6598691344261169,0.5644759476551968,-0.6926518292147124,-0.12212387146420782,-0.04140573678049131,0.46534474364876754,0.28132772999023914,0.5299572702950108,-0.9649786351475054,0.938404577742397,0.001149892807006836,0.0017485618591308594,0
1.4499638080596924,0.3457372784614563,0.2776968777179718,-0.6719249486923218,0.5752072557859921,-0.6925845012343551,-0.11938542591547081,-0.035287004908832534,0.4634620827346105,0.2788431964124329,0.5312687378478969,-0.9656343689239484,0.9424626360324325,0.0007364749908447266,0.0010879039764404297,0
1.4608097076416016,0.3457372784614563,0.2776968777179718,-0.6719249486923218,0.5752072557859921,-0.6925590360941182,-0.11571059507135802,-0.03034100025182821,0.46384796564531894,0.2760544346905324,0.5327231448770464,-0.9663615724385232,0.9470057558255123,0.0010368824005126953,0.0016384124755859375,0
1.4701032638549805,0.3490579128265381,0.2836332619190216,-0.6797904372215271,0.5823932789309304,-0.692507710902496,-0.11208532484738952,-0.024409986889360098,0.4628830352415811,0.2736587828951635,0.533957742283355,-0.9669788711416775,0.9508986315489356,0.0010459423065185547,0.0016613006591796875,0
1.4804296493530273,0.3490579128265381,0.2836332619190216,-0.6797904372215271,0.5823932789309304,-0.6924937701112184,-0.10787125096818917,-0.01962905603126514,0.4638296690631271,0.2709904191767041,0.5353169086760049,-0.9676584543380025,0.9552241377914423,0.0010175704956054688,0.0016014575958251953,0
1.4899442195892334,0.35362952947616577,0.2924802005290985,-0.6913051605224609,0.5931630311404539,-0.6924315249553022,-0.10391451566759634,-0.01293021121953437,0.4619482443106914,0.2685258538615581,0.5365574207928925,-0.9682787103964462,0.9592095916522596,0.0008084774017333984,0.0012509822845458984,0
1.500340461730957,0.35362952947616577,0.2924802005290985,-0.6913051605224609,0.5931630311404539,-0.6924098470525718,-0.09945698550222973,-0.00760211031106697,0.4622641946284939,0.2658264181155355,0.5378999120950518,-0.9689499560475259,0.9635643593772435,0.0008592605590820312,0.0012843608856201172,0
1.5099565982818604,0.35640761256217957,0.29834216833114624,-0.6987969875335693,0.6003513789407126,-0.6923695659185193,-0.09530004116111987,-0.001791269326851518,0.4613002304513291,0.26332356410501695,0.5391295768060133,-0.9695647884030065,0.9675923572364747,0.0007417201995849609,0.0011146068572998047,0
1.5201857089996338,0.35640761256217957,0.29834216833114624,-0.6987969875335693,0.6003513789407126,-0.6923639707484496,-0.09072695576194954,0.0028971650504708334,0.46223237179518983,0.26065492513453925,0.5404248421409843,-0.9702124210704921,0.9718771171143032,0.0009486675262451172,0.0014047622680664062,0
1.5300166606903076,0.36018863320350647,0.3070703446865082,-0.7098262310028076,0.6110944495348968,-0.6923350155803266,-0.08677646096685783,0.008688248294910314,0.46040043594393876,0.2580841558267066,0.5416572426463216,-0.9708286213231607,0.9759950965288655,0.0008158683776855469,0.0012235641479492188,0
1.5403203964233398,0.36018863320350647,0.3070703446865082,-0.7098262310028076,0.6110944495348968,-0.692338441726304,-0.08233846045943868,0.01336279349914598,0.4607365024761861,0.25538350188505027,0.5429357853051578,-0.9714678926525788,0.9803111152599888,0.0010933876037597656,0.001726388931274414,0
1.5500140190124512,0.3624573349952698,0.3128475844860077,-0.7169854044914246,0.6181658164756563,-0.6923452326989975,-0.07831255101079783,0.018344415508459274,0.45984264435519423,0.2528369778345144,0.5441263296694153,-0.9720631648347076,0.9843715703950053,0.0008697509765625,0.0013682842254638672,0
1.560537338256836,0.3624573349952698,0.3128475844860077,-0.7169854044914246,0.6181658164756563,-0.692376306359285,-0.07378695069273356,0.022450771641938302,0.46087000681804285,0.2500662107085679,0.5454052532400637,-0.9727026266200318,0.9887795680522773,0.0008435249328613281,0.0012364387512207031,0
1.5700328350067139,0.36550503969192505,0.32144495844841003,-0.7274329662322998,0.6287979497824312,-0.6923984913953124,-0.07004844309319194,0.026917841754130326,0.4590935829393857,0.2475605129615423,0.5465471548020518,-0.9732735774010259,0.9927570324298242,0.0006704330444335938,0.0010437965393066406,0
1.5802433490753174,0.36550503969192505,0.32144495844841003,-0.7274329662322998,0.6287979497824312,-0.6924403358684766,-0.0657775047727249,0.030638362689867946,0.45945406790490206,0.2448603180123578,0.547762197183127,-0.9738810985915635,0.9970340025614642,0.0008213520050048828,0.001247406005859375,0
1.5901269912719727,0.367309033870697,0.3271254003047943,-0.7342474460601807,0.6358662684422438,-0.6924811226610778,-0.06197049425598428,0.03435744581034354,0.45860826303780533,0.2422408844574969,0.5489256360357472,-0.9744628180178736,1.0011740529235604,0.0007240772247314453,0.0011010169982910156,0
1.6002390384674072,0.367309033870697,0.3271254003047943,-0.7342474460601807,0.6358662684422438,-0.6925362687402016,-0.05766731858823007,0.03753990808579228,0.4596045916784296,0.2395551969432123,0.5501029972809626,-0.9750514986404812,1.005409777347818,0.0008687973022460938,0.001378774642944336,0
1.6100077629089355,0.3696841299533844,0.33557549118995667,-0.7442384362220764,0.6466429123955673,-0.6925867659368684,-0.05439189547008545,0.040659972550245636,0.4577951720053618,0.23695525881940568,0.5512279068750315,-0.9756139534375157,1.009501691073211,0.000865936279296875,0.0012731552124023438,0
1.620361566543579,0.3696841299533844,0.33557549118995667,-0.7442384362220764,0.6466429123955673,-0.6926485920256246,-0.050423371544710265,0.04343064021037189,0.4581550030242409,0.23419383738790414,0.5524067763247731,-0.9762033881623865,1.0138386821979186,0.0010328292846679688,0.0015327930450439453,0
1.6301651000976562,0.37105464935302734,0.34115132689476013,-0.7507171034812927,0.6538459248036288,-0.6927070842567798,-0.047022086237644325,0.04559230170742802,0.4572456467768851,0.2315737696820403,0.5535102430806943,-0.9767551215403472,1.01794517673028,0.0009500980377197266,0.0015232563018798828,0
1.640773057937622,0.37105464935302734,0.34115132689476013,-0.7507171034812927,0.6538459248036288,-0.6927735730452637,-0.04292400671851391,0.04770175310369287,0.4582754547903849,0.22873285888156467,0.5546902552486984,-0.9773451276243492,1.0223886277195635,0.001363992691040039,0.0020096302032470703,0
1.6501123905181885,0.3728095591068268,0.34942126274108887,-0.7601674199104309,0.6646439533565265,-0.6928340766315311,-0.04006323709614255,0.04921632067289104,0.4564140502795543,0.22622671834822453,0.5557170790117872,-0.9778585395058936,1.0263006782028354,0.0008566379547119141,0.0013031959533691406,0
1.66044020652771,0.3728095591068268,0.34942126274108887,-0.7601674199104309,0.6646439533565265,-0.6929000507312632,-0.0363894289120821,0.05085197972453516,0.4567333711245633,0.22344996067348186,0.556839397919202,-0.978419698959601,1.0306267836565874,0.0009088516235351562,0.0013463497161865234,0
1.6701443195343018,0.37378165125846863,0.35487377643585205,-0.7663503289222717,0.6718936340389309,-0.6929689771453944,-0.03357849647754016,0.051800154157562964,0.4557626578965803,0.22083581836651875,0.5578812968063994,-0.9789406484031997,1.0346916330074027,0.0007717609405517578,0.0012063980102539062,0
1.6802070140838623,0.37378165125846863,0.35487377643585205,-0.7663503289222717,0.6718936340389309,-0.6930398346614132,-0.029984471963271298,0.05301909912224434,0.4566637429405992,0.21811994979208282,0.5589487342348126,-0.9794743671174062,1.0389066846436983,0.0008232593536376953,0.0012574195861816406,0
1.69008469581604,0.3749432861804962,0.3629564642906189,-0.7753593325614929,0.6828847980250055,-0.69311866151335,-0.028199889041573414,0.0529355895006501,0.4547243832147615,0.21544899687935473,0.5599836870335418,-0.9799918435167709,1.0430442382922727,0.0007426738739013672,0.001161813735961914,0
1.7003190517425537,0.3749432861804962,0.3629564642906189,-0.7753593325614929,0.6828847980250055,-0.6931948049617509,-0.02529820574206845,0.05343232084486406,0.45497449226805264,0.21267641935146697,0.5610425479870835,-0.9805212739935417,1.0473311952780004,0.0009136199951171875,0.0013663768768310547,0
1.7099270820617676,0.3755303919315338,0.3682822585105896,-0.7811909317970276,0.6901991303464889,-0.6932851812390861,-0.02371067063497443,0.05334072896755299,0.4539158534855678,0.21006878194757028,0.5620241158981206,-0.9810120579490602,1.051355797606842,0.0006611347198486328,0.0010437965393066406,0
1.7202787399291992,0.3755303919315338,0.3682822585105896,-0.7811909317970276,0.6901991303464889,-0.693370167134367,-0.02093201431607738,0.053834153830524895,0.45480095718709646,0.20725425473460232,0.5630680899273236,-0.9815340449636618,1.0556918899146817,0.0010247230529785156,0.0016047954559326172,0
1.7301208972930908,0.37612998485565186,0.37616926431655884,-0.7897111773490906,0.7011954944057375,-0.6934768683397208,-0.0203157389081067,0.05239301900845641,0.45284285252206313,0.2045734440667346,0.564047609677299,-0.9820238048386494,1.0598145631506652,0.0007874965667724609,0.0011839866638183594,0
1.7401409149169922,0.37612998485565186,0.37616926431655884,-0.7897111773490906,0.7011954944057375,-0.6935708783117138,-0.018273980224705416,0.05190898509792652,0.4530461362130008,0.20183943273080623,0.5650317189281557,-0.9825158594640778,1.0640117383181436,0.0008063316345214844,0.0012145042419433594,0
1.7499456405639648,0.3763529360294342,0.38135063648223877,-0.7952662706375122,0.7085405350679914,-0.6936765815836078,-0.017134332966412626,0.05039709101713168,0.45197411741259796,0.19915958204852408,0.5659818556086911,-0.9829909278043455,1.0681187321932093,0.0007345676422119141,0.001150369644165039,0
1.760352373123169,0.3763529360294342,0.38135063648223877,-0.7952662706375122,0.7085405350679914,-0.6937699081462444,-0.014667252957666278,0.04988839240963155,0.45285838106207205,0.1963102979922044,0.5669764253496012,-0.9834882126748006,1.0724778941339919,0.0009174346923828125,0.0014514923095703125,0
1.770035743713379,0.37642163038253784,0.3890019357204437,-0.8033404350280762,0.7195614005776403,-0.6938936556707315,-0.014736080088809708,0.04721070599371859,0.450865642329894,0.19365460282107547,0.5678889810572234,-0.9839444905286117,1.0765340549217508,0.0006961822509765625,0.0010344982147216797,0
1.7802014350891113,0.37642163038253784,0.3890019357204437,-0.8033404350280762,0.7195614005776403,-0.6939976807511972,-0.013157872528909733,0.04585731192112849,0.451067501439534,0.19086206666740774,0.5688336061691908,-0.9844168030845953,1.0807922497677056,0.0008709430694580078,0.0013341903686523438,0
1.7903327941894531,0.3762897551059723,0.39402687549591064,-0.8085538148880005,0.7269205575192669,-0.694116077053461,-0.013048604953318044,0.043446575738301726,0.4500405371915886,0.1880743773961505,0.5697613786200767,-0.9848806893100384,1.0850360635437741,0.0007376670837402344,0.0011310577392578125,0
1.800400972366333,0.3762897551059723,0.39402687549591064,-0.8085538148880005,0.7269205575192669,-0.6942160202479637,-0.011366259932838,0.04228043121507694,0.4509031753354058,0.18529960500846535,0.5706698313243015,-0.9853349156621507,1.08925341215651,0.0009140968322753906,0.0013680458068847656,0
1.8098759651184082,0.37637951970100403,0.399161159992218,-0.8141399025917053,0.7343122409898276,-0.6943145171034872,-0.011230227963977891,0.04010555882361764,0.4502234691213236,0.18268430465438093,0.5715124187915301,-0.985756209395765,1.0932222878395415,0.0006914138793945312,0.0010645389556884766,0
1.820176124572754,0.37637951970100403,0.399161159992218,-0.8141399025917053,0.7343122409898276,-0.6943988670148727,-0.009492023770082167,0.039128306988784375,0.45136560060957076,0.1798368963000239,0.572414789055257,-0.9862073945276284,1.0975368085425516,0.0006351470947265625,0.0010128021240234375,0
1.8301782608032227,0.3767591118812561,0.40698474645614624,-0.8229709267616272,0.745246727095861,-0.6944635647676501,-0.010208724339888686,0.03663434443140596,0.44963582939050406,0.17706760837636032,0.5732774738849207,-0.9866387369424603,1.1017264935694644,0.0007977485656738281,0.0012078285217285156,0
1.8401849269866943,0.3767591118812561,0.40698474645614624,-0.8229709267616272,0.745246727095861,-0.6945190040952018,-0.009108903333993877,0.03542641345038228,0.4499968198378491,0.1742929253838661,0.5741271428535094,-0.9870635714267546,1.1059180760986536,0.0011124610900878906,0.0017757415771484375,0
1.8505070209503174,0.3767831325531006,0.41461947560310364,-0.8314261436462402,0.7561545411540663,-0.6945643215257599,-0.010241205028769008,0.032480525182882664,0.44778051687075815,0.17142650850232805,0.5749895235416913,-0.9874947617708456,1.1102417847074246,0.0007550716400146484,0.0011577606201171875,0
1.860372543334961,0.3767831325531006,0.41461947560310364,-0.8314261436462402,0.7561545411540663,-0.6946026118200852,-0.00945245289484476,0.03095311902523369,0.44777871557132454,0.1686828915730824,0.5758003838923205,-0.9879001919461602,1.1143742450604142,0.0007786750793457031,0.0011758804321289062,0
1.8699564933776855,0.37660694122314453,0.4196048378944397,-0.8368617296218872,0.763426773161284,-0.6946378250954489,-0.009951403861829664,0.02860007447202218,0.4465558474072907,0.16601390724351647,0.5765755653873489,-0.9882877826936745,1.1183887606666267,0.0006856918334960938,0.0010223388671875,0
1.8801546096801758,0.37660694122314453,0.4196048378944397,-0.8368617296218872,0.763426773161284,-0.6946695965963482,-0.00866903254395273,0.027516596558810554,0.4473018219035055,0.16316997648056242,0.5773868363370719,-0.9886934181685358,1.1226605376341412,0.0006926059722900391,0.0010297298431396484,0
1.8898117542266846,0.3760606050491333,0.4269322156906128,-0.8447768688201904,0.7743781457750029,-0.6947113994961541,-0.010161832198545592,0.024751757988360497,0.4452341327691298,0.16047325011132849,0.5781421416906979,-0.989071070845349,1.1267057128824034,0.0006089210510253906,0.0009522438049316406,0
1.9002737998962402,0.3760606050491333,0.4269322156906128,-0.8447768688201904,0.7743781457750029,-0.6947468623147626,-0.009534463408640429,0.023387546356720766,0.4454301672034263,0.1575478143244418,0.5789461859288747,-0.9894730929644373,1.1310880443246696,0.0007250308990478516,0.001081705093383789,0
1.9098198413848877,0.375514417886734,0.4317162036895752,-0.8498572111129761,0.7816609279848266,-0.6947957530975858,-0.01024569628757928,0.020989201766062948,0.4443357458421593,0.1548749984371052,0.5796669171680463,-0.9898334585840232,1.1350866808328828,0.0005266666412353516,0.0007734298706054688,0
1.9200513362884521,0.375514417886734,0.4317162036895752,-0.8498572111129761,0.7816609279848266,-0.6948376410526504,-0.009114638154614045,0.019871406705470884,0.44517678646509456,0.1520066020915394,0.5804256997416503,-0.9902128498708251,1.13937243939612,0.000789642333984375,0.0012359619140625,0
1.9307420253753662,0.37442314624786377,0.4387322962284088,-0.8571978211402893,0.7925679547626592,-0.694899670508056,-0.010910196208618198,0.016867797834050683,0.44335475496908877,0.14900550076534422,0.5812033729613663,-0.990601686480683,1.1438505447690883,0.000942230224609375,0.0014424324035644531,0
1.940422534942627,0.37442314624786377,0.4387322962284088,-0.8571978211402893,0.7925679547626592,-0.6949494765816349,-0.01063020775863452,0.01528484256814466,0.44359987850242033,0.1462845438080529,0.5818941761547969,-0.9909470880773984,1.1479055071343565,0.0009794235229492188,0.0014829635620117188,0
1.9500412940979004,0.37351715564727783,0.4433056116104126,-0.8619351387023926,0.7998654809972041,-0.6949984148227296,-0.011738729625291025,0.01279435984026623,0.44254576230810255,0.1435777715095849,0.5825679561461834,-0.9912839780730917,1.1519346035475373,0.0007750988006591797,0.0011723041534423828,0
1.9605650901794434,0.37351715564727783,0.4433056116104126,-0.8619351387023926,0.7998654809972041,-0.6950395099507485,-0.010845585569629935,0.011630237978946977,0.4434610424907763,0.1406127640821044,0.5832907084612187,-0.9916453542306093,1.156342800941891,0.0008769035339355469,0.0013248920440673828,0
1.9698846340179443,0.37189486622810364,0.4500041604042053,-0.8688158988952637,0.8105921939167432,-0.6951019615842191,-0.013009295861430986,0.008521551358031378,0.44154315562219354,0.137984006806283,0.583918156821385,-0.9919590784106924,1.16024656233627,0.0007336139678955078,0.001129150390625,0
1.9804050922393799,0.37189486622810364,0.4500041604042053,-0.8688158988952637,0.8105921939167432,-0.6951517745566639,-0.01285915119520185,0.006914526689580822,0.44185315215291,0.13501314726359656,0.5846122219608296,-0.9923061109804148,1.1646533615710515,0.0008859634399414062,0.0013349056243896484,0
1.9901762008666992,0.3706429898738861,0.45436403155326843,-0.8732322454452515,0.8176854996483202,-0.6952114314486219,-0.014164084011881958,0.004261584443798592,0.4409450159063735,0.13225076737866717,0.5852433122452179,-0.9926216561226089,1.1687462739818533,0.0007741451263427734,0.0011749267578125,0
2.000239133834839,0.3706429898738861,0.45436403155326843,-0.8732322454452515,0.8176854996483202,-0.6952599143788425,-0.013491145238684143,0.002955807260719665,0.44188989561648495,0.12940280376243535,0.5858796074095945,-0.9929398037047972,1.1729614254866898,0.0008337497711181641,0.001264333724975586,0
2.010472536087036,0.36850598454475403,0.4607461988925934,-0.8796021938323975,0.8283001878297384,-0.6953410980218738,-0.015987724955437238,-0.00011741773869741994,0.4401783713074618,0.12650345589455175,0.5865124684495081,-0.993256234224754,1.1772479829982543,0.0007834434509277344,0.0011897087097167969,0
2.0202109813690186,0.36850598454475403,0.4607461988925934,-0.8796021938323975,0.8283001878297384,-0.6954049004522139,-0.01620643698181001,-0.0017478584718409872,0.4405100672847467,0.12374146538393617,0.5871013964764826,-0.9935506982382413,1.1813272134189559,0.0007998943328857422,0.0011913776397705078,0
2.0297632217407227,0.3669115900993347,0.4648965895175934,-0.8837355971336365,0.8353957945841315,-0.6954846158278285,-0.018012927663775716,-0.004275099373058595,0.4395817410072419,0.12102962216749526,0.5876664279657239,-0.9938332139828618,1.1853284465092317,0.0004799365997314453,0.0007281303405761719,0
2.0401060581207275,0.3669115900993347,0.4648965895175934,-0.8837355971336365,0.8353957945841315,-0.6955488354351858,-0.017658163207356442,-0.005480551182873668,0.4405565662365411,0.11809042483849858,0.5882641001807462,-0.994132050090373,1.189660843681059,0.0007357597351074219,0.001154184341430664,0
2.0498647689819336,0.3642701208591461,0.4709699749946594,-0.8896944522857666,0.8460245152960962,-0.69562858829486,-0.02050697491253744,-0.008461727074121631,0.4387860734491832,0.11531451564685297,0.5888145399708907,-0.9944072699854454,1.1937485629277353,0.0006783008575439453,0.001094818115234375,0
2.060502529144287,0.3642701208591461,0.4709699749946594,-0.8896944522857666,0.8460245152960962,-0.6956913874472908,-0.020837319826668928,-0.00997089815237305,0.43921781230267554,0.11228563669732859,0.5893996401351764,-0.9946998200675882,1.1982044974846287,0.0009775161743164062,0.0014748573303222656,0
2.070255756378174,0.3623534142971039,0.4749133586883545,-0.893510103225708,0.8531244444542497,-0.6957816589403395,-0.022375088083530694,-0.012094431856791541,0.4383894491324542,0.10950599971180665,0.5899223983094029,-0.9949611991547014,1.2022899197548647,0.0008177757263183594,0.0012671947479248047,0
2.080198287963867,0.3623534142971039,0.4749133586883545,-0.893510103225708,0.8531244444542497,-0.6958546023123932,-0.021904805934512935,-0.013038241552431787,0.4393714069725146,0.10666990736765596,0.59044180988661,-0.995220904943305,1.206454637646558,0.0010306835174560547,0.0016293525695800781,0
2.0903873443603516,0.35924872756004333,0.48067933320999146,-0.8990201950073242,0.863740293386003,-0.6959597406381322,-0.024568342249029592,-0.015352926702527692,0.4376784620473411,0.10376093913086087,0.5909599542360563,-0.995479977118028,1.2107226196095189,0.0006771087646484375,0.0010364055633544922,0
2.1003782749176025,0.35924872756004333,0.48067933320999146,-0.8990201950073242,0.863740293386003,-0.6960434400705462,-0.024883407708519496,-0.016435312403423046,0.4380627197021315,0.10090609178694418,0.5914541069603666,-0.9957270534801832,1.21490761081501,0.0008807182312011719,0.0013134479522705078,0
2.109968662261963,0.35701918601989746,0.484425812959671,-0.9025738835334778,0.8708129860668543,-0.6961380175429465,-0.02661732130256397,-0.018138287300574756,0.4371857502318859,0.09816348309419165,0.5919154758804811,-0.9959577379402405,1.2189248228718266,0.0007913112640380859,0.0012466907501220703,0
2.12017822265625,0.35701918601989746,0.484425812959671,-0.9025738835334778,0.8708129860668543,-0.696214639691316,-0.0262504651598672,-0.018768131467696392,0.4381756639712153,0.09524149020072341,0.592392655714388,-0.9961963278571939,1.2232013935293031,0.0010895729064941406,0.0017864704132080078,0
2.1298954486846924,0.3534489572048187,0.48989802598953247,-0.9076771140098572,0.8814022321768441,-0.6963282741308288,-0.02917290545193081,-0.020855717893304683,0.43642411412374843,0.09245824913465069,0.5928334269986426,-0.9964167134993213,1.2272717356498666,0.0007216930389404297,0.0010983943939208984,0
