time,x,y,z,yaw,throttle,roll_rate,pitch_rate,yaw_rate,x_ref,y_ref,z_ref,yaw_ref,pred_time,nr_time,metadata
4.76837158203125e-07,-0.0024647850077599287,-0.0013869053218513727,0.11578385531902313,-0.004804368980044415,-0.7313462088882577,0.12455483363170926,-0.3194452885980569,0.1274653797884321,0.5557047372301581,0.22625703308397038,-0.8131285165419851,0.335103416119993,0.18115639686584473,0.18155264854431152,Sim
0.18230438232421875,-0.0024647850077599287,-0.0013869053218513727,0.11578385531902313,-0.004804368980044415,-0.7582198986116255,0.21786627941633224,-0.4636117020186399,0.2007145108703013,0.5336389327990406,0.27427994713631726,-0.8371399735681586,0.4114666974798433,0.00048351287841796875,0.0007159709930419922,Jax
0.19008255004882812,0.000843898335006088,-0.0021501746959984303,0.11719775199890137,-0.004925450392050732,-0.7794214454862137,0.2755471749465299,-0.5645281914130479,0.2722317909584135,0.5326040474976171,0.2762841446575535,-0.8381420723287767,0.41472480875744633,0.0005266666412353516,0.0007843971252441406,1stOrderHold
0.2000136375427246,0.001310055493377149,-0.0022356631234288216,0.11749974638223648,-0.004962025873778343,-0.795696826276108,0.30433768893413976,-0.6351697339891336,0.32447376038157405,0.5312717774958711,0.2788374050165752,-0.8394187025082875,0.4188847329591773,0.0005064010620117188,0.0007457733154296875,QuatYawError
0.21012401580810547,0.001310055493377149,-0.0022356631234288216,0.11749974638223648,-0.004962025873778343,-0.808247470882493,0.3157339436880515,-0.6846188137923935,0.3693775975617113,0.5299028820745508,0.28143016108634233,-0.8407150805431711,0.4231197583036485,0.0005381107330322266,0.0007653236389160156,NoPyJoules
0.2200942039489746,0.0017092248890548944,-0.002301436383277178,0.11791916191577911,-0.0050111150839872885,-0.8180328559468649,0.3173129841071684,-0.7192331696546754,0.4049631602750143,0.5285405762311257,0.28398038537418313,-0.8419901926870915,0.4272960609460836,0.0005748271942138672,0.0008573532104492188,0
0.23032355308532715,0.0017092248890548944,-0.002301436383277178,0.11791916191577911,-0.0050111150839872885,-0.8257034342671304,0.31357772537188044,-0.7434632187582728,0.434741263586504,0.5271301035871059,0.2865900449985082,-0.843295022499254,0.4315809206924529,0.0009877681732177734,0.0014829635620117188,0
0.24027752876281738,0.0019324017921462655,-0.0023344678338617086,0.11823258548974991,-0.005090186413209769,-0.8317340027135075,0.307390232883526,-0.760424253130791,0.4592117944171587,0.5257452310644805,0.2891227282884486,-0.8445613641442242,0.43575043227410826,0.0011699199676513672,0.001657724380493164,0
0.2501969337463379,0.0019324017921462655,-0.0023344678338617086,0.11823258548974991,-0.005090186413209769,-0.8364822205503858,0.3003813323003155,-0.7722969771915537,0.479756931637479,0.5243530629595275,0.2916399584504182,-0.845819979225209,0.4399054629173362,0.0008139610290527344,0.0011782646179199219,0
0.2601664066314697,0.002317977137863636,-0.0023538616951555014,0.11841132491827011,-0.00501929366493942,-0.8395196873070365,0.2919672792346947,-0.7806078840340875,0.497051838428543,0.5229417243530556,0.29416313999318927,-0.8470815699965946,0.44408146595414855,0.0007750988006591797,0.0011208057403564453,0
0.27028417587280273,0.002317977137863636,-0.0023538616951555014,0.11841132491827011,-0.00501929366493942,-0.8417730878382387,0.2847923907772107,-0.7864255188238612,0.5118851621761445,0.5214969785078822,0.29671687078282116,-0.8483584353914105,0.4483195872233871,0.0010728836059570312,0.0016598701477050781,0
0.28035926818847656,0.0027133245021104813,-0.0023109205067157745,0.11779917031526566,-0.004704574991729388,-0.8427884699642005,0.27577429581139495,-0.7842147369928287,0.5245945973136867,0.5200459345923663,0.29925277929194294,-0.8496263896459715,0.4525398320238084,0.0012850761413574219,0.0018608570098876953,0
0.2906534671783447,0.0027133245021104813,-0.0023109205067157745,0.11779917031526566,-0.004704574991729388,-0.8433504318902341,0.26936443429106266,-0.7805731406452688,0.5358515874045371,0.5185505979932746,0.30183650760108066,-0.8509182538005403,0.4568518560132966,0.0012178421020507812,0.0017192363739013672,0
0.30025386810302734,0.00351725984364748,-0.0021776575595140457,0.11535629630088806,-0.0036495708661752908,-0.842597268521262,0.25704844789940257,-0.7549208495257298,0.5453522011025012,0.5171444738426867,0.30423936821846503,-0.8521196841092324,0.4608732625488298,0.0008256435394287109,0.001234292984008789,0
0.3104236125946045,0.00351725984364748,-0.0021776575595140457,0.11535629630088806,-0.0036495708661752908,-0.8413641794456017,0.24939485779931908,-0.737613017447549,0.5542148576521544,0.515642817014799,0.3067775827224709,-0.8533887913612355,0.4651331551599797,0.001207113265991211,0.0018241405487060547,0
0.32040929794311523,0.004158885683864355,-0.0020470370072871447,0.11266987770795822,-0.0021113572798825615,-0.8394836726730198,0.2360120890424508,-0.7059330117363115,0.5616336932618786,0.5141562163758839,0.30926264753771215,-0.8546313237688561,0.4693159492575718,0.0016734600067138672,0.0024826526641845703,0
0.33075475692749023,0.004158885683864355,-0.0020470370072871447,0.11266987770795822,-0.0021113572798825615,-0.8374148499452974,0.2282852972701459,-0.6855213379996958,0.5689572892196899,0.512603424212493,0.3118296481825083,-0.8559148240912541,0.4736494449833487,0.0015265941619873047,0.0022203922271728516,0
0.3401601314544678,0.0052754925563931465,-0.0017364646773785353,0.10704240947961807,0.0020240715500191315,-0.8346535036150527,0.20896898251370893,-0.6364864318116622,0.5740437263392557,0.5111806100775552,0.3141566231686647,-0.8570783115843323,0.47758915905244387,0.001161336898803711,0.0019567012786865234,0
0.3504965305328369,0.0052754925563931465,-0.0017364646773785353,0.10704240947961807,0.0020240715500191315,-0.8315690926980753,0.19806471466300826,-0.6062322677748292,0.5800109338335049,0.5096047712341363,0.3167064526267243,-0.8583532263133621,0.48191885977366733,0.001363515853881836,0.0021080970764160156,0
0.36070704460144043,0.006162200588732958,-0.0014353410806506872,0.10220813006162643,0.005899803473511588,-0.8282097084644119,0.1808882574503489,-0.5587004812039607,0.5840301324373361,0.5080356367337869,0.31921746789374744,-0.8596087339468736,0.4861958299053074,0.0011365413665771484,0.0016469955444335938,0
0.37053966522216797,0.006162200588732958,-0.0014353410806506872,0.10220813006162643,0.005899803473511588,-0.8248287175995576,0.17120152538837147,-0.529484869592696,0.5890698768787395,0.5065128815899608,0.3216282027177256,-0.8608141013588627,0.49031450839965585,0.0011625289916992188,0.0016498565673828125,0
0.38009047508239746,0.0077772801741957664,-0.0007996283238753676,0.09326359629631042,0.013195004659102144,-0.8210261910857048,0.15081532701345218,-0.4682213303815818,0.5910050674322231,0.5050228172533112,0.323962889932672,-0.861981444966336,0.4943151422786865,0.0008425712585449219,0.0012691020965576172,0
0.3904716968536377,0.0077772801741957664,-0.0007996283238753676,0.09326359629631042,0.013195004659102144,-0.817055298921536,0.13953660809457064,-0.4314440368552248,0.5950769777451068,0.5033909922734354,0.3264927394261105,-0.8632463697130552,0.4986636182855951,0.00102996826171875,0.0014727115631103516,0
0.4001004695892334,0.009098255075514317,-0.0002312804717803374,0.08629067987203598,0.01890488695847279,-0.8129825861024306,0.12363931207026567,-0.3775096740100621,0.596550706851728,0.5018661155990469,0.3288318749962115,-0.8644159374981057,0.5026969091774929,0.0008399486541748047,0.0012102127075195312,0
0.4103360176086426,0.009098255075514317,-0.0002312804717803374,0.08629067987203598,0.01890488695847279,-0.8090725370666624,0.11502532814677008,-0.3448986563278656,0.6000994752261606,0.5002332283909605,0.3313106053442254,-0.8656553026721127,0.5069843655059251,0.0009298324584960938,0.0013263225555419922,0
0.4201023578643799,0.011528361588716507,0.0008882218389771879,0.0744248479604721,0.028482108967485785,-0.8048550898202397,0.09763941428497032,-0.280890968689291,0.5997999932924103,0.4986637803284066,0.33366814979644466,-0.8668340748982223,0.5110752805459094,0.0007958412170410156,0.0011622905731201172,0
0.43043041229248047,0.011528361588716507,0.0008882218389771879,0.0744248479604721,0.028482108967485785,-0.800672416922283,0.08847411970900522,-0.24295895577442214,0.6025595847824448,0.4969919779984386,0.3361531999032577,-0.8680765999516288,0.5154014858682022,0.0011036396026611328,0.0016450881958007812,0
0.44017958641052246,0.013490259647369385,0.0018305483972653747,0.06560192257165909,0.03550850022968524,-0.7964681772202161,0.07586538157606838,-0.18904178380479256,0.6023171056746283,0.4954025160976133,0.33849128060284506,-0.8692456403014225,0.5194852103732434,0.0009474754333496094,0.001382589340209961,0
0.4503312110900879,0.013490259647369385,0.0018305483972653747,0.06560192257165909,0.03550850022968524,-0.792585838797231,0.06956663614193763,-0.15664032130976413,0.6047927042862128,0.4937357511851334,0.34091789041006926,-0.8704589452050346,0.5237375129752865,0.000982046127319336,0.0015103816986083984,0
0.4601759910583496,0.016868306323885918,0.003718193154782057,0.050810813903808594,0.04686514972473092,-0.7883875983158019,0.05645340676282473,-0.09491470353713619,0.6028619294732791,0.4921080132178315,0.343263314857266,-0.8716316574286329,0.5278612847652198,0.0009047985076904297,0.001314401626586914,0
0.47040843963623047,0.016868306323885918,0.003718193154782057,0.050810813903808594,0.04686514972473092,-0.7843953562852612,0.05012384054793536,-0.0584804214252931,0.6046600028348955,0.49040437029515205,0.3456928602031222,-0.872846430101561,0.5321474428026205,0.0009987354278564453,0.0014204978942871094,0
0.48017048835754395,0.01949462667107582,0.005250372923910618,0.04015297442674637,0.0548529055976595,-0.7803934282236802,0.04124580391688769,-0.007831175679395078,0.6031515451827694,0.48876786544476225,0.3480028357766223,-0.8740014178883111,0.536236560208869,0.0008296966552734375,0.001195669174194336,0
0.49022746086120605,0.01949462667107582,0.005250372923910618,0.04015297442674637,0.0548529055976595,-0.7768253289780578,0.037486508927635304,0.02269425517426956,0.6048326440526782,0.4870705413636937,0.35037449641159435,-0.8751872482057972,0.5404492150001836,0.0009391307830810547,0.0013768672943115234,0
0.5000736713409424,0.02412044256925583,0.007907032035291195,0.023272674530744553,0.06740695978156223,-0.7729252490861167,0.02903117790827329,0.07924476356333585,0.6017319716054826,0.48539763876406083,0.3526884351410949,-0.8763442175705474,0.5445735860013621,0.0007877349853515625,0.0011298656463623047,0
0.5101621150970459,0.02412044256925583,0.007907032035291195,0.023272674530744553,0.06740695978156223,-0.7693609677769401,0.025704709870196636,0.1127473962791137,0.6028197920525018,0.4836721784984469,0.3550510156957258,-0.8775255078478629,0.5487994234400726,0.0006616115570068359,0.0009396076202392578,0
0.5202093124389648,0.027674145996570587,0.00992392748594284,0.011420554481446743,0.07605074656826871,-0.7657705909396894,0.02066729983962656,0.15847981496779556,0.6004520308453519,0.4819423438090005,0.357395547319615,-0.8786977736598074,0.5530079836212112,0.0007555484771728516,0.0011153221130371094,0
0.530235767364502,0.027674145996570587,0.00992392748594284,0.011420554481446743,0.07605074656826871,-0.7626732234121517,0.019476438259017598,0.18635416986422584,0.6015790206286372,0.48020475082273617,0.35972683704065483,-0.8798634185203273,0.5572078552392934,0.0007224082946777344,0.0010678768157958984,0
0.540369987487793,0.03371846303343773,0.013334169052541256,-0.007019893266260624,0.08942684052821963,-0.7591939870893912,0.014919615287312064,0.23576051727662434,0.5977206197600217,0.47843702273019656,0.3620745990553126,-0.8810372995276563,0.5614528674378524,0.0011594295501708984,0.001680135726928711,0
0.550447940826416,0.03371846303343773,0.013334169052541256,-0.007019893266260624,0.08942684052821963,-0.7561292416869693,0.014152719394244923,0.26537990619129564,0.5983476743873848,0.4766677263800247,0.3644007116179905,-0.8822003558089953,0.5656743106607642,0.0011000633239746094,0.0015842914581298828,0
0.5603797435760498,0.03823248669505119,0.015868021175265312,-0.019691938534379005,0.09861383618387842,-0.7530180420462043,0.0120912740395131,0.30451343854924035,0.5953316441493461,0.4749130237868695,0.3666846326717446,-0.8833423163358722,0.5698345344681179,0.0008339881896972656,0.0012285709381103516,0
0.5701775550842285,0.03823248669505119,0.015868021175265312,-0.019691938534379005,0.09861383618387842,-0.7504214632417713,0.012881172168902284,0.3287887457853217,0.5960345487739787,0.47317127124032465,0.36892946219137224,-0.8844647310956861,0.573938632155498,0.0008490085601806641,0.0013432502746582031,0
0.5800979137420654,0.045722171664237976,0.020048854872584343,-0.03919805958867073,0.11262055266408758,-0.7474078283411343,0.01136493579758372,0.36964278190446226,0.5915307111432034,0.4713969229897999,0.37119393986937427,-0.8855969699346871,0.5780940622728896,0.0008120536804199219,0.0011751651763916016,0
0.5903234481811523,0.045722171664237976,0.020048854872584343,-0.03919805958867073,0.11262055266408758,-0.7448428771039642,0.012610094022391508,0.3945559694639888,0.5918066014302702,0.4695566493478672,0.3735191468361482,-0.886759573418074,0.582377324122605,0.0009472370147705078,0.0013492107391357422,0
0.6000986099243164,0.05118023231625557,0.023089317604899406,-0.05249837040901184,0.12212965550945021,-0.7421996344070243,0.012895257253217598,0.4264038651140384,0.5882964024650055,0.4677867053867588,0.3757334138234204,-0.8878667069117101,0.5864719342986018,0.0007903575897216797,0.0011723041534423828,0
0.610396146774292,0.05118023231625557,0.023089317604899406,-0.05249837040901184,0.12212965550945021,-0.740059595248875,0.015337296069904848,0.44661998870408937,0.5887818952623577,0.465910884594433,0.3780569370034531,-0.8890284685017265,0.5907853564476623,0.0009438991546630859,0.0013556480407714844,0
0.6202273368835449,0.06004873663187027,0.028019864112138748,-0.07275892049074173,0.13651074425919366,-0.7374936638349685,0.015974967689860987,0.478514970871108,0.5838746684544333,0.46410924503748574,0.38026649690806974,-0.8901332484540349,0.5949034357307654,0.0008556842803955078,0.0012483596801757812,0
0.6304378509521484,0.06004873663187027,0.028019864112138748,-0.07275892049074173,0.13651074425919366,-0.7353716499680608,0.01868057119513972,0.4984111180711542,0.5839309301087663,0.4622269991775529,0.3825522202671348,-0.8912761101335673,0.5991804058624054,0.0010137557983398438,0.0014426708221435547,0
0.6400947570800781,0.06640321016311646,0.03154643997550011,-0.08642378449440002,0.1461720061656951,-0.7331740271199975,0.020602902449064226,0.5225746887285763,0.5801269814056368,0.46043644876713596,0.3847054414051204,-0.8923527207025601,0.6032254812421268,0.0008246898651123047,0.0011899471282958984,0
0.650242805480957,0.06640321016311646,0.03154643997550011,-0.08642378449440002,0.1461720061656951,-0.7314420768139664,0.02415396200779694,0.5383800727501389,0.5804093482591313,0.4585440245846628,0.38695914192289105,-0.8934795709614455,0.6074762858160567,0.0008115768432617188,0.0011751651763916016,0
0.6601815223693848,0.07654988020658493,0.03720279783010483,-0.10715699195861816,0.1607406554029533,-0.7293152944933315,0.02566958677463875,0.5608993969056186,0.575274738493576,0.45667994445762966,0.38915733107597533,-0.8945786655379876,0.6116394058110959,0.000766754150390625,0.0011174678802490234,0
0.6703641414642334,0.07654988020658493,0.03720279783010483,-0.10715699195861816,0.1607406554029533,-0.7275917733534574,0.029041344566740856,0.5754370404943435,0.5751759452213108,0.4547591902787702,0.391400151835685,-0.8957000759178424,0.6159046913234532,0.0009424686431884766,0.0013310909271240234,0
0.6802186965942383,0.08370041847229004,0.0412089005112648,-0.12107456475496292,0.17043903378126465,-0.7257959539565425,0.03151710331184204,0.5916534278369616,0.5712552742344024,0.45288983043716174,0.3935616870156429,-0.8967808435078214,0.6200325577235624,0.0007462501525878906,0.001094818115234375,0
0.6904056072235107,0.08370041847229004,0.0412089005112648,-0.12107456475496292,0.17043903378126465,-0.7244037195139614,0.03548070025738083,0.6027537735230443,0.5714486594524014,0.4509466253447328,0.39578673688009963,-0.8978933684400497,0.6242996408696555,0.0009336471557617188,0.0013346672058105469,0
0.7002754211425781,0.0949612483382225,0.04755500331521034,-0.14201107621192932,0.18503596614047468,-0.722670460457714,0.0373750091924775,0.6158157226755419,0.5662206381011192,0.4490534811514184,0.3979333751594514,-0.8989666875797256,0.6284338988563808,0.0010135173797607422,0.0015833377838134766,0
0.7103028297424316,0.0949612483382225,0.04755500331521034,-0.14201107621192932,0.18503596614047468,-0.7212746905065937,0.04101505790574321,0.6247842454474459,0.5660335791307949,0.4471196441441874,0.40010501599002124,-0.9000525079950106,0.6326341699486265,0.0008423328399658203,0.0012056827545166016,0
0.720322847366333,0.10279972106218338,0.051996294409036636,-0.15597672760486603,0.194705523260283,-0.7198224783371499,0.043668839173420834,0.6330668986323768,0.5620861496939564,0.44517674208914015,0.40226566880968007,-0.9011328344048399,0.6368313451161051,0.0008144378662109375,0.0011844635009765625,0
0.7302670478820801,0.10279972106218338,0.051996294409036636,-0.15597672760486603,0.194705523260283,-0.7186981582400278,0.04773298947837498,0.6392900137087956,0.5622011299328982,0.4432382182295782,0.40440064527726566,-0.9022003226386328,0.6409967620875844,0.0008647441864013672,0.0012459754943847656,0
0.740182638168335,0.11087032407522202,0.056600507348775864,-0.16998149454593658,0.20435754775086207,-0.7174922034807055,0.050307129989514095,0.6438661615864206,0.5587977686075852,0.4412950769516944,0.40652017792257017,-0.9032600889612851,0.6451501948341584,0.0006771087646484375,0.0009987354278564453,0
0.7504150867462158,0.11087032407522202,0.056600507348775864,-0.16998149454593658,0.20435754775086207,-0.7165484621607331,0.05437437684317587,0.6477336313738492,0.5592541683627218,0.43927921565813116,0.40869765192716373,-0.9043488259635818,0.6494363528715591,0.0009462833404541016,0.0014257431030273438,0
0.7601430416107178,0.12336985766887665,0.0638025626540184,-0.19093087315559387,0.21883480605776937,-0.7153520277196506,0.05565093604429444,0.648086694099896,0.5543218619423309,0.4373527796475925,0.41075850098874933,-0.9053792504943746,0.6535111890764621,0.0005745887756347656,0.0008330345153808594,0
0.7703349590301514,0.12336985766887665,0.0638025626540184,-0.19093087315559387,0.21883480605776937,-0.7143588324369707,0.05896747332439355,0.6492467224737597,0.554356156916263,0.43532409452386805,0.4129078986008555,-0.9064539493004278,0.6577803694619136,0.0007848739624023438,0.0011262893676757812,0
0.7800638675689697,0.13628239929676056,0.07132627815008163,-0.21176019310951233,0.23317704418473326,-0.7131848381051732,0.05926533614723208,0.6442398300148484,0.5487917452006303,0.4333777155787401,0.41495030502429153,-0.9074751525121457,0.6618556051409801,0.0008015632629394531,0.0012154579162597656,0
0.7904713153839111,0.13628239929676056,0.07132627815008163,-0.21176019310951233,0.23317704418473326,-0.7121902636476705,0.06201523474984984,0.6421217440618087,0.5484909816703556,0.43128498022553363,0.41712500024796056,-0.9085625001239802,0.6662150666873853,0.0014190673828125,0.0022530555725097656,0
0.8004038333892822,0.1450701653957367,0.07651259005069733,-0.225615993142128,0.2426234974412481,-0.7111963448395835,0.06283680807546556,0.6356886162376993,0.54445598214356,0.429277566354266,0.4191906141899634,-0.9095953070949816,0.6703755901003616,0.0010404586791992188,0.001531839370727539,0
0.8102607727050781,0.1450701653957367,0.07651259005069733,-0.225615993142128,0.2426234974412481,-0.710377492245293,0.06572314757118533,0.6324555069047271,0.5444867593472863,0.42727564682098657,0.42123095996579774,-0.9106154799828988,0.6745044551858796,0.000911712646484375,0.001299142837524414,0
0.8201544284820557,0.15846706926822662,0.08452829718589783,-0.24632516503334045,0.2568123237000875,-0.7094409275818292,0.06474150013789091,0.6204487108022863,0.5393186100351761,0.42525651846662327,0.42326929194266677,-0.9116346459713334,0.6786487000266928,0.0007894039154052734,0.001146078109741211,0
0.8303844928741455,0.15846706926822662,0.08452829718589783,-0.24632516503334045,0.2568123237000875,-0.708596866742463,0.0666456170400896,0.6138249412694993,0.5391274105473308,0.42315850994878296,0.4253667540581019,-0.9126833770290509,0.6829338593786848,0.0010249614715576172,0.0014607906341552734,0
0.8402869701385498,0.16751070320606232,0.09001876413822174,-0.2600298821926117,0.26617101561712,-0.7077577225950428,0.06625872513328014,0.601634422229552,0.535297657394513,0.42111782990170915,0.4273871469041566,-0.9136935734520782,0.6870817993555104,0.0007939338684082031,0.0011649131774902344,0
0.8510589599609375,0.16751070320606232,0.09001876413822174,-0.2600298821926117,0.26617101561712,-0.7070241024894447,0.06847768747802153,0.5946101018349893,0.5355824019355615,0.4188870101541374,0.4295738268611434,-0.9147869134305717,0.6915939599009181,0.0020928382873535156,0.0032286643981933594,0
0.8606076240539551,0.17565754055976868,0.09481226652860641,-0.27405089139938354,0.2754408112990338,-0.7062981809498955,0.06783046489038048,0.5804050036987587,0.5323653755940854,0.4169000391601592,0.4315024418798319,-0.9157512209399159,0.6955936949630808,0.0014812946319580078,0.002103090286254883,0
0.8701324462890625,0.17565754055976868,0.09481226652860641,-0.27405089139938354,0.2754408112990338,-0.7056356579421424,0.06967113159003377,0.5720780922396512,0.5328352206923348,0.4149091830671164,0.4334170852730405,-0.9167085426365202,0.6995834431711557,0.0005431175231933594,0.0007636547088623047,0
0.8804466724395752,0.18661156296730042,0.10108594596385956,-0.29553356766700745,0.2889942723674326,-0.7049143835633561,0.067368105882584,0.5496720392739254,0.5284112765653416,0.41274341255892455,0.43548005165473813,-0.917740025827369,0.7039038561180777,0.0013246536254882812,0.0017547607421875,0
0.8901398181915283,0.18661156296730042,0.10108594596385956,-0.29553356766700745,0.2889942723674326,-0.7041687880283213,0.06820451973356975,0.5363728618704914,0.5285499198869619,0.41069870562394145,0.4374089313203596,-0.9187044656601797,0.7079641115160125,0.0008487701416015625,0.0012421607971191406,0
0.9001269340515137,0.19770704209804535,0.10771141946315765,-0.3166900873184204,0.30246381879032747,-0.7034133153864696,0.06392649368295414,0.5088887406910634,0.5235678182418952,0.40858255968785123,0.4393862673308344,-0.9196931336654172,0.7121475048248499,0.0008642673492431641,0.0012636184692382812,0
0.910393238067627,0.19770704209804535,0.10771141946315765,-0.3166900873184204,0.30246381879032747,-0.7026124060116964,0.06364923681574375,0.4921234540018872,0.5234852122690009,0.40639733491990887,0.441408208090873,-0.9207041040454365,0.7164478441950553,0.0009944438934326172,0.0014338493347167969,0
0.920114278793335,0.20513111352920532,0.1123076006770134,-0.33062946796417236,0.3113806655212997,-0.7018555258851793,0.06018598667736744,0.46747634119082204,0.5198957476117495,0.40431894803182866,0.44331274317623154,-0.9216563715881158,0.7205197842122728,0.0008330345153808594,0.0011887550354003906,0
0.9304578304290771,0.20513111352920532,0.1123076006770134,-0.33062946796417236,0.3113806655212997,-0.7011063122759092,0.06026201631427533,0.45202603245557693,0.5202352615064004,0.40209766666364233,0.44532849275973163,-0.9226642463798658,0.7248524809897228,0.001191854476928711,0.0017817020416259766,0
0.9402363300323486,0.2162255495786667,0.1194499135017395,-0.35128259658813477,0.3246867490115203,-0.7004070763808963,0.05406164401378015,0.42196491394235447,0.5156439962813308,0.3999884885036668,0.4472238914286132,-0.9236119457143066,0.7289484893252919,0.0013880729675292969,0.0020062923431396484,0
0.9506566524505615,0.2162255495786667,0.1194499135017395,-0.35128259658813477,0.3246867490115203,-0.6996478894103282,0.05260043599575011,0.4034786294097238,0.5157926891382031,0.3977310399556906,0.4492327012315163,-0.9246163506157581,0.7333133437729045,0.0012667179107666016,0.0018334388732910156,0
0.9603190422058105,0.2235601395368576,0.12435761094093323,-0.3648472726345062,0.33348155964835813,-0.6989513243660712,0.047347938522188306,0.3772567980164184,0.5124574976860633,0.39562877352540116,0.451085217623884,-0.925542608811942,0.7373607161290661,0.0009241104125976562,0.0013492107391357422,0
0.97019362449646,0.2235601395368576,0.12435761094093323,-0.3648472726345062,0.33348155964835813,-0.6982478763560614,0.0461471664829783,0.3606539786741841,0.5128933533684998,0.39347142558029197,0.45296825192480406,-0.9264841259624019,0.741496971486609,0.0006363391876220703,0.0009183883666992188,0
0.9801802635192871,0.23440690338611603,0.13191942870616913,-0.38488638401031494,0.34655287683943226,-0.6976188961340246,0.03847747233455602,0.32968803784818157,0.5085455412788614,0.39128048074180577,0.4548621608690498,-0.9274310804345248,0.7456801650583645,0.0011334419250488281,0.0018515586853027344,0
0.9906578063964844,0.23440690338611603,0.13191942870616913,-0.38488638401031494,0.34655287683943226,-0.6969258917159863,0.03599756357425072,0.31052774443475906,0.5088221762699741,0.38897203952792925,0.4568377747794976,-0.9284188873897488,0.7500689879557879,0.0013797283172607422,0.001971721649169922,0
1.000140905380249,0.24150224030017853,0.13707228004932404,-0.3981122076511383,0.35518375911904065,-0.6963011283817849,0.029746154371175997,0.28390854877923816,0.505650264844693,0.38687409558307845,0.4586157805470447,-0.9293078902735223,0.7540412591692092,0.0009140968322753906,0.001341104507446289,0
1.0105934143066406,0.24150224030017853,0.13707228004932404,-0.3981122076511383,0.35518375911904065,-0.6956659056348972,0.02791662155852256,0.2669972747852824,0.5062788045463549,0.3845522751280153,0.46056437953218565,-0.9302821897660928,0.7584195958698403,0.001270294189453125,0.0019097328186035156,0
1.020226240158081,0.25188055634498596,0.14494822919368744,-0.4176054894924164,0.3680173426835218,-0.6951230270224048,0.01878314624490086,0.23678726216227464,0.502089158336551,0.3824038396528435,0.4623497630785186,-0.9311748815392593,0.762454584526933,0.0011398792266845703,0.0016179084777832031,0
1.0303666591644287,0.25188055634498596,0.14494822919368744,-0.4176054894924164,0.3680173426835218,-0.6945224709960595,0.01530198862264566,0.21798725177643155,0.502435572919087,0.38013323950016686,0.4642183971226353,-0.9321091985613176,0.766702193307555,0.0009348392486572266,0.001331329345703125,0
1.040128469467163,0.2585998475551605,0.15029191970825195,-0.43036961555480957,0.3765430240838569,-0.6939820593672983,0.007720393108329508,0.19279429595050843,0.49942675046409507,0.37793878916660384,0.46600672918240277,-0.9330033645912014,0.7707912108452627,0.0008401870727539062,0.001220703125,0
1.0503027439117432,0.2585998475551605,0.15029191970825195,-0.43036961555480957,0.3765430240838569,-0.693434152851075,0.004916330400595829,0.17669925010125712,0.500093047314999,0.3756426640312972,0.46785958252393417,-0.9339297912619671,0.7750530009586891,0.0009469985961914062,0.0014526844024658203,0
1.0608417987823486,0.26833075284957886,0.15842881798744202,-0.44917818903923035,0.38917134375655266,-0.6929753654336573,-0.005286585534066525,0.1490380474967632,0.49619303333126374,0.3732546382712209,0.4697669369049082,-0.9348834684524541,0.7794675899396589,0.001308441162109375,0.0018737316131591797,0
1.0704996585845947,0.26833075284957886,0.15842881798744202,-0.44917818903923035,0.38917134375655266,-0.6924749242412358,-0.009625674192065427,0.13176397960074343,0.4965782644196036,0.3710577756147958,0.4715041114940567,-0.9357520557470282,0.7835130647935439,0.0011594295501708984,0.001653432846069336,0
1.0801870822906494,0.2745709717273712,0.16392743587493896,-0.4614976644515991,0.3974702314753984,-0.6920436704696131,-0.018041830889023974,0.10904580852394984,0.4937577090592411,0.36884606606074216,0.4732362830040767,-0.9366181415020383,0.7875709233464976,0.0009713172912597656,0.0014119148254394531,0
1.0904741287231445,0.2745709717273712,0.16392743587493896,-0.4614976644515991,0.3974702314753984,-0.6916127516895407,-0.02145991073139924,0.09453560797473504,0.4945211997317468,0.3664886071152041,0.47506431233545376,-0.9375321561677268,0.7918799512797594,0.0010516643524169922,0.001539468765258789,0
1.1002182960510254,0.2835211455821991,0.17226867377758026,-0.47959139943122864,0.4098264454590837,-0.6912488035183253,-0.03215402390598951,0.07030710461772893,0.4906982529598867,0.3642472024294901,0.4767850412107012,-0.9383925206053505,0.7959615785454421,0.0007503032684326172,0.0011105537414550781,0
1.110429286956787,0.2835211455821991,0.17226867377758026,-0.47959139943122864,0.4098264454590837,-0.6908587562130374,-0.0367967632592402,0.0551979750291861,0.491231461720075,0.36188974852939965,0.47857685893629237,-0.9392884294681462,0.8002387484141639,0.0009796619415283203,0.0014078617095947266,0
1.1201446056365967,0.2892099618911743,0.17788778245449066,-0.49139028787612915,0.4180083728314752,-0.6905276021937855,-0.045340153642064465,0.03607155051022064,0.48853787522727776,0.3596385488628858,0.48027087583133504,-0.9401354379156674,0.8043082915864003,0.0008404254913330078,0.0012214183807373047,0
1.130326509475708,0.2892099618911743,0.17788778245449066,-0.49139028787612915,0.4180083728314752,-0.6902061243034214,-0.04893106098142391,0.023855459721595904,0.48938108228808475,0.35727072456302095,0.4820348839764753,-0.9410174419882376,0.808573277493135,0.0014057159423828125,0.002216815948486328,0
1.1402039527893066,0.2973012328147888,0.18640263378620148,-0.5087328553199768,0.43038353199639584,-0.6899444228997852,-0.05947188914989063,0.004165787283832288,0.4856443535694194,0.35496543467653874,0.48373498962230954,-0.9418674948111547,0.8127107312731684,0.0011265277862548828,0.0016672611236572266,0
1.1508374214172363,0.2973012328147888,0.18640263378620148,-0.5087328553199768,0.43038353199639584,-0.6896744387329479,-0.0640179627171091,-0.008047513514161157,0.4863018862111954,0.3524746555567014,0.4855528984468991,-0.9427764492234495,0.8171648681963259,0.0014646053314208984,0.0021278858184814453,0
1.160353660583496,0.302386611700058,0.1921149641275406,-0.5200328826904297,0.4385483242032796,-0.6894565278538557,-0.07215247027392648,-0.023627788126487338,0.48365720737114504,0.3502376797002477,0.48716893139668366,-0.9435844656983418,0.8211510211369293,0.0008504390716552734,0.0012335777282714844,0
1.1704442501068115,0.302386611700058,0.1921149641275406,-0.5200328826904297,0.4385483242032796,-0.6892504876876833,-0.07556673436646945,-0.033493077008936556,0.4845467384344872,0.34785759937609356,0.48887124128578185,-0.9444356206428909,0.8253777573925077,0.0010302066802978516,0.0014691352844238281,0
1.180058240890503,0.3095223009586334,0.20073296129703522,-0.5365626811981201,0.45072124264267127,-0.6890912655299146,-0.08596192235085913,-0.04919961866556202,0.48087775502978,0.3455822373008814,0.4904823312435599,-0.9452411656217798,0.829404856434871,0.0008556842803955078,0.0012350082397460938,0
1.1904141902923584,0.3095223009586334,0.20073296129703522,-0.5365626811981201,0.45072124264267127,-0.6889298368555142,-0.09050364453461716,-0.05887316398328585,0.4815316360622059,0.3431229282647719,0.4922059082325284,-0.9461029541162642,0.8337427463764466,0.0010166168212890625,0.0014495849609375,0
1.2000839710235596,0.3139539361000061,0.20651116967201233,-0.5473049879074097,0.45879773793674167,-0.6888034321789367,-0.09843929740778812,-0.07073294196874526,0.4789665679823774,0.3408188072588278,0.49380415208731276,-0.9469020760436564,0.8377932146573752,0.0007781982421875,0.0011148452758789062,0
1.210313081741333,0.3139539361000061,0.20651116967201233,-0.5473049879074097,0.45879773793674167,-0.6886900642005361,-0.10176719529032172,-0.07816510443500482,0.4799044480284577,0.3383733070832305,0.4954831026922692,-0.9477415513461346,0.8420779745352037,0.0011703968048095703,0.001775503158569336,0
1.2205698490142822,0.3200910985469818,0.21521124243736267,-0.5631223917007446,0.47075564489250626,-0.6886175931864701,-0.11118865139374198,-0.08968264910974806,0.4764618295939358,0.33591289073133374,0.49715443258661496,-0.9485772162933075,0.846374319163774,0.001367807388305664,0.0018889904022216797,0
1.2304117679595947,0.3200910985469818,0.21521124243736267,-0.5631223917007446,0.47075564489250626,-0.688549095485655,-0.11529680465333694,-0.09668419982859829,0.4771311539599454,0.33354422738421013,0.4987466775615355,-0.9493733387807677,0.8504968925312167,0.0013616085052490234,0.002100229263305664,0
1.2403790950775146,0.3238471746444702,0.22102712094783783,-0.573376476764679,0.4786866163091045,-0.6885097135606836,-0.12215867496855874,-0.10479147972546961,0.47475207170558403,0.3311376901200666,0.5003477092802031,-0.9501738546401015,0.8546719967511613,0.0011115074157714844,0.0015883445739746094,0
1.2505855560302734,0.3238471746444702,0.22102712094783783,-0.573376476764679,0.4786866163091045,-0.6884831641006621,-0.1248677964808821,-0.10975270939064102,0.475756891238372,0.3286654525542428,0.5019751192014548,-0.9509875596007273,0.8589472691176063,0.0011463165283203125,0.0016515254974365234,0
1.2602953910827637,0.33217692375183105,0.2296687364578247,-0.5896983742713928,0.49025430473730847,-0.6884262321575207,-0.13118836514938811,-0.1150939505943383,0.47246322538131974,0.32630608456199456,0.5035120049987095,-0.9517560024993548,0.8630145153134026,0.0008037090301513672,0.0012063980102539062,0
1.2701680660247803,0.33217692375183105,0.2296687364578247,-0.5896983742713928,0.49025430473730847,-0.6883819199410826,-0.1334550683853618,-0.11823597618504068,0.47321291142156546,0.3238997804637726,0.5050632952566637,-0.9525316476283319,0.8671499717226184,0.0006308555603027344,0.0008943080902099609,0
1.2800633907318115,0.3383486866950989,0.235402911901474,-0.6006969809532166,0.497632159724949,-0.6883205163458419,-0.13663943442856374,-0.11999252706651517,0.47111017166761854,0.3214805556582969,0.5066066051026502,-0.9533033025513251,0.8712949156432178,0.0006735324859619141,0.0009675025939941406,0
1.2902307510375977,0.3383486866950989,0.235402911901474,-0.6006969809532166,0.497632159724949,-0.6882861274542994,-0.13701913995821494,-0.120799543852751,0.4722336907598241,0.318987164294025,0.508180272162996,-0.954090136081498,0.8755538095689589,0.0008325576782226562,0.0012443065643310547,0
1.3002581596374512,0.3469097316265106,0.24401266872882843,-0.6166690587997437,0.508628538059057,-0.6882227747645246,-0.1398033064118603,-0.12004108424716055,0.46934243107733187,0.31652054898079324,0.5097202586447759,-0.954860129322388,0.8797540806612046,0.0007460117340087891,0.0010755062103271484,0
1.3104310035705566,0.3469097316265106,0.24401266872882843,-0.6166690587997437,0.508628538059057,-0.6881891232096075,-0.13970894218447683,-0.11910335450805992,0.47032166429429123,0.314010561687237,0.5112703464399885,-0.9556351732199941,0.8840152715633859,0.0010554790496826172,0.0016283988952636719,0
1.3202550411224365,0.35216692090034485,0.2497478425502777,-0.6269685626029968,0.5159029148589488,-0.6881522319396233,-0.1404480677224949,-0.11700890638967368,0.4684677166002458,0.311579431077407,0.5127555539723382,-0.956377776986169,0.8881303547902627,0.0010576248168945312,0.0015380382537841797,0
1.3304893970489502,0.35216692090034485,0.2497478425502777,-0.6269685626029968,0.5159029148589488,-0.6881470462906963,-0.139133096978764,-0.11507455317995145,0.46976916889935816,0.3090392899840872,0.5142904988876726,-0.9571452494438363,0.8924173117759905,0.0011105537414550781,0.0015764236450195312,0
1.3401496410369873,0.35940563678741455,0.2583479583263397,-0.6419045329093933,0.5268021117012772,-0.688131151412244,-0.13971890693299685,-0.11092391639346383,0.46700601428508576,0.30663470382503133,0.5157277948783984,-0.9578638974391991,0.8964637853152841,0.0010733604431152344,0.0016753673553466797,0
1.350905418395996,0.35940563678741455,0.2583479583263397,-0.6419045329093933,0.5268021117012772,-0.6881457838037698,-0.138070684675651,-0.10765792084192044,0.4681839313890742,0.30394955997628753,0.5173148605928706,-0.9586574302964352,0.9009691547999121,0.0015072822570800781,0.0021677017211914062,0
1.3606176376342773,0.3638155460357666,0.26408010721206665,-0.6515870690345764,0.5340455963658263,-0.6881641161408505,-0.13736206982215896,-0.10287866655087005,0.46643839321693575,0.30151787762108745,0.5187359342429199,-0.9593679671214599,0.9050373996811172,0.0014202594757080078,0.002151966094970703,0
1.3706135749816895,0.3638155460357666,0.26408010721206665,-0.6515870690345764,0.5340455963658263,-0.6882077026151903,-0.13507445184579378,-0.09913372706564681,0.46780991046203274,0.29900822246604575,0.5201865846960066,-0.9600932923480032,0.909224488125967,0.0014057159423828125,0.0019757747650146484,0
1.3801956176757812,0.36983829736709595,0.27266281843185425,-0.6656188368797302,0.544872418142291,-0.6882448328233718,-0.13436698740560898,-0.09318544378629011,0.4651240493694258,0.2965959303934468,0.5215657715706099,-0.9607828857853049,0.9132382047838526,0.0013208389282226562,0.001989126205444336,0
1.3907883167266846,0.36983829736709595,0.27266281843185425,-0.6656188368797302,0.544872418142291,-0.6883043159898232,-0.13189723789651397,-0.08868161608966102,0.4663279619018842,0.29392180310763444,0.5230774069465789,-0.9615387034732894,0.91767526418652,0.001468658447265625,0.0029888153076171875,0
1.4000942707061768,0.3734722435474396,0.2783696949481964,-0.6746545433998108,0.5520715149189198,-0.6883626279017351,-0.1300910135010207,-0.08284761184672784,0.4645713578232894,0.29156615522653845,0.524394104778471,-0.9621970523892355,0.921573333074069,0.0008082389831542969,0.0011630058288574219,0
1.4105236530303955,0.3734722435474396,0.2783696949481964,-0.6746545433998108,0.5520715149189198,-0.6884387900800256,-0.12701069647509802,-0.0783301440583688,0.4660161886459435,0.2889191229516553,0.5258571482758851,-0.9629285741379425,0.9259419825262349,0.0011677742004394531,0.0017516613006591797,0
1.4206209182739258,0.37837913632392883,0.28690728545188904,-0.6877859234809875,0.5628074120645147,-0.6885199287981925,-0.12512345423810592,-0.07148465198527792,0.46346724963769664,0.2863493888283977,0.5272608723559933,-0.9636304361779966,0.930171515100958,0.0012786388397216797,0.0019364356994628906,0
1.4306426048278809,0.37837913632392883,0.28690728545188904,-0.6877859234809875,0.5628074120645147,-0.6886164370255382,-0.12197850572524976,-0.06640954764013648,0.4646549119765184,0.2837921456933566,0.5286416726316235,-0.9643208363158118,0.9343693893482226,0.0012309551239013672,0.0017774105072021484,0
1.440124273300171,0.3813038468360901,0.29257795214653015,-0.6962820887565613,0.5699547529008635,-0.6887283044149847,-0.11951341406480101,-0.060247207107407046,0.4629875989872602,0.28136656881974165,0.5299366508844293,-0.9649683254422146,0.9383410613503986,0.0008299350738525391,0.0012059211730957031,0
1.4502341747283936,0.3813038468360901,0.29257795214653015,-0.6962820887565613,0.5699547529008635,-0.688849768749294,-0.11603227375032428,-0.05549925150332746,0.46440781192255964,0.27877377094401184,0.531305170908072,-0.965652585454036,0.9425758869577882,0.0009305477142333984,0.0013349056243896484,0
1.4603462219238281,0.38519492745399475,0.3010488450527191,-0.7085727453231812,0.5807686991405551,-0.6889768151611139,-0.11360468898240816,-0.0486640800556301,0.46185445851511564,0.2761737645767233,0.5326612917788569,-0.9663306458894284,0.9468116113820455,0.0008366107940673828,0.0012407302856445312,0
1.4704265594482422,0.38519492745399475,0.3010488450527191,-0.7085727453231812,0.5807686991405551,-0.6891097057788885,-0.11009729574063777,-0.04357815739582377,0.4630413309541595,0.27357534553087165,0.5340004965518891,-0.9670002482759446,0.9510340532903662,0.0008995532989501953,0.0012938976287841797,0
1.4801461696624756,0.3874753415584564,0.3066793978214264,-0.7164740562438965,0.5879430587803242,-0.6892561131232962,-0.10719913357262943,-0.03750069088479723,0.46139940544958247,0.2710637614495994,0.5352797747242041,-0.9676398873621019,0.9551053940963384,0.0008180141448974609,0.0011763572692871094,0
1.490476131439209,0.3874753415584564,0.3066793978214264,-0.7164740562438965,0.5879430587803242,-0.689404586053085,-0.10339270883310187,-0.03279955727745852,0.46286274288230844,0.26838790430140813,0.536626436941657,-0.9683132184708285,0.9594323983669583,0.001119375228881836,0.0016627311706542969,0
1.5003752708435059,0.39044544100761414,0.3150838017463684,-0.7279798984527588,0.5987971284709527,-0.6895711840358164,-0.10075917241421052,-0.026670456939670753,0.46028491854180265,0.2658173684454693,0.5379043842847216,-0.9689521921423607,0.9635789401842116,0.0012319087982177734,0.0021839141845703125,0
1.5110516548156738,0.39044544100761414,0.3150838017463684,-0.7279798984527588,0.5987971284709527,-0.689737462593951,-0.09700022496484936,-0.021970261348753142,0.46157187806694505,0.2630381848994129,0.5392688691968249,-0.9696344345984125,0.9680510534447272,0.0027794837951660156,0.004012107849121094,0
1.5204782485961914,0.3921334743499756,0.3206578493118286,-0.7353706955909729,0.6060158848996892,-0.689907811248791,-0.0940836769625513,-0.01669858897799472,0.459893803209705,0.2605785114246571,0.5404616909492381,-0.970230845474619,0.9719996558139605,0.001180887222290039,0.001703500747680664,0
1.53033447265625,0.3921334743499756,0.3206578493118286,-0.7353706955909729,0.6060158848996892,-0.6900708107586409,-0.09031558626342623,-0.012550488719826997,0.46130511421345266,0.2580009512517936,0.5416968794013581,-0.970848439700679,0.9761282212938558,0.0007457733154296875,0.0011103153228759766,0
1.540184736251831,0.39426150918006897,0.3289751708507538,-0.7460991740226746,0.6168747005116402,-0.6902636251490085,-0.0879395204336848,-0.007347510448724947,0.4586869646035742,0.25541910029889947,0.5429190392705903,-0.9714595196352951,0.9802542900602292,0.0008683204650878906,0.0012509822845458984,0
1.550351858139038,0.39426150918006897,0.3289751708507538,-0.7460991740226746,0.6168747005116402,-0.6904502543123275,-0.08441836476096094,-0.0032851457208252517,0.4598616305985362,0.2527481267615913,0.5441676069176725,-0.9720838034588362,0.9845130841174294,0.0009002685546875,0.0013308525085449219,0
1.5605993270874023,0.3954164981842041,0.3344848155975342,-0.753050684928894,0.6240959574827714,-0.6906447776517566,-0.08163129336269717,0.0010770505088888264,0.4582580942392256,0.2500498699482877,0.5454127451195511,-0.9727063725597755,0.9888055338729055,0.0012373924255371094,0.001870870590209961,0
1.5705757141113281,0.3954164981842041,0.3344848155975342,-0.753050684928894,0.6240959574827714,-0.6908259050178865,-0.07795235408682837,0.004619797291203787,0.4596750452966642,0.2474170984554025,0.5466120922481588,-0.9733060461240793,0.9929844330974035,0.0011966228485107422,0.001714468002319336,0
1.5803470611572266,0.39636993408203125,0.3399668037891388,-0.7597936391830444,0.6312949537740435,-0.6910145858580278,-0.07515406439731961,0.008138436025564742,0.4584450212099799,0.24483286039864852,0.5477744704429149,-0.9738872352214574,0.9970774453767461,0.0012214183807373047,0.0019526481628417969,0
1.5906376838684082,0.39636993408203125,0.3399668037891388,-0.7597936391830444,0.6312949537740435,-0.6911894942137526,-0.07139984614286118,0.01115133272100436,0.4601269086121354,0.2421053863468529,0.5489854113743289,-0.9744927056871644,1.001387971338121,0.001081705093383789,0.0015404224395751953,0
1.6002771854400635,0.39743292331695557,0.3481278121471405,-0.7695264220237732,0.6421414223599325,-0.6913958359083235,-0.06930957535515181,0.014080379610688816,0.4577318095312132,0.23954505450551122,0.5501074139310901,-0.9750537069655449,1.0054257563143585,0.0013747215270996094,0.002043008804321289,0
1.6104974746704102,0.39743292331695557,0.3481278121471405,-0.7695264220237732,0.6421414223599325,-0.6915881246043021,-0.06594904525379468,0.016687077117836433,0.45908756415841695,0.23682478290893946,0.5512839760052288,-0.9756419880026144,1.0097068210561744,0.0012750625610351562,0.0018334388732910156,0
1.6202325820922852,0.39808887243270874,0.3562050461769104,-0.7789230346679688,0.6529615121429828,-0.6918126980669169,-0.06436931680871899,0.019025796559391562,0.45619547464736326,0.23422827453252953,0.5523921753695593,-0.9761960876847796,1.0137846533173038,0.0009963512420654297,0.0014619827270507812,0
1.6303205490112305,0.39808887243270874,0.3562050461769104,-0.7789230346679688,0.6529615121429828,-0.6920179937735382,-0.0613742344163828,0.02122460808006632,0.4572423529155793,0.2315321827680166,0.5535276400891628,-0.9767638200445814,1.0180102910189324,0.0010747909545898438,0.0015327930450439453,0
1.6401922702789307,0.39830446243286133,0.361540287733078,-0.7849776744842529,0.6601501944159637,-0.6922364058431886,-0.059549325316899424,0.02293813355713535,0.45545142517029424,0.22888855553928802,0.5546260263845704,-0.9773130131922851,1.0221453479539848,0.001123189926147461,0.00170135498046875,0
1.6507201194763184,0.39830446243286133,0.361540287733078,-0.7849776744842529,0.6601501944159637,-0.6924318543385294,-0.056407025448782476,0.02474466993865037,0.4568447223867809,0.226063478512394,0.555783504327788,-0.9778917521638939,1.0265552431135334,0.001363992691040039,0.0019817352294921875,0
1.6602110862731934,0.4006653130054474,0.36970701813697815,-0.7953639030456543,0.6708524834288362,-0.6926009326229651,-0.05405132492059618,0.02688499265178923,0.4541830331131961,0.2235116230563984,0.55681464991386,-0.97840732495693,1.0305308099888038,0.0008819103240966797,0.0013263225555419922,0
1.6704037189483643,0.4006653130054474,0.36970701813697815,-0.7953639030456543,0.6708524834288362,-0.6927495647843996,-0.05061877306535179,0.02886876094762871,0.45534009285062294,0.2207658731395082,0.5579089793657658,-0.9789544896828828,1.0348002899798778,0.0009586811065673828,0.0014216899871826172,0
1.6802723407745361,0.4027361273765564,0.3751666843891144,-0.8025269508361816,0.677800693354827,-0.6928709092048714,-0.04719128963253088,0.03134346057286448,0.45375810246797044,0.21810230153479004,0.5589556208369565,-0.9794778104184783,1.038934048623899,0.0008060932159423828,0.0011677742004394531,0
1.690253734588623,0.4027361273765564,0.3751666843891144,-0.8025269508361816,0.677800693354827,-0.6929812313633256,-0.043151276679002246,0.03354630900788247,0.45517722390033905,0.21540324540989073,0.5600012873796688,-0.9800006436898343,1.043115045087755,0.0009095668792724609,0.0013883113861083984,0
1.7003581523895264,0.40538883209228516,0.3832714259624481,-0.812847375869751,0.6883764338978708,-0.6930715522807449,-0.039867403069758826,0.03616800107410978,0.4527415206224281,0.2126658166187537,0.5610465670885783,-0.9805232835442891,1.0473475737187043,0.0011413097381591797,0.0016102790832519531,0
1.7104041576385498,0.40538883209228516,0.3832714259624481,-0.812847375869751,0.6883764338978708,-0.6931584387559341,-0.035805726324418446,0.0385021025852217,0.4539637141855967,0.20993918422738653,0.5620725388470241,-0.981036269423512,1.0515556345571386,0.0011844635009765625,0.0016772747039794922,0
1.7201080322265625,0.4068719744682312,0.3886070251464844,-0.8194196820259094,0.6954809765269133,-0.6932475416343536,-0.03229663379277346,0.040710078033845076,0.4523990746734089,0.207300710963667,0.5630509881298125,-0.9815254940649062,1.055620384039413,0.0008819103240966797,0.0012822151184082031,0
1.7304062843322754,0.4068719744682312,0.3886070251464844,-0.8194196820259094,0.6954809765269133,-0.6933366648200984,-0.02807446040819891,0.0428451262188909,0.4538968521944791,0.20449564087980657,0.5640758219079747,-0.9820379109539873,1.059934105794096,0.0009877681732177734,0.0014057159423828125,0
1.7402067184448242,0.40869563817977905,0.39649972319602966,-0.8288384079933167,0.706118373381508,-0.6934237556447019,-0.02495455717543382,0.04456971994943047,0.451423926526783,0.20182146219654762,0.565038138002071,-0.9825190690010355,1.064039302035426,0.0007693767547607422,0.0011420249938964844,0
1.7504632472991943,0.40869563817977905,0.39649972319602966,-0.8288384079933167,0.706118373381508,-0.693508718940754,-0.020927473794021944,0.0463932300179653,0.4526936893056049,0.19901798374364435,0.5660316617881146,-0.9830158308940573,1.0683355467954554,0.0010755062103271484,0.0016219615936279297,0
1.7605359554290771,0.40965011715888977,0.4016898572444916,-0.8348691463470459,0.7132537677875292,-0.6936008972215506,-0.01804596914606846,0.04771107341883572,0.4511790773895958,0.19625998976558165,0.5669938416043103,-0.9834969208021551,1.072554792910468,0.0010616779327392578,0.0015482902526855469,0
1.7703008651733398,0.40965011715888977,0.4016898572444916,-0.8348691463470459,0.7132537677875292,-0.693689876546249,-0.01427573712571871,0.04923415396126835,0.45262719212332,0.19358183249382613,0.5679137911059496,-0.9839568955529747,1.076645108739207,0.0009779930114746094,0.0014009475708007812,0
1.7801809310913086,0.4107019603252411,0.40937066078186035,-0.8435509204864502,0.7239093272922011,-0.6937960209022267,-0.012396854096167014,0.04998910395201178,0.45016007178285206,0.190867703817351,0.5688317146920449,-0.9844158573460224,1.0807836610731902,0.0008985996246337891,0.0012919902801513672,0
1.7904117107391357,0.4107019603252411,0.40937066078186035,-0.8435509204864502,0.7239093272922011,-0.6938964267422354,-0.009145360364752032,0.05117034423756932,0.45141040569620544,0.18805264536362992,0.5697685517574138,-0.9848842758787069,1.085069120030805,0.0010142326354980469,0.0014750957489013672,0
1.7999958992004395,0.4111631512641907,0.41441622376441956,-0.8490766286849976,0.7309790776701979,-0.6940100930571583,-0.007168606534109119,0.05153594550164902,0.44983887931627214,0.18541132762468082,0.57063354229177,-0.985316771145885,1.0890837355055585,0.0006430149078369141,0.0009446144104003906,0
1.810445785522461,0.4111631512641907,0.41441622376441956,-0.8490766286849976,0.7309790776701979,-0.694114757045805,-0.003908116826181356,0.052456529690146476,0.45136793778790685,0.1825268993749272,0.5715627095993713,-0.9857813547996856,1.0934609736522398,0.0012145042419433594,0.0019562244415283203,0
1.8201239109039307,0.4115121364593506,0.42187225818634033,-0.8569790720939636,0.7416050249518323,-0.694257943934559,-0.0030120875851995773,0.05188210300194086,0.44888857522138453,0.1798513417092774,0.5724102505069005,-0.9862051252534503,1.0975149373320994,0.0008878707885742188,0.001293182373046875,0
1.8303935527801514,0.4115121364593506,0.42187225818634033,-0.8569790720939636,0.7416050249518323,-0.6943872795487,-0.0003884242306776407,0.052209985901220744,0.45016915831648885,0.17700795483689855,0.5732958956110348,-0.9866479478055173,1.1018166748618772,0.001146078109741211,0.0016541481018066406,0
1.840210199356079,0.41151928901672363,0.4267646372318268,-0.8620240688323975,0.7487068942584051,-0.6945481037920561,0.0005184317528263122,0.05135191685920811,0.4486283195802358,0.17428591258535217,0.5741292717448666,-0.9870646358724333,1.1059286621639868,0.0010464191436767578,0.001775503158569336,0
1.8504257202148438,0.41151928901672363,0.4267646372318268,-0.8620240688323975,0.7487068942584051,-0.6946894353793958,0.003037691786370723,0.05142911418718923,0.45014191017954724,0.17144910225540916,0.5749827869908927,-0.9874913934954463,1.110207729534985,0.0008945465087890625,0.0013234615325927734,0
1.8605573177337646,0.41118815541267395,0.4339768588542938,-0.8692266345024109,0.7594103636381221,-0.6948712801221629,0.0026163186560570935,0.04931556205968824,0.4477100392474599,0.16863146874656068,0.5758154459098659,-0.9879077229549329,1.1144516431795946,0.0012500286102294922,0.0017287731170654297,0
1.8705132007598877,0.41118815541267395,0.4339768588542938,-0.8692266345024109,0.7594103636381221,-0.695025833593029,0.004324505615721057,0.04860968945016087,0.4489525305616181,0.16585876268517208,0.5766202136940256,-0.9883101068470128,1.118621953709577,0.001333475112915039,0.001867055892944336,0
1.880072832107544,0.41074833273887634,0.4386994242668152,-0.8738000988960266,0.7664983996468528,-0.6951940250671286,0.0042261283231731055,0.04644100106952223,0.4473798536326581,0.1631927975075308,0.5773803866097861,-0.988690193304893,1.12262628272462,0.0007638931274414062,0.0011129379272460938,0
1.8903617858886719,0.41074833273887634,0.4386994242668152,-0.8738000988960266,0.7664983996468528,-0.6953332089850867,0.006052702004654446,0.04562077066230412,0.4488804719588031,0.16031954976340482,0.5781847818506287,-0.9890923909253143,1.126936109606209,0.0009236335754394531,0.001321554183959961,0
1.9000370502471924,0.4097747802734375,0.4456486403942108,-0.8803637027740479,0.7771572231362909,-0.6955305222576151,0.004503973108909324,0.04242389044707515,0.4463779852804772,0.15761405996356495,0.5789281545250686,-0.9894640772625343,1.130988874863578,0.0007374286651611328,0.0010790824890136719,0
1.9103929996490479,0.4097747802734375,0.4456486403942108,-0.8803637027740479,0.7771572231362909,-0.6956970912902041,0.0055339124029190525,0.041001372804345085,0.4476539649815847,0.15471441318575327,0.5797097983927717,-0.9898548991963858,1.1353267648051535,0.0008931159973144531,0.0012657642364501953,0
1.9202349185943604,0.4089243710041046,0.4501933753490448,-0.8845351338386536,0.7841975747391389,-0.6958758098025175,0.004503733242704369,0.038203377524273684,0.4461305968962387,0.15195510069384208,0.5804391849049514,-0.9902195924524757,1.139449338172596,0.0007708072662353516,0.0011212825775146484,0
1.9302866458892822,0.4089243710041046,0.4501933753490448,-0.8845351338386536,0.7841975747391389,-0.6960203217293245,0.005660272363523327,0.036911026663366285,0.44762287598564054,0.14913341705334626,0.5811705635336262,-0.990585281766813,1.1436597958560113,0.0008499622344970703,0.0012192726135253906,0
1.940260887145996,0.4073401391506195,0.4568783938884735,-0.8904743790626526,0.7947060402579476,-0.6962301364124068,0.003122588509250649,0.03292369698096145,0.4452380935826716,0.14633000554770004,0.5818827454706059,-0.9909413727353029,1.1478377962636412,0.0008120536804199219,0.0011775493621826172,0
1.9503419399261475,0.4073401391506195,0.4568783938884735,-0.8904743790626526,0.7947060402579476,-0.6964046600388221,0.0034405977514362783,0.03096807316559378,0.4465092479655801,0.1434931177860019,0.5825888130989579,-0.9912944065494789,1.1520605377775845,0.001092672348022461,0.0015082359313964844,0
1.9601469039916992,0.4060737192630768,0.46124252676963806,-0.8942966461181641,0.8017062984669933,-0.6966068358797034,0.001433707754455742,0.027248817174511136,0.4450345710240318,0.14073065508857546,0.5832622760974178,-0.9916311380487088,1.156167631521191,0.0007495880126953125,0.0011010169982910156,0
1.9703826904296875,0.4060737192630768,0.46124252676963806,-0.8942966461181641,0.8017062984669933,-0.6967699262091894,0.001953504367642157,0.02536754919802708,0.4465711494070274,0.13784344110000532,0.5839513556330778,-0.9919756778165388,1.1604551877181641,0.000919342041015625,0.0013093948364257812,0
1.98032808303833,0.40386486053466797,0.4676540195941925,-0.8997275233268738,0.8122764866822716,-0.6969926188154194,-0.0016048649315925589,0.020632444917370703,0.4441912222017955,0.13503490657550596,0.584607196334551,-0.9923035981672754,1.164621104032348,0.0018658638000488281,0.002911090850830078,0
1.9909586906433105,0.40386486053466797,0.4676540195941925,-0.8997275233268738,0.8122764866822716,-0.6971740619589516,-0.001881540902275801,0.01819881357222341,0.4455659379753093,0.13202942213457694,0.585293286900516,-0.9926466434502579,1.1690740425330148,0.0019659996032714844,0.0028314590454101562,0
2.0005874633789062,0.402189701795578,0.4718356728553772,-0.9031482338905334,0.8193389721572836,-0.6973813812844534,-0.004434655343948635,0.014178878921629171,0.44407814195322315,0.1293041659841549,0.5859013847561226,-0.9929506923780613,1.1731073334249127,0.0013790130615234375,0.001979827880859375,0
2.010493040084839,0.402189701795578,0.4718356728553772,-0.9031482338905334,0.8193389721572836,-0.6975471914387674,-0.004366611331840161,0.012046650905706089,0.44559447958695325,0.12649764353093115,0.5865137220740206,-0.9932568610370103,1.1772565716927696,0.001264810562133789,0.001804351806640625,0
2.020174503326416,0.3993787467479706,0.47795960307121277,-0.9080316424369812,0.8299680947800598,-0.6977746226640966,-0.008521884455515537,0.006798709228546938,0.4431392622980592,0.12375181633722467,0.5870992147441843,-0.9935496073720921,1.1813119335322015,0.0012192726135253906,0.0018985271453857422,0
2.0307457447052,0.3993787467479706,0.47795960307121277,-0.9080316424369812,0.8299680947800598,-0.6979589278477184,-0.009222570370197825,0.004038656204843335,0.4444712965878377,0.12075054048832823,0.5877238356335198,-0.9938619178167598,1.18574000476619,0.001499176025390625,0.0021419525146484375,0
2.04023814201355,0.3972981870174408,0.48194634914398193,-0.9111525416374207,0.8370342937718864,-0.6981597470961552,-0.0124632857019608,-0.00019419178053136504,0.4429194413289601,0.11805287037999279,0.5882716377618801,-0.9941358188809399,1.1897161708527053,0.0012462139129638672,0.0018405914306640625,0
2.0505619049072266,0.3972981870174408,0.48194634914398193,-0.9111525416374207,0.8370342937718864,-0.698318214208272,-0.012789940375162963,-0.002458379311804544,0.44446414076294277,0.11511611329042273,0.5888533607451915,-0.9944266803725956,1.1940405785412624,0.0011916160583496094,0.0016963481903076172,0
2.060218334197998,0.3950321674346924,0.48717498779296875,-0.9176268577575684,0.8476220988540802,-0.6984605784142631,-0.016462297754878973,-0.0074901266979106595,0.44200805170776697,0.11236659419006136,0.589384211283375,-0.9946921056416875,1.198085454183902,0.0010590553283691406,0.0016779899597167969,0
2.070711851119995,0.3950321674346924,0.48717498779296875,-0.9176268577575684,0.8476220988540802,-0.6985631495986676,-0.016954682564555724,-0.010135062214724051,0.44333737576141025,0.10937595420563782,0.5899465235439617,-0.9949732617719809,1.2024809682735642,0.0015463829040527344,0.002172231674194336,0
2.0801453590393066,0.3936766982078552,0.4903784990310669,-0.9223586916923523,0.8546425787993506,-0.6986268905374279,-0.018955954182433718,-0.014019135054347457,0.44179211210030733,0.10668501184440825,0.5904390808946833,-0.9952195404473416,1.2064324668304829,0.0008516311645507812,0.0012197494506835938,0
2.0901854038238525,0.3936766982078552,0.4903784990310669,-0.9223586916923523,0.8546425787993506,-0.6986664035897253,-0.0185847581038932,-0.016046545164428074,0.44329356188339103,0.10381861768327952,0.590949824115663,-0.9954749120578315,1.2106380309553952,0.0007572174072265625,0.0010924339294433594,0
2.100069522857666,0.3912994861602783,0.4950770139694214,-0.9291152358055115,0.8651855982166405,-0.6986718308966532,-0.021139832380221563,-0.02045428598667425,0.4408771959320316,0.10099435137613215,0.5914390424972926,-0.9957195212486463,1.2147782810545733,0.0007119178771972656,0.001016855239868164,0
2.1104698181152344,0.3912994861602783,0.4950770139694214,-0.9291152358055115,0.8651855982166405,-0.6986635642647372,-0.0209100288366979,-0.022661277034987305,0.44219065043072475,0.09802010667276823,0.5919392356381347,-0.9959696178190673,1.2191347465447522,0.0014848709106445312,0.002041339874267578,0
2.1200850009918213,0.3894871175289154,0.4981299638748169,-0.9333850145339966,0.8722260668623775,-0.698645752406856,-0.02249663983807835,-0.026073272380280836,0.4406748641864297,0.0952681809927533,0.5923883639052442,-0.9961941819526221,1.2231623449298197,0.0007719993591308594,0.0011026859283447266,0
2.1303839683532715,0.3894871175289154,0.4981299638748169,-0.9333850145339966,0.8722260668623775,-0.6986268465246533,-0.021751740362967138,-0.027711212660464894,0.44222178596092393,0.09231827130826156,0.5928552410012533,-0.9964276205006266,1.2274763662901256,0.0009510517120361328,0.0014002323150634766,0
