time,x,y,z,yaw,throttle,roll_rate,pitch_rate,yaw_rate,x_ref,y_ref,z_ref,yaw_ref,pred_time,nr_time,metadata
4.76837158203125e-07,0.009862755425274372,-0.008544228039681911,-0.004345298279076815,-0.006796944241535086,-0.7264606871128623,0.13380671577983907,-0.29617948027846835,0.1282126474574427,0.5557047372301581,0.22625703308397038,-0.8131285165419851,0.335103416119993,0.1779472827911377,0.17830896377563477,Sim
0.17909598350524902,0.009862755425274372,-0.008544228039681911,-0.004345298279076815,-0.006796944241535086,-0.7489374222746344,0.23086712020630729,-0.4473256361949279,0.2012193434278915,0.5340636140758138,0.27345210937251924,-0.8367260546862596,0.4101227665252485,0.0005488395690917969,0.000789642333984375,Jax
0.18064594268798828,0.009330248460173607,-0.007850603200495243,-0.0034779447596520185,-0.006666247871603295,-0.7667868758663532,0.2906042615186328,-0.5531279453364495,0.2718405455711847,0.5338586132537371,0.2738521153009352,-0.8369260576504676,0.4107720119094962,0.0004203319549560547,0.0006041526794433594,1stOrderHold
0.19008469581604004,0.009293707087635994,-0.007817123085260391,-0.003465676913037896,-0.006655049178887528,-0.7806326150951335,0.32278727883670744,-0.6271895617355147,0.3235887394954585,0.5326037609640428,0.27628469701913777,-0.8381423485095688,0.41472570757431415,0.0005443096160888672,0.0007669925689697266,QuatYawError
0.20028090476989746,0.009230946190655231,-0.007759440690279007,-0.0034303879365324974,-0.0066437068681541684,-0.79145634240453,0.33774940835730616,-0.6790326932148603,0.36801540155474727,0.5312357539303234,0.2789060303150164,-0.8394530151575081,0.4189966855935015,0.000614166259765625,0.0008907318115234375,NoPyJoules
0.2101736068725586,0.009203164838254452,-0.007733935955911875,-0.0034058131277561188,-0.0066243948054182334,-0.8000031988020682,0.34259402534745753,-0.7153228852504022,0.40322328396874113,0.5298961364776492,0.28144286195613577,-0.8407214309780678,0.4231405309601512,0.0006232261657714844,0.0009288787841796875,0
0.22051358222961426,0.009179134853184223,-0.0077102528885006905,-0.0033761775121092796,-0.006600950429665774,-0.8067948786924457,0.3415949613371014,-0.7407260196752816,0.43271077601968877,0.5284830040472466,0.28408751192757115,-0.8420437559637856,0.42747172970948794,0.000995635986328125,0.0014424324035644531,0
0.23058271408081055,0.009158290922641754,-0.007686989847570658,-0.003343527438119054,-0.006582950912740822,-0.8121959822070605,0.33762995908092674,-0.7585082137726972,0.45692908513785024,0.5270942016996945,0.28665607011637095,-0.8433280350581854,0.4316894777963873,0.0009922981262207031,0.0014107227325439453,0
0.2401895523071289,0.009124254807829857,-0.007642786018550396,-0.003286681603640318,-0.006564321660260149,-0.8164387196344158,0.3323115396097054,-0.7709557496408881,0.47722815794007767,0.5257575243627965,0.2891003728394401,-0.84455018641972,0.43571358078252426,0.000835418701171875,0.0012059211730957031,0
0.25054001808166504,0.009126583114266396,-0.0076229204423725605,-0.003314031520858407,-0.006528199604526666,-0.8196062258671669,0.32649197450732764,-0.7796690247486217,0.49442154166235275,0.5243046959578734,0.2917269027644207,-0.8458634513822103,0.4400491737476596,0.0009162425994873047,0.001317739486694336,0
0.26052403450012207,0.009160652756690979,-0.007600792217999697,-0.0034549706615507603,-0.006461169006619669,-0.82178463243143,0.3203943837816844,-0.7857683173240352,0.5090870874795391,0.5228908706198009,0.2942535257604684,-0.8471267628802341,0.4442312687654656,0.0009615421295166016,0.0013744831085205078,0
0.2704446315765381,0.009233647026121616,-0.00756964273750782,-0.003747927490621805,-0.006338039085113493,-0.8231085529887306,0.31405531701443223,-0.7859658769782105,0.5217498113074286,0.5214739660232244,0.29675731290064117,-0.8483786564503205,0.4483867987513979,0.0008802413940429688,0.001268625259399414,0
0.2805016040802002,0.009506775997579098,-0.007478083949536085,-0.004862966015934944,-0.00595159511877393,-0.8233087270161364,0.30550312179345457,-0.7726931791439138,0.5327495546857025,0.5200253465480561,0.2992885546551591,-0.8496442773275795,0.4525994535427125,0.0009038448333740234,0.0012941360473632812,0
0.29045915603637695,0.009703423827886581,-0.007421760819852352,-0.0057078152894973755,-0.005662263909818094,-0.8227129197867417,0.2972816708462921,-0.7558300726379871,0.5424870513040895,0.5185789426335629,0.301787806673921,-0.8508939033369605,0.456770463152481,0.0009295940399169922,0.0013391971588134766,0
0.3004796504974365,0.009936867281794548,-0.0073618534952402115,-0.006753642577677965,-0.005282820179825624,-0.8215482482097952,0.289152558116286,-0.73586269355037,0.5511768122022636,0.5171112704641105,0.30429580010081236,-0.8521479000504062,0.4609678380570413,0.0009348392486572266,0.001355886459350586,0
0.3105134963989258,0.010204039514064789,-0.007300743833184242,-0.007980702444911003,-0.004785340532796199,-0.8199422442467416,0.28097041227506936,-0.713832059084572,0.5590158925733525,0.5156294892463636,0.3067999834086276,-0.8533999917043138,0.4651708055998907,0.000911712646484375,0.0012981891632080078,0
0.3202967643737793,0.010502933524549007,-0.007237748708575964,-0.009408232755959034,-0.004163878927824823,-0.8180135070622055,0.27244802203350793,-0.6900826747228819,0.5661047166790167,0.5141730363933896,0.3092346821525716,-0.8546173410762857,0.4692688113062774,0.00083160400390625,0.001196146011352539,0
0.33032894134521484,0.01118434313684702,-0.007086205296218395,-0.01285147201269865,-0.0022141840940001884,-0.8155974058854035,0.25843747534753964,-0.6539638394324789,0.5721741646782419,0.512667589773709,0.3117241447106978,-0.8558620723553488,0.47347107976934066,0.0006721019744873047,0.0009555816650390625,0
0.34039759635925293,0.011570572853088379,-0.006991594098508358,-0.014867228455841541,-0.0008908099836432012,-0.8128382493317061,0.24550978940330767,-0.6193515252262698,0.5778648809375821,0.5111445503268708,0.3142152903204123,-0.8571076451602061,0.4776886281191583,0.0007545948028564453,0.0010852813720703125,0
0.35030508041381836,0.011990658938884735,-0.006882768124341965,-0.017080431804060936,0.0006626686449671544,-0.8099355287591772,0.23248609087686317,-0.5842030585528231,0.5829546405553239,0.5096340745479103,0.3166592964997158,-0.8583296482498579,0.48183866533534236,0.0007712841033935547,0.0011250972747802734,0
0.3603360652923584,0.012945498339831829,-0.0066117169335484505,-0.022085392847657204,0.004472826490464007,-0.8067412181099689,0.21431724501132243,-0.5356670271485373,0.5868746861793496,0.5080928650384441,0.31912637073270117,-0.8595631853663506,0.4860404344557013,0.0007987022399902344,0.001218557357788086,0
0.37057018280029297,0.01348806731402874,-0.006446373648941517,-0.02487129718065262,0.006666085799549032,-0.8032955466872195,0.19869929966913033,-0.4916614630553861,0.5908132515405621,0.506508137578288,0.3216356736541735,-0.8608178368270867,0.49032729157288824,0.0007410049438476562,0.0010814666748046875,0
0.3802919387817383,0.014077708125114441,-0.006258455570787191,-0.027830516919493675,0.009036946207509396,-0.7998130021574332,0.18407301982059074,-0.44907984543545626,0.5942017345443235,0.5049912700006433,0.3240120633913765,-0.8620060316956882,0.4943995311957284,0.0007297992706298828,0.0010442733764648438,0
0.3904709815979004,0.014717268757522106,-0.006045460235327482,-0.03096761740744114,0.01160103305221932,-0.7963519881659721,0.17054915696710807,-0.4080300660535325,0.5974035923094391,0.503391105141552,0.32649256540443133,-0.8632462827022156,0.4986633186799725,0.0007464885711669922,0.0010728836059570312,0
0.400144100189209,0.016165468841791153,-0.005531158298254013,-0.037758298218250275,0.01724447000687922,-0.7927338288259831,0.15304945689917365,-0.3543221021736374,0.5991133804423572,0.5018591812036939,0.32884245808830387,-0.8644212290441519,0.5027151851204735,0.0007154941558837891,0.001058340072631836,0
0.41054844856262207,0.016979901120066643,-0.005223636049777269,-0.041401930153369904,0.02029139395989457,-0.7889924191771337,0.13846793571026322,-0.30720041995641784,0.6013241449457141,0.5001992092522638,0.3313619638151157,-0.8656809819075578,0.5070733483758473,0.0009722709655761719,0.0014650821685791016,0
0.42063283920288086,0.01785792037844658,-0.0048789759166538715,-0.04520183801651001,0.023461223911244375,-0.7853290917821741,0.1252766303000525,-0.26268108433279264,0.6030917778366897,0.49857821366979216,0.33379599286665956,-0.8668979964333298,0.5112974880493629,0.0012583732604980469,0.0019025802612304688,0
0.4305241107940674,0.01880364865064621,-0.004497806075960398,-0.04915213584899902,0.026790019526184188,-0.7817848588212282,0.11360035363004532,-0.22077799757635977,0.6047896298398342,0.49697675427274063,0.3361757066067266,-0.8680878533033632,0.5154407342047673,0.0010564327239990234,0.001499176025390625,0
0.4405171871185303,0.01982054114341736,-0.0040787868201732635,-0.053247787058353424,0.030216760100955312,-0.7783835745460179,0.10326171749888739,-0.1807072512381379,0.6062872000747352,0.49534727793777494,0.3385721108414524,-0.8692860554207261,0.5196266242271266,0.0009851455688476562,0.0013916492462158203,0
0.4503018856048584,0.020912915468215942,-0.003620232455432415,-0.05748169124126434,0.03375721300325846,-0.7751323064728105,0.09402369548953092,-0.14205627943612337,0.6076148953869094,0.4937405831866045,0.340910892337795,-0.8704554461688975,0.5237252291447585,0.001010894775390625,0.0014562606811523438,0
0.4604034423828125,0.023336784914135933,-0.002574425656348467,-0.06632476300001144,0.04113658551613898,-0.7717891648347291,0.08175979119395217,-0.09166195466255987,0.6074232383657702,0.4920702745471324,0.34331741130782994,-0.8716587056539149,0.5279565593532173,0.00087738037109375,0.0012619495391845703,0
0.4706861972808838,0.024672353640198708,-0.0019861217588186264,-0.0709308534860611,0.04496812754515525,-0.768447427661894,0.0720883353569769,-0.04776988672179878,0.6079992063728046,0.4903579578661657,0.3457586920922215,-0.8728793460461107,0.5322637896527433,0.0009324550628662109,0.0013318061828613281,0
0.48027825355529785,0.027048148214817047,-0.0007296145777218044,-0.07936226576566696,0.052902354931669726,-0.765040471289606,0.06067257776063032,0.00522779800003937,0.6066651008908276,0.4887497389548471,0.34802829291821774,-0.8740141464591088,0.5362817007893459,0.0007786750793457031,0.0011479854583740234,0
0.49050211906433105,0.028102684766054153,-5.7170655054505914e-05,-0.08320213854312897,0.05700393413050627,-0.7617227645806025,0.05185914323537159,0.04987494464838255,0.6064676476189956,0.48702402544035167,0.3504391511288025,-0.8752195755644012,0.540564263559275,0.00091552734375,0.001321554183959961,0
0.5007188320159912,0.029256334528326988,0.0006646268884651363,-0.08716454356908798,0.06117278747082264,-0.7586242404120632,0.04467963329251917,0.09055283978571677,0.6059730861457859,0.4852876397493947,0.3528397748362019,-0.8764198874181008,0.5448438302729778,0.0013799667358398438,0.002103567123413086,0
0.5104739665985107,0.030510229989886284,0.0014375727623701096,-0.09124504774808884,0.06540122733385263,-0.7557573145260335,0.03875961632866974,0.12780028528354404,0.6056775989143252,0.4836186580557668,0.35512391299423823,-0.8775619564971191,0.548930051491541,0.0010514259338378906,0.001628875732421875,0
0.5204408168792725,0.03333131596446037,0.0031406020279973745,-0.09976066648960114,0.07406893491226119,-0.752891860328995,0.03138401079555461,0.1727411547081116,0.6037161923238431,0.48190235138385407,0.35744947017825107,-0.8787247350891255,0.5531049559744037,0.0011556148529052734,0.0016591548919677734,0
0.5305643081665039,0.0348980687558651,0.0040708198212087154,-0.10418242961168289,0.07851261566174993,-0.7501637680931099,0.02612738889192058,0.21090482062921823,0.6028501598230139,0.48014762339191225,0.35980308468813654,-0.8799015423440683,0.5573454740886232,0.0011277198791503906,0.0016078948974609375,0
0.5404126644134521,0.03656821325421333,0.005053748842328787,-0.10869530588388443,0.08301169700011554,-0.747650787468646,0.022066367352934248,0.24601857374921784,0.6017203508648384,0.47842955422617345,0.3620844675527313,-0.8810422337763656,0.5614707439066696,0.0009367465972900391,0.001354217529296875,0
0.5504498481750488,0.0383421964943409,0.0060899038799107075,-0.11329416185617447,0.08753926341395178,-0.7453456645146267,0.01906046533304193,0.2781828533653088,0.6009005898821654,0.4766673904521235,0.36440115104039245,-0.8822005755201962,0.5656751096090913,0.0008647441864013672,0.0012595653533935547,0
0.5600919723510742,0.042195867747068405,0.008322378620505333,-0.12272936850786209,0.09676110935774454,-0.7429865934680276,0.01492222114585241,0.3160953248025963,0.5982746330211578,0.47496401994645066,0.3666185753017808,-0.8833092876508903,0.5697139931392782,0.0005242824554443359,0.0008656978607177734,0
0.5702090263366699,0.044273510575294495,0.009517880156636238,-0.12755738198757172,0.10145057744879725,-0.7407596629375665,0.012307042978034357,0.34821975170009795,0.5968992524284328,0.47316565949287825,0.36893665943718523,-0.8844683297185926,0.573951814802894,0.0005233287811279297,0.0007486343383789062,0
0.5802671909332275,0.0464501827955246,0.010768337175250053,-0.13245265185832977,0.1061731429987421,-0.738720934003315,0.010569076139944046,0.37748926573544983,0.5953078219505655,0.4713665520383004,0.37123250614611353,-0.8856162530730567,0.578164968936913,0.0005502700805664062,0.0008044242858886719,0
0.5901839733123779,0.04872637987136841,0.012073127552866936,-0.13741138577461243,0.1109117205773568,-0.7368566762382364,0.009672689176414654,0.40414558249441584,0.5940501577088685,0.46958182767917456,0.37348749257971947,-0.8867437462898597,0.5823189010261914,0.0005197525024414062,0.0007565021514892578,0
0.6004006862640381,0.053579289466142654,0.014845208264887333,-0.14752790331840515,0.12048264772216118,-0.7349127590891639,0.007836749487484312,0.43469828984141495,0.5910686870679878,0.4677318432760519,0.375801706735862,-0.8879008533679309,0.5865984677398942,0.0006933212280273438,0.001035928726196289,0
0.6103770732879639,0.056150760501623154,0.016312718391418457,-0.15266448259353638,0.12533122816659087,-0.7330932102166344,0.007273207558129538,0.46031076134784343,0.5893339342315489,0.4659143697433741,0.3780526419252144,-0.8890263209626071,0.5907773669643921,0.0010554790496826172,0.0016329288482666016,0
0.620476245880127,0.05881724879145622,0.017832957208156586,-0.1578473299741745,0.13022035726537323,-0.7314457902959687,0.00748641448419674,0.4833925002181191,0.5874361312625436,0.46406349440998074,0.38032232797457177,-0.8901611639872858,0.5950076984874421,0.0010080337524414062,0.0014657974243164062,0
0.6305832862854004,0.06157713383436203,0.019405074417591095,-0.16307343542575836,0.13513687081839515,-0.7299488941151041,0.00838384137675689,0.5039978212409303,0.5859086613725312,0.4622001076411687,0.38258471022309826,-0.891292355111549,0.599241325672341,0.0009720325469970703,0.001402139663696289,0
0.6402003765106201,0.06736575812101364,0.02270643226802349,-0.17364439368247986,0.14499716631442464,-0.7283646708332017,0.008207551673412394,0.526367545505733,0.5825228952376197,0.4604168096512174,0.3847289453506125,-0.8923644726753062,0.6032697230057359,0.0008292198181152344,0.0012314319610595703,0
0.6502161026000977,0.07038985937833786,0.02443663589656353,-0.17898030579090118,0.14992555247137684,-0.7269040547813246,0.009028023469941698,0.5448618849897595,0.5805284086631005,0.45854901867535075,0.3869532238809657,-0.8934766119404828,0.6074651005394786,0.0009777545928955078,0.001386880874633789,0
0.6603925228118896,0.0734989270567894,0.026217300444841385,-0.18434718251228333,0.1548738504709748,-0.7255866372351379,0.010447657858005057,0.5611080748661983,0.5783881679458267,0.45664025537286435,0.3892039017957106,-0.8946019508978553,0.6117277894697729,0.0007586479187011719,0.0010831356048583984,0
0.6702566146850586,0.07668864727020264,0.028047053143382072,-0.18977025151252747,0.15983839732115537,-0.7243963823049536,0.012152443089478746,0.5752806283140659,0.5766287818478804,0.45477953075096983,0.3913765174482594,-0.8956882587241297,0.6158596506115173,0.0007436275482177734,0.001069784164428711,0
0.6803278923034668,0.0833049863576889,0.03185576945543289,-0.2006911188364029,0.16976500929047425,-0.7231159916920209,0.013128864832708496,0.5894497578241233,0.5731233936088745,0.45286905892613594,0.39358558849042724,-0.8967927942452136,0.6200782975152844,0.0008034706115722656,0.0011601448059082031,0
0.6902761459350586,0.08672775328159332,0.03383434936404228,-0.20618543028831482,0.17471252811351093,-0.7219261735025783,0.01470651719485094,0.6008526411958889,0.5709881115987517,0.4509713894246115,0.3957585197066961,-0.897879259853348,0.6242454122519587,0.0006926059722900391,0.0009694099426269531,0
0.7001669406890869,0.09022516012191772,0.03586234524846077,-0.21170203387737274,0.17964620666012798,-0.7208456211064252,0.016531682438162845,0.6105749803129551,0.5687173291269761,0.4490743445725935,0.3979098302966333,-0.8989549151483166,0.6283884586702814,0.0004961490631103516,0.0007178783416748047,0
0.7101619243621826,0.09379521012306213,0.03793974965810776,-0.2172374278306961,0.18460827422760168,-0.7198726889536214,0.01854732600073582,0.6185930387611618,0.5668844833343782,0.4471468913242439,0.40007456502390254,-0.9000372825119513,0.6325751476409677,0.0005686283111572266,0.0008225440979003906,0
0.720067024230957,0.10113933682441711,0.04223289713263512,-0.22835122048854828,0.19453217416622418,-0.718821627548684,0.01966021582058599,0.6250707145822003,0.5632826387195093,0.44522647679886224,0.40221062188519113,-0.9011053109425955,0.636724186171743,0.0005204677581787109,0.0007693767547607422,0
0.7302348613739014,0.10490836203098297,0.04444754496216774,-0.23392826318740845,0.19948049648040544,-0.7178456629479508,0.02145938579700585,0.6298364769984367,0.5611220510229349,0.44324450921266134,0.4043937500170186,-0.9021968750085092,0.6409832798345658,0.0005545616149902344,0.0007870197296142578,0
0.7403225898742676,0.10874058306217194,0.04670656844973564,-0.23952718079090118,0.20441112594445754,-0.7169679729655418,0.023439703056690585,0.63310642809301,0.5588407587199993,0.44126757821366047,0.4065500269554179,-0.9032750134777089,0.6452088176676537,0.0009028911590576172,0.0014927387237548828,0
0.7508370876312256,0.11262919008731842,0.04900948703289032,-0.24513472616672516,0.2093123147119653,-0.716174852448494,0.0255793689675449,0.6350984894349708,0.5570997954834974,0.43919584761286623,0.4087872398199532,-0.9043936199099766,0.6496131201889132,0.001947641372680664,0.003032207489013672,0
0.760547399520874,0.11657331883907318,0.05135504528880119,-0.2507503032684326,0.21420175236899816,-0.715446258585149,0.027786469205940852,0.6359724795244226,0.5553837411215595,0.43727249468666496,0.4108439672071388,-0.9054219836035693,0.6536805661217913,0.0014624595642089844,0.0021924972534179688,0
0.7708308696746826,0.1205696389079094,0.053742434829473495,-0.25637248158454895,0.21909198394418308,-0.7147689642793581,0.030068765704308616,0.6357674234274657,0.5539552955437894,0.4352251143979824,0.4130122271764641,-0.906506113588232,0.6579880960269398,0.0016775131225585938,0.0024976730346679688,0
0.780186653137207,0.12870322167873383,0.058637119829654694,-0.2676352262496948,0.22881801152125236,-0.7140146033535772,0.03089459332687184,0.6320634705263533,0.5506770168196844,0.43335308960641566,0.4149760230767241,-0.907488011538362,0.6619070374395323,0.0007765293121337891,0.0011336803436279297,0
0.7903966903686523,0.13283351063728333,0.06114322692155838,-0.27327093482017517,0.23367119881191603,-0.7132855397123699,0.03211714235801837,0.6279577846020237,0.5488134997493882,0.4313000247709889,0.4171094444298095,-0.9085547222149047,0.6661838078340905,0.0007536411285400391,0.0011217594146728516,0
0.8002290725708008,0.14120617508888245,0.06627058237791061,-0.2845492362976074,0.24334039822643633,-0.7125031247614293,0.032079725945714906,0.6201924971402998,0.5449324547627917,0.4293129720678998,0.41915435344778024,-0.90957717672389,0.670302386459898,0.0006701946258544922,0.0010218620300292969,0
0.8105044364929199,0.14544296264648438,0.06888958066701889,-0.29023849964141846,0.24815567741964975,-0.7117427224089746,0.032821467494049045,0.6126956070048145,0.5427301220189158,0.42722603630669026,0.42128127646701147,-0.9106406382335057,0.6746065208346569,0.0005154609680175781,0.0007548332214355469,0
0.8203012943267822,0.14970789849758148,0.07154348492622375,-0.2959281802177429,0.25296656784375815,-0.7110313909421933,0.03354339929753643,0.6046400014812091,0.5403357573787643,0.4252264722654385,0.423299477066403,-0.9116497385332014,0.6787102190478737,0.0007278919219970703,0.0010998249053955078,0
0.8302617073059082,0.15399836003780365,0.07423115521669388,-0.3016171157360077,0.2577568700277789,-0.7103648345658715,0.03442494414510752,0.5961799846443252,0.5384951139257845,0.42318375257657187,0.4253416409842925,-0.9126708204921462,0.6828824270801326,0.0007998943328857422,0.0011298656463623047,0
0.8403842449188232,0.1583123356103897,0.07695084810256958,-0.3073047399520874,0.26254325444463344,-0.7097353767699818,0.03547608235906439,0.5873029267848475,0.5368080581104501,0.4210977358141252,0.42740694530180157,-0.9137034726509008,0.6871225457201886,0.0008192062377929688,0.001172780990600586,0
0.850287675857544,0.16699136793613434,0.08248018473386765,-0.31867095828056335,0.2720268043275446,-0.7090823908778061,0.03477102465989052,0.5733550911554861,0.5335726411787305,0.41904711694691366,0.4294176449314579,-0.9147088224657289,0.6912708851711779,0.0008778572082519531,0.001317739486694336,0
0.8604848384857178,0.1713481992483139,0.08528929948806763,-0.3243465721607208,0.27674145683018125,-0.708424748102726,0.0346351620201882,0.5605278780724284,0.5316835581862838,0.41692564592111614,0.4314777002039157,-0.9157388501019578,0.6955422626645287,0.0013089179992675781,0.001966714859008789,0
0.8706784248352051,0.17571574449539185,0.08812719583511353,-0.33001646399497986,0.2814514498671749,-0.7077970381343439,0.03459354543655295,0.5477301363026871,0.5297249290996053,0.4147947970424032,0.4335265578330254,-0.9167632789165127,0.6998121421297663,0.0009002685546875,0.0012962818145751953,0
0.8802411556243896,0.18327666819095612,0.09314218908548355,-0.3412528336048126,0.2907883189670581,-0.7071586773374196,0.0327185105895631,0.5289676870992959,0.5263789574628212,0.4127866670990044,0.4354390513783711,-0.9177195256891855,0.7038177694358408,0.0007419586181640625,0.0010938644409179688,0
0.8903999328613281,0.1864890158176422,0.09533219784498215,-0.34681981801986694,0.2954167860602442,-0.7065161067458698,0.03164285861676687,0.5112987010422011,0.5243824737688118,0.41064371170880204,0.43746056054691174,-0.9187302802734558,0.7080730680941104,0.0008776187896728516,0.0012624263763427734,0
0.9005200862884521,0.18972112238407135,0.09756302088499069,-0.3523781895637512,0.30000979312078246,-0.7059068585126058,0.030661374092231127,0.49366267215708576,0.5223798797073715,0.4084990605269035,0.43946389788995993,-0.9197319489449799,0.7123121880487576,0.0008933544158935547,0.0013003349304199219,0
0.9104304313659668,0.19297228753566742,0.09983164817094803,-0.35792747139930725,0.30460286330617714,-0.7053247543528605,0.02996277895042126,0.4760576593421524,0.5208145113717091,0.4063893999513846,0.4414155135551463,-0.9207077567775731,0.7164634236874322,0.0009524822235107422,0.0015816688537597656,0
0.9205417633056641,0.1995117962360382,0.10447204113006592,-0.36900240182876587,0.31379525808305786,-0.704754665981851,0.02731581989712797,0.45203565110117616,0.5177068648480432,0.40422734538336075,0.44339627112135394,-0.9216981355606769,0.720698848506067,0.0010631084442138672,0.001531362533569336,0
0.9302217960357666,0.20278942584991455,0.10684223473072052,-0.3745240271091461,0.3183655293144139,-0.7041580101281165,0.025357426556480364,0.43034583195120596,0.515877974852085,0.402148467389754,0.44528261831793065,-0.9226413091589653,0.7247536111342535,0.0010046958923339844,0.0014581680297851562,0
0.9404659271240234,0.20606762170791626,0.10924477875232697,-0.3800342082977295,0.32291093104312746,-0.7035700733633911,0.02342810710936717,0.4092974714543298,0.5140548501868064,0.39993885791287576,0.44726827512282213,-0.923634137561411,0.7290446627301573,0.0008668899536132812,0.0012395381927490234,0
0.9504764080047607,0.2093459665775299,0.11167873442173004,-0.38553372025489807,0.3274569862052652,-0.70299552163985,0.021777049562590915,0.38894781472285045,0.5126443134443333,0.3977701738457269,0.4491980507512697,-0.9245990253756348,0.7332378431560007,0.0009074211120605469,0.0012998580932617188,0
0.9599494934082031,0.2126205712556839,0.11413886398077011,-0.3910282254219055,0.3319570153949859,-0.7024414555718029,0.020203269819542197,0.3690230471348387,0.5113130209553908,0.3957093360160882,0.4510145467606412,-0.9255072733803206,0.7372059198907052,0.000476837158203125,0.0006952285766601562,0
0.9704141616821289,0.2158869355916977,0.11662594974040985,-0.3965079188346863,0.3364653458404526,-0.7019158023346296,0.018715225656385046,0.34957349336493354,0.5103065612422908,0.39342314124996736,0.45301018965251566,-0.9265050948262578,0.741589349886921,0.0008804798126220703,0.0013427734375,0
0.9806098937988281,0.22238311171531677,0.12168353796005249,-0.4074191451072693,0.3453680308329072,-0.7014141606586505,0.014507898245821823,0.3245321435841756,0.5077514116830499,0.3911860202959499,0.45494340035329306,-0.9274717001766465,0.7458601281690267,0.0011301040649414062,0.0016527175903320312,0
0.9904134273529053,0.22560915350914001,0.12425169348716736,-0.41285064816474915,0.34979783714029883,-0.7008846048518639,0.011234507373657734,0.30229515237385235,0.506383552247809,0.3890259956395969,0.4567918286447562,-0.9283959143223781,0.7499666227013879,0.0011076927185058594,0.0016531944274902344,0
1.0005669593811035,0.2319965809583664,0.12945622205734253,-0.4236583113670349,0.35862437996278884,-0.7003698134526931,0.005610607392032133,0.27514698389420056,0.5032954856640847,0.38677964864694137,0.4586954364200156,-0.9293477182100077,0.7542197242517581,0.0012271404266357422,0.0019068717956542969,0
1.0104827880859375,0.23515067994594574,0.13209201395511627,-0.4290337562561035,0.3629880420671764,-0.6998237476364558,0.001139483512827973,0.25155459239604505,0.5016571014498676,0.3845769000715675,0.46054381760191243,-0.9302719088009561,0.758373256866873,0.0012292861938476562,0.0017445087432861328,0
1.0203282833099365,0.23827596008777618,0.13474752008914948,-0.4343889057636261,0.3673746330091214,-0.6992889619775075,-0.0029303158763222086,0.22948086313197308,0.4999044423763081,0.38238103623855985,0.4623686225568568,-0.9311843112784284,0.7624973282624288,0.0011420249938964844,0.0017254352569580078,0
1.0310487747192383,0.24136985838413239,0.13741958141326904,-0.43972092866897583,0.37174065548202617,-0.6987810149549556,-0.006448775986940641,0.20887473455593114,0.4987642357265534,0.3799801746652837,0.46434369475781667,-0.9321718473789082,0.7669879172030067,0.001590728759765625,0.0022177696228027344,0
1.040259838104248,0.24745525419712067,0.142815962433815,-0.4503189027309418,0.3804258873988436,-0.6982971359569905,-0.012827530420751423,0.18401489312118582,0.4959416562177905,0.3779092000785913,0.466030724841141,-0.9330153624205705,0.7708462384112863,0.0009415149688720703,0.0013720989227294922,0
1.0505149364471436,0.2504425346851349,0.14554007351398468,-0.455584853887558,0.3847383565116048,-0.6978016576219503,-0.017784549221794628,0.16252405127187422,0.4945483570791878,0.37559467963596876,0.46789810496426887,-0.9339490524821343,0.7751418839600706,0.0009145736694335938,0.0013384819030761719,0
1.0604074001312256,0.25339165329933167,0.14827851951122284,-0.46082690358161926,0.3890295313888593,-0.6973279424533575,-0.02237649716714357,0.14259663231801495,0.49301753694501027,0.37335325967998506,0.46968856009735815,-0.934844280048679,0.7792856294581794,0.0009245872497558594,0.00131988525390625,0
1.0703675746917725,0.25630006194114685,0.1510300189256668,-0.4660440981388092,0.39332063515677784,-0.6968850114465545,-0.026496470286019272,0.12398854459183406,0.49194947579254344,0.37108787523048414,0.4714804225595423,-0.9357402112797711,0.7834577376218975,0.0008893013000488281,0.0012471675872802734,0
1.0804264545440674,0.2619864046573639,0.15656915307044983,-0.47640156745910645,0.4018686742759906,-0.6964703961364258,-0.03302191593175205,0.10181228253916703,0.4894144030212772,0.36879131305841556,0.4732789530632539,-0.9366394765316269,0.7876711913615391,0.0008614063262939453,0.0012395381927490234,0
1.0904502868652344,0.26476043462753296,0.15935544669628143,-0.4815400540828705,0.40608841631188686,-0.6960559367321417,-0.038150175285916486,0.08278894610395802,0.488145436904801,0.3664940813962212,0.4750600891482466,-0.9375300445741233,0.7918699644256716,0.0009045600891113281,0.0012929439544677734,0
1.1003880500793457,0.26748743653297424,0.16215115785598755,-0.48667171597480774,0.41028708036401873,-0.695660090940025,-0.042918848945595174,0.0652854757414785,0.4868005170308896,0.3642080829708176,0.4768149245763203,-0.9384074622881601,0.7960326849465472,0.0009152889251708984,0.001336812973022461,0
1.1105139255523682,0.27016645669937134,0.16495555639266968,-0.49177584052085876,0.41445122897440057,-0.6952907625843813,-0.047130374057199095,0.04928229735927086,0.48591469772814666,0.36187017075244376,0.47859166260978386,-0.9392958313048919,0.8002742017461756,0.0009729862213134766,0.001383066177368164,0
1.1202189922332764,0.27538013458251953,0.1705906242132187,-0.501899242401123,0.42270259860912657,-0.6949300966318315,-0.053786547688113744,0.030661271438718572,0.48356413697045086,0.3596212816078817,0.4802838054886971,-0.9401419027443485,0.8043394505711542,0.0007755756378173828,0.0011134147644042969,0
1.1301181316375732,0.2779092490673065,0.1734197735786438,-0.506917417049408,0.42681792146159736,-0.6945776261193901,-0.059048456118548455,0.014881652352722024,0.482443132241024,0.35731927021099635,0.4819988995172924,-0.9409994497586461,0.8084859923884076,0.0005764961242675781,0.00081634521484375,0
1.140298843383789,0.28038641810417175,0.17625580728054047,-0.511904239654541,0.4309489174762849,-0.694254325338894,-0.06378478039192902,0.0006607298562351354,0.4812780997161736,0.3549432489072097,0.48375126878923486,-0.9418756343946174,0.8127504789524379,0.0005576610565185547,0.0008099079132080078,0
1.1502108573913574,0.28281107544898987,0.1790982335805893,-0.5168589949607849,0.4350318749728166,-0.6939633321986294,-0.06801344697293092,-0.012138727652431605,0.4805039078338283,0.35262168041781666,0.4854461355282531,-0.9427230677641265,0.8169024136708987,0.0006253719329833984,0.0009312629699707031,0
1.1604504585266113,0.2874976098537445,0.18480603396892548,-0.5266712307929993,0.4431353188353591,-0.6936886668746626,-0.07449921200520437,-0.026587377833551053,0.47839478295937776,0.35021488732783596,0.48718531658286984,-0.9435926582914349,0.8211915677645257,0.0008537769317626953,0.0012192726135253906,0
1.170522928237915,0.2897595167160034,0.1876697838306427,-0.5315350890159607,0.44717227203517146,-0.6934270388914792,-0.07950446223680677,-0.0385551053823993,0.4774539508539795,0.34783900888267844,0.48888446886715065,-0.9444422344335752,0.8254107140109974,0.0008649826049804688,0.0012497901916503906,0
1.180288314819336,0.29196667671203613,0.19053757190704346,-0.5363647937774658,0.4511840161405856,-0.6931944362582879,-0.08394238127518794,-0.049259761322060454,0.4764160095972702,0.3455276936374431,0.49052075687945074,-0.9452603784397253,0.8295012295768183,0.0008995532989501953,0.0012695789337158203,0
1.1904606819152832,0.2941165566444397,0.19340749084949493,-0.5411584973335266,0.4551741377870008,-0.6929968892642702,-0.08773680669257813,-0.058845403071497326,0.4758250033075026,0.343111868103828,0.4922136182251577,-0.9461068091125788,0.8337622207419177,0.0009069442749023438,0.0012843608856201172,0
1.2002065181732178,0.29620879888534546,0.19627927243709564,-0.5459158420562744,0.4591511101772369,-0.6928267674949206,-0.09115494674147875,-0.0673784888717862,0.4752944156439946,0.34078955877593337,0.49382433782601753,-0.9469121689130087,0.8378445470873865,0.0007483959197998047,0.0010907649993896484,0
1.210430383682251,0.30022355914115906,0.2020295113325119,-0.555322527885437,0.4670967877884974,-0.6926695444480512,-0.09640136112992358,-0.07687764053782538,0.4735282121397466,0.3383452153219113,0.495502285836069,-0.9477511429180344,0.8421271098573158,0.0008394718170166016,0.0012106895446777344,0
1.2205069065093994,0.3021464943885803,0.20490670204162598,-0.5599716305732727,0.47101725240200254,-0.6925237369005494,-0.10031973505712491,-0.08463420477825015,0.4728369270498618,0.33592801475647655,0.4971442133845797,-0.9485721066922899,0.8463479538689823,0.0009019374847412109,0.0013053417205810547,0
1.230334758758545,0.30401167273521423,0.2077862173318863,-0.5645859241485596,0.47493473463486374,-0.6923904387478768,-0.1037192525389021,-0.09139569629885357,0.47205150641768195,0.3335627906226935,0.49873426262088827,-0.9493671313104441,0.8504646349925131,0.0008332729339599609,0.0011954307556152344,0
1.2404556274414062,0.3058191239833832,0.21066631376743317,-0.5691647529602051,0.478848516333122,-0.6922790112615348,-0.10659475939962389,-0.09716839249084973,0.4716567645630431,0.33111918214629465,0.5003599576452625,-0.9501799788226313,0.8547040545527831,0.0008974075317382812,0.0012898445129394531,0
1.250307321548462,0.3092604875564575,0.21642810106277466,-0.5782336592674255,0.4866557204437152,-0.6921706178700083,-0.11116301304250059,-0.10342385251810599,0.4698634970127034,0.32873295360571014,0.5019309167740775,-0.9509654583870387,0.8588307225304017,0.0009167194366455078,0.0013053417205810547,0
1.2604742050170898,0.3108954429626465,0.21930773556232452,-0.5827119946479797,0.49054206149054197,-0.6920781075944631,-0.11440189459575303,-0.10832118458889027,0.4692373484205663,0.3262625674700287,0.5035402040233381,-0.951770102011669,0.863089416719061,0.0009396076202392578,0.0013468265533447266,0
1.2706468105316162,0.31247320771217346,0.22218526899814606,-0.587152361869812,0.4943782888490579,-0.6920036493790067,-0.11701650921465029,-0.11230784868921291,0.46854984978923225,0.3237829063460829,0.5051382281693633,-0.9525691140846816,0.8673505077527014,0.0009188652038574219,0.0013172626495361328,0
1.2802619934082031,0.3166610598564148,0.22806210815906525,-0.5964524149894714,0.502035504868732,-0.6919108166957643,-0.12037896094453804,-0.11521337756451426,0.46672900296386294,0.3214319254996105,0.5066374613760937,-0.9533187306880468,0.8713781061377691,0.0007636547088623047,0.0011327266693115234,0
1.2905011177062988,0.3192482590675354,0.23105821013450623,-0.6012990474700928,0.5057174367430389,-0.6918102943794706,-0.12212463504322704,-0.11655771228561107,0.4660787108351789,0.31892075554835597,0.5082219511989479,-0.9541109755994739,0.8756670604943145,0.0009357929229736328,0.0013499259948730469,0
1.3004982471466064,0.3217576742172241,0.2340490072965622,-0.6060966849327087,0.509382309034928,-0.6917145371253879,-0.12300657937897812,-0.11667688343098193,0.46540982327015706,0.31646139913421195,0.5097569841189201,-0.95487849205946,0.8798546482818687,0.0009260177612304688,0.0013494491577148438,0
1.3102996349334717,0.32419252395629883,0.23703330755233765,-0.6108435988426208,0.5130092529613959,-0.691627159350902,-0.1231932112733035,-0.11585518760557004,0.4651275866337349,0.3140430233189688,0.5112504078283768,-0.9556252039141884,0.8839602439973622,0.0010952949523925781,0.0016894340515136719,0
1.320568323135376,0.3265535533428192,0.24001145362854004,-0.6155495047569275,0.5166417422245972,-0.6915385559891938,-0.12277411092467037,-0.11425998699124018,0.46504552072943406,0.3115017880738756,0.5128027262279115,-0.9564013631139556,0.8882615820529763,0.0011963844299316406,0.0018346309661865234,0
1.3304145336151123,0.32884177565574646,0.24298304319381714,-0.620209276676178,0.5202828120125397,-0.6914541965700277,-0.12195610278066937,-0.11200175666580042,0.4650992740598802,0.30905789842720305,0.5142793165389413,-0.9571396582694707,0.8923859530541548,0.001577138900756836,0.0020623207092285156,0
1.340320110321045,0.3332061469554901,0.248911514878273,-0.6293854713439941,0.527534297234254,-0.6913442093920547,-0.1217294195027229,-0.10828460596133402,0.4639260662028032,0.3065922111738541,0.5157530572352691,-0.9578765286176345,0.8965351913220119,0.0008921623229980469,0.0012831687927246094,0
1.3504729270935059,0.3352830410003662,0.2518661916255951,-0.6339033842086792,0.5311325509498308,-0.6912452941592058,-0.12069048567930374,-0.10453433011641312,0.4637796340089409,0.3040576889734084,0.5172513139433771,-0.9586256569716884,0.9007879932667594,0.0008711814880371094,0.0012607574462890625,0
1.360065221786499,0.3372909724712372,0.25481313467025757,-0.6383740305900574,0.534740735592704,-0.6911664210553201,-0.11932534503430788,-0.10042685541470953,0.4634714655330633,0.30165636661908163,0.5186554120783607,-0.9593277060391803,0.9048060042719029,0.0006136894226074219,0.0009150505065917969,0
1.3706367015838623,0.3392334282398224,0.2577536106109619,-0.64279705286026,0.5383392633266844,-0.6911065342988194,-0.11741646785485653,-0.09594710791549403,0.4636234834063267,0.29900240801271993,0.5201899268561386,-0.9600949634280693,0.9092341753744321,0.000949859619140625,0.0013380050659179688,0
1.3805480003356934,0.34292739629745483,0.263618528842926,-0.6515005230903625,0.5455496143076095,-0.6910448438149808,-0.1159824757221019,-0.0901039129933538,0.4624218324905459,0.2965070959969067,0.5216162785261605,-0.9608081392630803,0.9133858104872704,0.001004934310913086,0.002029895782470703,0
1.3902127742767334,0.34468066692352295,0.2665426731109619,-0.6558102369308472,0.5491199880311667,-0.6910007619773617,-0.11407557024710956,-0.08446833182533801,0.46223368513316604,0.29406729737791665,0.5229956258066103,-0.9614978129033052,0.9174341815288406,0.0008120536804199219,0.0011701583862304688,0
1.400352954864502,0.3463720977306366,0.26946064829826355,-0.6600723266601562,0.5527018174993424,-0.6909737295129814,-0.11183479296962334,-0.07881032472489422,0.46199688626481145,0.2915005891427761,0.5244305545345489,-0.9622152772672744,0.9216816904409216,0.0008649826049804688,0.0012202262878417969,0
1.4101665019989014,0.3495805859565735,0.27527347207069397,-0.6684579253196716,0.559863991708755,-0.6909382113667083,-0.10973953278347932,-0.07184160742398632,0.46070387682397984,0.2890098915459202,0.5258072675311891,-0.9629036337655945,0.9257923794519998,0.0008885860443115234,0.0013399124145507812,0
1.4204304218292236,0.3511006236076355,0.2781711518764496,-0.6725822687149048,0.563414961479029,-0.690915121428167,-0.1072459482733792,-0.06523835786203928,0.46044903782234003,0.2863979331097167,0.5272345056144203,-0.9636172528072101,0.9300917201367964,0.0012331008911132812,0.0019273757934570312,0
1.4306068420410156,0.3525649607181549,0.28106242418289185,-0.6766613125801086,0.5669849883005788,-0.690910667168546,-0.10440722652088892,-0.05884267911098997,0.4601670424947376,0.2838012831904319,0.5286367672225082,-0.9643183836112541,0.9343544090670909,0.0011947154998779297,0.0017173290252685547,0
1.4402635097503662,0.35532689094543457,0.28682130575180054,-0.6846808195114136,0.5740951381783508,-0.6909112584743826,-0.10200650653514803,-0.05155612800116157,0.4588297187892204,0.2813309055487472,0.5299555845381024,-0.9649777922690512,0.9383993845782715,0.0008969306945800781,0.0013072490692138672,0
1.4504790306091309,0.35662567615509033,0.28969046473503113,-0.6886222958564758,0.5776411647646675,-0.6909268278904857,-0.09912188648077357,-0.04497796843981694,0.45853782743303345,0.27871089209546307,0.5313381584521774,-0.9656690792260887,0.9426784519492698,0.0009307861328125,0.0013153553009033203,0
1.4605371952056885,0.3578714430332184,0.29255205392837524,-0.692546010017395,0.5812002319002774,-0.6909511440360645,-0.09613824250140032,-0.03866871649520875,0.4582129006329515,0.2761245979223895,0.5326867807841665,-0.9663433903920833,0.9468916060832888,0.0009310245513916016,0.0013349056243896484,0
1.4703524112701416,0.3590659499168396,0.29540589451789856,-0.6964264512062073,0.5847637795600453,-0.6909810205506921,-0.0929161903327415,-0.03262886904376562,0.45820243252444914,0.2735944825668961,0.5339906919684578,-0.9669953459842289,0.9510029941741531,0.0007779598236083984,0.0011105537414550781,0
1.480339527130127,0.3613067865371704,0.30108919739723206,-0.7040590047836304,0.5919353138790936,-0.6909997696145531,-0.08997865132942999,-0.02581918306873674,0.456964511675779,0.2710137362793389,0.5353051043544353,-0.9676525521772177,0.9551863874829905,0.0007867813110351562,0.0010974407196044922,0
1.4903411865234375,0.3623548448085785,0.30391767621040344,-0.7078105211257935,0.5955048901978295,-0.6910327950885604,-0.08658273763837313,-0.019726986408256028,0.4567600655164318,0.26842290349381925,0.5366089310475066,-0.9683044655237533,0.9593758727728213,0.0008664131164550781,0.0012514591217041016,0
1.5004277229309082,0.3633559048175812,0.3067370057106018,-0.7115178108215332,0.5990563187883353,-0.6910802732420298,-0.08312624218654947,-0.013916765289035283,0.4565078180538235,0.26580373181422395,0.5379111229131,-0.9689555614565499,0.9636009112632048,0.0009109973907470703,0.0013058185577392578,0
1.51047682762146,0.3643098473548889,0.3095478117465973,-0.7151826620101929,0.6026316735225278,-0.691134578793853,-0.0796368782055509,-0.008467898695280019,0.4565856902640266,0.2631879979814604,0.5391957693811319,-0.969597884690566,0.9678102703926705,0.0010006427764892578,0.001402139663696289,0
1.520284652709961,0.3652149438858032,0.312351793050766,-0.7188055515289307,0.6062056481626492,-0.6911988114550107,-0.07610400754846432,-0.0032581978589615607,0.45672506831330434,0.2606290808198301,0.5404373064759782,-0.9702186532379891,0.9719185625587675,0.0007615089416503906,0.0011174678802490234,0
1.5304255485534668,0.36689624190330505,0.31793248653411865,-0.7259536981582642,0.61342112092454,-0.6912706461500242,-0.07293215640629684,0.002394921233858604,0.45568826145152536,0.2579771060577725,0.5417082358152373,-0.9708541179076187,0.9761663710764712,0.0009136199951171875,0.0013206005096435547,0
1.5403766632080078,0.3676718473434448,0.32070937752723694,-0.7294797897338867,0.6170379791003168,-0.6913521057453944,-0.069593270670166,0.007428421480079908,0.45558094475665445,0.25536873666719034,0.5429427302515462,-0.971471365125773,0.980334684235636,0.000705718994140625,0.001046895980834961,0
1.550281286239624,0.368404358625412,0.32347577810287476,-0.7329627871513367,0.6206567940572237,-0.6914436915236006,-0.06616112628900575,0.012026506792973499,0.4553792364846046,0.25276668759906445,0.5441589856284622,-0.9720794928142311,0.9844835230293295,0.0008673667907714844,0.0012552738189697266,0
1.5603764057159424,0.36909615993499756,0.32623153924942017,-0.7364030480384827,0.6242746923608071,-0.6915399825443022,-0.06260660750182037,0.016348582656978604,0.45550010125249535,0.2501086327883451,0.5453858008829573,-0.9726929004414786,0.9887121567871846,0.0007703304290771484,0.0011072158813476562,0
1.5704238414764404,0.37036144733428955,0.3317120671272278,-0.743161141872406,0.6315097826041058,-0.6916349415465923,-0.05968375305894078,0.02076941268054743,0.45433689521865406,0.24745722096259604,0.5465939295248977,-0.9732969647624488,0.9929208168368641,0.0008223056793212891,0.0011920928955078125,0
1.580402135848999,0.3709346055984497,0.3344385027885437,-0.7464785575866699,0.6351186185653398,-0.6917362372240654,-0.05649161322140363,0.024760826524455073,0.454186171074681,0.24481827920887006,0.5477809874075658,-0.9738904937037829,0.997100515009689,0.0008687973022460938,0.0012557506561279297,0
1.5905394554138184,0.37146836519241333,0.33715590834617615,-0.7497544288635254,0.6387174264109832,-0.6918467741570882,-0.05327189942138286,0.02833809154326442,0.45396913493424457,0.24213144968775913,0.5489739165680863,-0.9744869582840431,1.0013468254992794,0.0009741783142089844,0.0014111995697021484,0
1.6003339290618896,0.37242037057876587,0.3425580859184265,-0.7561697959899902,0.645982633584479,-0.6919517782087894,-0.05068767136130516,0.03161367223970539,0.4526544475038832,0.2395299674787813,0.5501139833521903,-0.9750569916760952,1.0054495250270874,0.0008587837219238281,0.0012240409851074219,0
1.6104440689086914,0.37284088134765625,0.3452433943748474,-0.7593124508857727,0.6496189044941895,-0.692059874155116,-0.04785780149905916,0.03461957449589437,0.4523428224164403,0.23683901266945467,0.55127786285843,-0.9756389314292149,1.0096844505030178,0.0008499622344970703,0.0012278556823730469,0
1.6204664707183838,0.3732248842716217,0.3479192852973938,-0.7624163627624512,0.6532538497698995,-0.6921705978169128,-0.04504295088570147,0.03726683684123959,0.45198483223440183,0.23416582868784638,0.5524186498254147,-0.9762093249127073,1.013882624355905,0.0009148120880126953,0.0013127326965332031,0
1.6303820610046387,0.37357282638549805,0.3505849838256836,-0.7654831409454346,0.6568901942089863,-0.6922829610139547,-0.04225024688419687,0.039677863392786304,0.4519443492889669,0.23151572623559602,0.5535345233186495,-0.9767672616593247,1.018036057102479,0.0008800029754638672,0.0012624263763427734,0
1.6404409408569336,0.37388497591018677,0.3532412052154541,-0.768512487411499,0.6605155879738115,-0.6923960491205214,-0.03951711432326347,0.04181336456007226,0.4520254158052935,0.2288218945223498,0.5546535320244546,-0.9773267660122272,1.0222495108421206,0.0008542537689208984,0.001234292984008789,0
1.6501126289367676,0.3741602599620819,0.35588720440864563,-0.7715049386024475,0.6641600415594583,-0.6925124507113766,-0.03691399925183102,0.04360983609591156,0.4521921558582608,0.22622665431131475,0.5557171050805516,-0.9778585525402758,1.0263007780713764,0.0006413459777832031,0.0009441375732421875,0
1.6604526042938232,0.37460511922836304,0.36114662885665894,-0.7773764133453369,0.6714379756187487,-0.6926474863328455,-0.03495094648104736,0.04490904410059236,0.4511738839566229,0.22344662402517992,0.556840736846497,-0.9784203684232484,1.030631976820713,0.0007953643798828125,0.0011401176452636719,0
1.6705374717712402,0.3747754395008087,0.3637585937976837,-0.7802550792694092,0.675086940037691,-0.6927913676721352,-0.032761906704987874,0.04605427970683918,0.4510916281457095,0.2207298062758272,0.5579232497588139,-0.9789616248794069,1.0348563162313105,0.0008335113525390625,0.00119781494140625,0
1.680147409439087,0.37553974986076355,0.36933815479278564,-0.7863645553588867,0.6824183489308695,-0.6929368764769521,-0.03158149690964117,0.0469548778302959,0.44946672305912483,0.21813605202691064,0.5589424503525501,-0.9794712251762749,1.0388817175084788,0.0007276535034179688,0.0010600090026855469,0
1.6904630661010742,0.3761254847049713,0.37229856848716736,-0.7895600199699402,0.6860255572790259,-0.6930676102234391,-0.02989222494592202,0.04822335725895003,0.4491368455251196,0.21534658644937443,0.5600230778321569,-0.9800115389160784,1.043202729666646,0.0009241104125976562,0.0012896060943603516,0
1.7004821300506592,0.37666863203048706,0.37523940205574036,-0.7927086353302002,0.689625828080812,-0.6931861210641187,-0.028046589170270433,0.04955208899726499,0.4486763493363825,0.21263219769576922,0.5610593092562205,-0.9805296546281101,1.047399505359961,0.0009508132934570312,0.0013589859008789062,0
1.7103421688079834,0.37716883420944214,0.3781602680683136,-0.7958118915557861,0.6932071644371114,-0.6932893744008305,-0.026175121024937104,0.05078740442008794,0.4486055923048204,0.20995602414245626,0.5620662486987564,-0.9810331243493782,1.0515296687365103,0.0008628368377685547,0.0012598037719726562,0
1.7204506397247314,0.3780432641506195,0.3839394450187683,-0.801889181137085,0.700422213783089,-0.6933814782744243,-0.025061784651292048,0.05169827086570038,0.447301790967554,0.2072074726648619,0.5630853072775389,-0.9815426536387695,1.0557638951326547,0.0008766651153564453,0.001271963119506836,0
1.7303235530853271,0.37841829657554626,0.38679707050323486,-0.8048630952835083,0.7039986687409827,-0.6934640910308427,-0.023577460012125687,0.05265833036764374,0.4470303519780163,0.20451819575473487,0.5640676445296503,-0.982033822264825,1.0598994514104114,0.0008807182312011719,0.0012805461883544922,0
1.740454912185669,0.3787546157836914,0.3896358609199524,-0.8077951073646545,0.7075546689179334,-0.6935446781421492,-0.021889140490740273,0.05364115460403391,0.446736950337762,0.2017536801923647,0.5650623439310365,-0.9825311719655182,1.06414326518648,0.0009102821350097656,0.0013120174407958984,0
1.750507116317749,0.37905240058898926,0.3924543857574463,-0.810691773891449,0.7111233667961364,-0.693627900292005,-0.020102446268920906,0.05441110237792006,0.44678001143287693,0.19900598220914187,0.5660358814112182,-0.983017940705609,1.068353922606977,0.0009074211120605469,0.0013010501861572266,0
1.760277271270752,0.37953129410743713,0.39802971482276917,-0.8163590431213379,0.7182869530988313,-0.6937166136602652,-0.019316538377421665,0.05448463238011381,0.4455406854809542,0.1963308781849329,0.566969299231566,-0.983484649615783,1.0724464355436154,0.0007436275482177734,0.0011048316955566406,0
1.7705721855163574,0.3797137439250946,0.40078648924827576,-0.8191320896148682,0.7218582453769905,-0.6938036931835893,-0.018048787314850198,0.05464549889300289,0.4453999205777214,0.19350735741121625,0.5679391715912258,-0.9839695857956128,1.0767587591387262,0.0008940696716308594,0.0012748241424560547,0
1.7805159091949463,0.3798586428165436,0.4035232961177826,-0.8218652606010437,0.7254466724464906,-0.6938918368634014,-0.016716490946316866,0.05472350374089067,0.44513319780996,0.19077560617083297,0.5688626091510596,-0.9844313045755297,1.0809239763731238,0.0009243488311767578,0.0013282299041748047,0
1.790299654006958,0.3799661695957184,0.40624040365219116,-0.8245591521263123,0.7290301313419144,-0.6939781117384638,-0.015405219829181785,0.0546805028718524,0.44518361232657094,0.18808350345512073,0.5697583660886846,-0.9848791830443422,1.0850221818165922,0.0008285045623779297,0.0011823177337646484,0
1.8005890846252441,0.3800673186779022,0.4116167724132538,-0.829830527305603,0.7361915630151836,-0.694077158548978,-0.015102447760807108,0.053917915103968955,0.44403857182129275,0.18524771963601327,0.570686676180246,-0.985343338090123,1.0893322084352628,0.0009753704071044922,0.0014643669128417969,0
1.8104579448699951,0.3800624907016754,0.4142731726169586,-0.8324077129364014,0.7397576819217597,-0.6941775501864128,-0.01427066551853886,0.05325266930716381,0.4438683944950617,0.18252354036659213,0.571563782278098,-0.985781891139049,1.0934660669478247,0.0012021064758300781,0.0017313957214355469,0
1.8205056190490723,0.3800222873687744,0.4169105589389801,-0.8349626064300537,0.7433325085870088,-0.6942741300933761,-0.013435557700230062,0.05266333602518865,0.4436458084587916,0.1797457358705164,0.5724434211661154,-0.9862217105830576,1.097674826866045,0.0010104179382324219,0.0014595985412597656,0
1.830596923828125,0.3799469470977783,0.4195292592048645,-0.837480366230011,0.7468830552946667,-0.6943693982536672,-0.01245601712755901,0.05199984040839086,0.4437620277352173,0.17695160261238888,0.5733132916066984,-0.9866566458033492,1.101901862727246,0.0009932518005371094,0.0014219284057617188,0
1.840209722518921,0.3796931803226471,0.4247044026851654,-0.8424045443534851,0.7539963973461696,-0.6944812270128273,-0.012799247663955448,0.05032845173768919,0.44256725339219644,0.17428604490254593,0.5741292315778981,-0.987064615788949,1.105928462426905,0.0008270740509033203,0.0011830329895019531,0
1.8503947257995605,0.3795127272605896,0.42726147174835205,-0.8448103666305542,0.7575400773464834,-0.6945964329484992,-0.01257253388264008,0.04887820593990908,0.44246070408845106,0.17145771563996656,0.5749802185706255,-0.9874901092853128,1.110194746624671,0.000946044921875,0.0013437271118164062,0
1.8603549003601074,0.37929806113243103,0.42979785799980164,-0.8471786975860596,0.7610946199108347,-0.6947133133175769,-0.012171451016969828,0.04745595846935664,0.4422369055219604,0.16868780155325994,0.5757989454724001,-0.9878994727362,1.1143668547883891,0.000896453857421875,0.0013318061828613281,0
1.8706109523773193,0.37905004620552063,0.4323124587535858,-0.8495107293128967,0.7646513586318177,-0.6948276268853113,-0.011479099785313604,0.045983749825127984,0.4423984885537728,0.1658315197885953,0.5766280491309842,-0.988314024565492,1.1186628998113368,0.0008296966552734375,0.00121307373046875,0
1.8803963661193848,0.3784641921520233,0.43727409839630127,-0.8540682792663574,0.77168846922443,-0.6949589840141366,-0.011933818373509812,0.04370517328712995,0.4412748510005859,0.16310250991321892,0.5774058981860233,-0.9887029490930116,1.1227618043345915,0.0010328292846679688,0.0015540122985839844,0
1.8905293941497803,0.3781221807003021,0.43972498178482056,-0.856278121471405,0.775216815259315,-0.6950884093787287,-0.011907972215311058,0.04177696876842573,0.44120673232891855,0.16027271121036435,0.5781977672399636,-0.9890988836199818,1.127006317190446,0.0011148452758789062,0.0015883445739746094,0
1.900301456451416,0.37774714827537537,0.4421555697917938,-0.8584537506103516,0.7787398485860179,-0.6952149208099287,-0.01171679421113327,0.0399490588507906,0.44100343867178465,0.15754007552507057,0.5789482918219511,-0.9894741459109755,1.1310996290754114,0.0009090900421142578,0.0012874603271484375,0
1.9106063842773438,0.3773390054702759,0.4445645213127136,-0.8605949878692627,0.7822562427935261,-0.6953417105190434,-0.011424244271765329,0.03807203555198667,0.4412085370575048,0.1546546248776601,0.579725751544599,-0.9898628757722995,1.1354161471492392,0.0008814334869384766,0.001262664794921875,0
1.9202308654785156,0.3764190077781677,0.44932085275650024,-0.8647790551185608,0.78927077679855,-0.695479940894511,-0.012671738474434962,0.035156865422068376,0.44009052928921033,0.1519562377506035,0.5804388872298978,-0.9902194436149488,1.1394476404074012,0.0007915496826171875,0.0011599063873291016,0
1.9304254055023193,0.3759095072746277,0.4516661465167999,-0.8668237924575806,0.7927973060929655,-0.6956117503704057,-0.013153339454365481,0.03261215891462624,0.44004990679680217,0.14909444018503148,0.5811805639436955,-0.9905902819718477,1.1437179193468023,0.0008711814880371094,0.0012395381927490234,0
1.9404888153076172,0.37536516785621643,0.453991174697876,-0.8688370585441589,0.7963039353225474,-0.6957353116819454,-0.01348212896499712,0.030263945478948246,0.43991012877115104,0.1462659028956059,0.5818988620457451,-0.9909494310228726,1.1479332705887206,0.0009119510650634766,0.0013096332550048828,0
1.9503788948059082,0.37478792667388916,0.45629584789276123,-0.870820164680481,0.7998137682881173,-0.6958503658733217,-0.013674999801623386,0.027968009618463505,0.4400843424267834,0.14348271208348556,0.5825913759515906,-0.9912956879757953,1.1520760174014206,0.0008647441864013672,0.0012488365173339844,0
1.9604313373565674,0.37353333830833435,0.4608399271965027,-0.8746994137763977,0.8068757035528061,-0.6959823592022668,-0.015248297583769138,0.02457065925625592,0.4390272163839748,0.1406504710096754,0.5832816172354109,-0.9916408086177054,1.1562867746904586,0.0008904933929443359,0.0012772083282470703,0
1.9706144332885742,0.3728567063808441,0.4630797803401947,-0.8765943050384521,0.8104009137171359,-0.6961121177718983,-0.01609721207385121,0.02183557755594831,0.43899578904489456,0.13777803394070953,0.5839667913190207,-0.9919833956595103,1.1605522599398976,0.0009241104125976562,0.0013318061828613281,0
1.9803903102874756,0.3721477687358856,0.4652997851371765,-0.8784582018852234,0.8139346541069021,-0.6962400302132589,-0.01682943349283847,0.01934765663830292,0.4388252261084037,0.13501732398812888,0.5846112573523405,-0.9923056286761702,1.164647169721517,0.0008785724639892578,0.0012738704681396484,0
1.9906036853790283,0.3714076280593872,0.46750012040138245,-0.8802914023399353,0.8174645334739608,-0.6963663850659718,-0.01723318892169738,0.017055081344655724,0.43903517330700514,0.13212984588701715,0.5852706244344347,-0.9926353122172173,1.1689253382756475,0.0011034011840820312,0.001529693603515625,0
2.0002686977386475,0.36982885003089905,0.47183552384376526,-0.8838690519332886,0.8244774159441945,-0.6965139017855877,-0.019208240308986664,0.013540738937463843,0.43793727738814303,0.12939443218374608,0.5858814563713771,-0.9929407281856886,1.1729738091857587,0.0009050369262695312,0.0012998580932617188,0
2.0105807781219482,0.3689934015274048,0.4739694893360138,-0.8856134414672852,0.8279974479795624,-0.696656141756103,-0.020227892957885782,0.010610940162862775,0.437926377830413,0.12647277188117487,0.5865190857701839,-0.9932595428850919,1.1772933233158127,0.0009431838989257812,0.0013468265533447266,0
2.020510196685791,0.36812669038772583,0.47608065605163574,-0.8873295187950134,0.8315216402555017,-0.6967912043461044,-0.02104544921612814,0.007832452733050716,0.4377763664125462,0.12365655905421939,0.5871192854973087,-0.9935596427486544,1.1814525484377576,0.0009469985961914062,0.00136566162109375,0
2.0302982330322266,0.36722812056541443,0.47816938161849976,-0.889016330242157,0.8350595168417636,-0.6969259844032148,-0.02162679573836627,0.005245281032227118,0.43793079976886534,0.12087765775185745,0.587697704484563,-0.9938488522422815,1.1855525515149619,0.0007839202880859375,0.0011286735534667969,0
2.0404248237609863,0.36629870533943176,0.48023533821105957,-0.890703022480011,0.8385769496305894,-0.6970568968897142,-0.021943596120859134,0.0027711450011904675,0.4382040080237224,0.11799979168764241,0.5882822869691666,-0.9941411434845833,1.1897943679202128,0.0008456707000732422,0.0012199878692626953,0
2.0503041744232178,0.36434435844421387,0.4842969477176666,-0.8939911723136902,0.845576252885948,-0.6972039383279675,-0.02378713890866931,-0.0007865359943349591,0.43728082458102074,0.11518946397549071,0.5888390165308673,-0.9944195082654337,1.1939326206485734,0.0008797645568847656,0.0012733936309814453,0
2.060401439666748,0.363318532705307,0.48629480600357056,-0.89559406042099,0.8490979641447739,-0.6973431642629664,-0.024962604631913035,-0.0036864703309377185,0.437318761664392,0.11231443390066854,0.5893941532943573,-0.9946970766471785,1.1981621532232962,0.0008578300476074219,0.0012221336364746094,0
2.0705597400665283,0.3622612953186035,0.48827123641967773,-0.8971700668334961,0.8526182220312016,-0.6974709963139427,-0.025844935832678554,-0.006272608561176345,0.4372844732053901,0.10941932595867769,0.5899384807814698,-0.9949692403907349,1.202417252144484,0.0008997917175292969,0.0013077259063720703,0
2.0801632404327393,0.36043643951416016,0.4924609065055847,-0.9006500244140625,0.8596324469772132,-0.6975889183663796,-0.028077893787595624,-0.009254197444273062,0.4361639750799053,0.10667990898844923,0.5904400028946346,-0.9952200014473173,1.2064399569710487,0.0007665157318115234,0.0011055469512939453,0
2.090500831604004,0.35966259241104126,0.49466821551322937,-0.9025431275367737,0.8630940523538781,-0.6976897444934874,-0.029248932639426007,-0.01134931987049079,0.43608548592773383,0.10372852430389647,0.5909656447254239,-0.9954828223627119,1.2107701570349767,0.0008566379547119141,0.0012352466583251953,0
2.100497007369995,0.35885342955589294,0.49684977531433105,-0.9044005870819092,0.8665472588992608,-0.6977715887617877,-0.030027040924402795,-0.012922417658852011,0.43594113415064295,0.10087215043541493,0.5914598965834751,-0.9957299482917374,1.2149573453483675,0.0009140968322753906,0.0013294219970703125,0
2.110330104827881,0.35800912976264954,0.4990061819553375,-0.9062435030937195,0.8700353457360467,-0.6978365598514519,-0.030578647592071653,-0.014090935851302189,0.43609967780473935,0.09806007803288641,0.5919326153340295,-0.9959663076670147,1.2190762235797976,0.0008368492126464844,0.0012068748474121094,0
2.1204068660736084,0.3562168478965759,0.5032439827919006,-0.909827709197998,0.8769302377999365,-0.6979008822439676,-0.03213538374004912,-0.015461248376679212,0.4351018694824159,0.09517602526566489,0.592403177080128,-0.9962015885400639,1.223297167460005,0.0007791519165039062,0.0011518001556396484,0
