time,x,y,z,yaw,throttle,roll_rate,pitch_rate,yaw_rate,x_ref,y_ref,z_ref,yaw_ref,pred_time,nr_time,metadata
9.5367431640625e-07,0.07789667695760727,0.10473700612783432,0.935868501663208,-0.024049089393906483,-0.7576935339553434,0.04204804592753986,-0.17243190412461537,0.009018394705330238,0.5557046850856209,0.22625716115493655,-0.8,0.0,0.17873811721801758,0.17895150184631348,Sim
0.17972540855407715,0.07789667695760727,0.10473700612783432,0.935868501663208,-0.024049089393906483,-0.8053590128300974,0.1137158952065245,-0.3401359820521279,0.01217484829420581,0.533980401147157,0.27361456684672575,-0.8,0.0,0.0007107257843017578,0.000881195068359375,Jax
0.19008278846740723,0.08677168935537338,0.10217415541410446,0.9447808861732483,-0.02639727197041555,-0.8417559860451086,0.14581536490958832,-0.41481637595061016,0.017316608253319512,0.5326040156605816,0.27628420603107756,-0.8,0.0,0.0008084774017333984,0.0009932518005371094,1stOrderHold
0.19992876052856445,0.08745360374450684,0.10222020000219345,0.9458415508270264,-0.026445464968594328,-0.8698906398986844,0.1473926375476156,-0.4271846838789915,0.02023905289772638,0.5312832157744293,0.2788156104603565,-0.8,0.0,0.0007064342498779297,0.0008733272552490234,QuatYawError
0.21002721786499023,0.08888368308544159,0.10234183818101883,0.9480931758880615,-0.02654901067266256,-0.89182390889316,0.13317350445910742,-0.40466795354776924,0.023100351860869797,0.5299160480837783,0.2814053694997143,-0.8,0.0,0.0007441043853759766,0.0009131431579589844,NoPyJoules
0.21988272666931152,0.0896310955286026,0.10241660475730896,0.9492945671081543,-0.026579753321994682,-0.9090273120997913,0.1118563046104559,-0.3654527863116641,0.02513619294847177,0.528569599562724,0.283926360907369,-0.8,0.0,0.0007889270782470703,0.0009720325469970703,0
0.23001861572265625,0.09039980173110962,0.10249929130077362,0.9505341053009033,-0.026612218735741926,-0.9225816724410366,0.08866844200607511,-0.3202569730576007,0.02686236242104233,0.5271723363394685,0.28651235191241986,-0.8,0.0,0.0008552074432373047,0.0010628700256347656,0
0.2401139736175537,0.09199666976928711,0.10268595069646835,0.9531311392784119,-0.026658195209597845,-0.9328966331536933,0.06653792579339168,-0.2748853434654474,0.02819632009150105,0.5257680845131031,0.2890811673344053,-0.8,0.0,0.0014739036560058594,0.0018258094787597656,0
0.25000810623168945,0.09282349795103073,0.10279066860675812,0.9544863104820251,-0.026660110981304577,-0.9402530683330174,0.04665684115179885,-0.23303845850334956,0.029268080500718174,0.5243796771454986,0.2915921024252588,-0.8,0.0,0.0011043548583984375,0.0013842582702636719,0
0.26013803482055664,0.09366686642169952,0.10290638357400894,0.9558775424957275,-0.02668137489826132,-0.9453478663954529,0.029732800511618605,-0.19611068814329102,0.030118057928350445,0.5229457580803332,0.29415596901267466,-0.8,0.0,0.001760244369506836,0.0021431446075439453,0
0.2702932357788086,0.0945286676287651,0.1030287817120552,0.9573032259941101,-0.026684867505857898,-0.9488147920963438,0.01603955593288493,-0.1646452947064917,0.030791972721695232,0.5214956792237952,0.2967191543377549,-0.8,0.0,0.001687765121459961,0.002118825912475586,0
0.2801377773284912,0.09355644136667252,0.10162975639104843,0.953594982624054,-0.0268590381675667,-0.9510051714526648,0.005984471947193856,-0.1389487740607982,0.03139065046422178,0.5200779670395111,0.2991971059352832,-0.8,0.0,0.001481771469116211,0.0018069744110107422,0
0.29042530059814453,0.09314069151878357,0.10097158700227737,0.951941967010498,-0.0270289913428225,-0.952347578077412,-0.0013678288938981176,-0.11815296296633528,0.031899787528458796,0.5185838807410488,0.30177932108670685,-0.8,0.0,0.0014107227325439453,0.0017189979553222656,0
0.30002403259277344,0.09276960790157318,0.1003376767039299,0.9504011869430542,-0.02719314968281648,-0.9531310684352982,-0.006411630762715523,-0.10155575390999035,0.03234908093684827,0.51717826694406,0.30418191958224383,-0.8,0.0,0.0012607574462890625,0.001470327377319336,0
0.3098435401916504,0.09244303405284882,0.09972789138555527,0.9489704966545105,-0.02732717618755504,-0.9535495951113184,-0.009600052471265216,-0.08836807749918575,0.0327347959349628,0.5157288054398925,0.306633004158948,-0.8,0.0,0.0007598400115966797,0.0009300708770751953,0
0.31997060775756836,0.0919170007109642,0.09857918322086334,0.9464249610900879,-0.027636397630747173,-0.9537041867154946,-0.010963091860878788,-0.07786222065890838,0.03314300574162827,0.5142217773426395,0.30915362476700287,-0.8,0.0,0.0008046627044677734,0.0009839534759521484,0
0.3298206329345703,0.09171678870916367,0.098041832447052,0.9453036785125732,-0.027789820425914276,-0.953711008020633,-0.011257449300084519,-0.06944342403553914,0.03347841291708701,0.5127441576327028,0.31159818486879876,-0.8,0.0,0.0008065700531005859,0.0010111331939697266,0
0.33982324600219727,0.09155788272619247,0.09752508997917175,0.9442786574363708,-0.02793411108361625,-0.9536340059217783,-0.010594966475161758,-0.06269334965896113,0.03379278659418239,0.5112317555808668,0.31407338646517763,-0.8,0.0,0.0008237361907958984,0.0010066032409667969,0
0.34990382194519043,0.09143905341625214,0.09702844172716141,0.9433472156524658,-0.028096759611777905,-0.9535122574176255,-0.009213676285524173,-0.0571581228754725,0.03408120397153762,0.5096954769251019,0.31656045362946533,-0.8,0.0,0.0008907318115234375,0.0010809898376464844,0
0.35983824729919434,0.09131716936826706,0.0960959792137146,0.9418509006500244,-0.028403294106922255,-0.9533501276776489,-0.007100057776458009,-0.05249113110546165,0.03440713173369404,0.5081696341655345,0.319004111120949,-0.8,0.0,0.0007748603820800781,0.0009493827819824219,0
0.3699183464050293,0.09131302684545517,0.09565747529268265,0.9412312507629395,-0.02854102446305329,-0.9531874837780033,-0.004631749177983374,-0.04849792324112229,0.03467379917509624,0.5066094427411701,0.3214760839090226,-0.8,0.0,0.0008635520935058594,0.0010733604431152344,0
0.37990498542785645,0.09134622663259506,0.09523642808198929,0.9406963586807251,-0.02868041313079419,-0.9530424244148751,-0.0019141570635970826,-0.04503799619763779,0.034933480970485896,0.5050518588923693,0.3239176127186699,-0.8,0.0,0.0009543895721435547,0.0011510848999023438,0
0.3900146484375,0.09141482412815094,0.0948333740234375,0.9402440786361694,-0.028812010496665146,-0.9529126547170303,0.0009392699721960853,-0.04198748747144625,0.035167051751140814,0.5034631027364885,0.3263815316205069,-0.8,0.0,0.0008864402770996094,0.001069784164428711,0
0.3998842239379883,0.0916600152850151,0.09408853948116302,0.9395719766616821,-0.029060882205904214,-0.952788662246891,0.004055770325476949,-0.03896114403825918,0.03543301341461265,0.5019004811386238,0.32877942002628135,-0.8,0.0,0.0008320808410644531,0.0010187625885009766,0
0.4098355770111084,0.09183423966169357,0.09374327212572098,0.9393680691719055,-0.02918860533731999,-0.9526835182394953,0.007106988368917053,-0.036183963556394985,0.035655749480534876,0.5003133491537229,0.3311896022803023,-0.8,0.0,0.0010857582092285156,0.001522064208984375,0
0.4199552536010742,0.09204258769750595,0.0934152752161026,0.939236044883728,-0.02930831862046481,-0.9525952131282672,0.010229579205241427,-0.033501668362203856,0.0358716871841581,0.49868750244599847,0.3336326945971756,-0.8,0.0,0.0009775161743164062,0.0011954307556152344,0
0.4302215576171875,0.09228475391864777,0.09310341626405716,0.9391732215881348,-0.029444421211789012,-0.9525244351817539,0.013369244470184024,-0.03086597628230287,0.03607625924538631,0.4970259081311086,0.33610302980849005,-0.8,0.0,0.0011026859283447266,0.0013720989227294922,0
0.43994927406311035,0.09286442399024963,0.0925280973315239,0.9392537474632263,-0.029703181648956797,-0.9524806124171041,0.01661773669627635,-0.02810136190096128,0.03632047446159701,0.4954401921892579,0.33843613276875617,-0.8,0.0,0.0010099411010742188,0.0012500286102294922,0
0.4501316547393799,0.0932001993060112,0.09226205945014954,0.9393948316574097,-0.029819856737136503,-0.9524512556931852,0.01984975380242686,-0.02542199819813275,0.03652130259693684,0.4937686304067939,0.3408702680290537,-0.8,0.0,0.0011866092681884766,0.0014638900756835938,0
0.46010422706604004,0.09356633573770523,0.09200884401798248,0.9395992159843445,-0.029936498595989756,-0.9524374219663937,0.02301563261040785,-0.022754497787091422,0.036720805970413044,0.4921199190484935,0.3432462458290027,-0.8,0.0,0.0012505054473876953,0.001550436019897461,0
0.47002577781677246,0.09396398812532425,0.09177253395318985,0.9398664832115173,-0.030045750121199987,-0.9524374731196085,0.026129028972453467,-0.020092546245504782,0.036901895293113156,0.49046829740623493,0.3456021545642171,-0.8,0.0,0.0012195110321044922,0.0014905929565429688,0
0.48017406463623047,0.09484512358903885,0.09133680909872055,0.9406242370605469,-0.030262672084630994,-0.9524641794467266,0.029440878651473254,-0.01721410899996646,0.0371164447414883,0.4887672639232266,0.3480036806084138,-0.8,0.0,0.001222372055053711,0.0015020370483398438,0
0.49002552032470703,0.09532617777585983,0.09114223718643188,0.9411107897758484,-0.030361752241836102,-0.9525062660256818,0.032615030069550306,-0.014483868073730515,0.03729207404871597,0.4871047363980072,0.35032695554100296,-0.8,0.0,0.001176595687866211,0.0014705657958984375,0
0.5000505447387695,0.0958332046866417,0.09096069633960724,0.9416541457176208,-0.030435836907966893,-0.9525587137207312,0.035673328667420574,-0.011740207546337474,0.03745642085933049,0.48540158094200986,0.35268300954114223,-0.8,0.0,0.0011112689971923828,0.0013763904571533203,0
0.5102143287658691,0.09636668115854263,0.09079183638095856,0.9422507882118225,-0.030530917022133057,-0.9526158355736258,0.0386957492048331,-0.008951252885171321,0.03761106577706413,0.48366321827271885,0.3550632215395961,-0.8,0.0,0.0012471675872802734,0.001520395278930664,0
0.5199930667877197,0.0975140854716301,0.09048774093389511,0.9436036944389343,-0.03070859348570327,-0.952704036148936,0.04180079363918717,-0.0057852426164647745,0.037789343658807414,0.4819796948258559,0.3573451745519656,-0.8,0.0,0.0011012554168701172,0.0013725757598876953,0
0.5301306247711182,0.098127081990242,0.09035683423280716,0.9443577527999878,-0.030789846058840536,-0.9528019962946778,0.044791304372752166,-0.0026301484427825495,0.03793633613567489,0.48022303070140826,0.35970243366420845,-0.8,0.0,0.0015573501586914062,0.0018463134765625,0
0.5400686264038086,0.09876624494791031,0.0902366191148758,0.9451615810394287,-0.030868931356697087,-0.9529035800521115,0.04767440365789148,0.0005012244166951248,0.03807983498664528,0.47848975542275096,0.3620049087450002,-0.8,0.0,0.001314401626586914,0.0016999244689941406,0
0.5500805377960205,0.09943008422851562,0.09012729674577713,0.9460139274597168,-0.030949335342640015,-0.953011019633246,0.05051716156858399,0.00359222064232412,0.03821166002280473,0.4767324269373915,0.3643160621032027,-0.8,0.0,0.0014879703521728516,0.0018608570098876953,0
0.5605347156524658,0.10083109885454178,0.08993560820817947,0.9478921890258789,-0.031069876698925643,-0.9531553906645481,0.053584598893726076,0.007097598510220363,0.038353225212436066,0.4748855572602913,0.36672020329616767,-0.8,0.0,0.0018329620361328125,0.0022537708282470703,0
0.5700740814208984,0.1015687808394432,0.0898522138595581,0.948902428150177,-0.031136608323378067,-0.9533115731402504,0.05651412470221196,0.010490187549815675,0.038473938690441654,0.47318972121401065,0.36890579791785166,-0.8,0.0,0.0013959407806396484,0.0017545223236083984,0
0.5800280570983887,0.10233072191476822,0.08977694809436798,0.9499573111534119,-0.031194496172283412,-0.9534667982877515,0.05936459662655185,0.01387781927903187,0.03858744505028426,0.47140945543453505,0.37117802376611025,-0.8,0.0,0.0012087821960449219,0.0014958381652832031,0
0.5918295383453369,0.10311689227819443,0.08970879018306732,0.9510558247566223,-0.03123797677431631,-0.9536245537735337,0.06229839910412967,0.017389085250425127,0.03868572457862269,0.4692846305091578,0.3738608505418603,-0.8,0.0,0.0022115707397460938,0.002566099166870117,0
0.5999367237091064,0.1039271280169487,0.08964891731739044,0.9521983861923218,-0.03127827945996939,-0.9537889315807363,0.06497749079468097,0.020747853034299595,0.03877496229716305,0.46781610252470623,0.3756968115629856,-0.8,0.0,0.0012621879577636719,0.001619577407836914,0
0.610011100769043,0.10561978071928024,0.08956100791692734,0.9546118974685669,-0.03134776549338101,-0.9539918326410657,0.06772428468086997,0.024537290526018246,0.038866650773417714,0.4659812333698383,0.37797022388956014,-0.8,0.0,0.0011665821075439453,0.001493692398071289,0
0.6199531555175781,0.10649953037500381,0.08952901512384415,0.9558780789375305,-0.031376820444341084,-0.954195421671742,0.07043440483532373,0.028214437723435064,0.03894087228418353,0.4641596330690221,0.3802049908000035,-0.8,0.0,0.001186370849609375,0.001499176025390625,0
0.6297760009765625,0.10740155726671219,0.0895031988620758,0.9571985602378845,-0.03138503296673281,-0.9543930122852868,0.07307391401671373,0.03190443242962882,0.0390020207112138,0.46234934886240103,0.38240434046505506,-0.8,0.0,0.0008776187896728516,0.0010979175567626953,0
0.6401498317718506,0.10926578938961029,0.08947112411260605,0.9599507451057434,-0.03143820986923853,-0.9546274112270264,0.07583876843768343,0.03594651635845489,0.03906934211969972,0.46042620820402397,0.38471769753790214,-0.8,0.0,0.001222848892211914,0.0015232563018798828,0
0.6501069068908691,0.110226571559906,0.08946238458156586,0.9613807797431946,-0.031461495170083405,-0.9548617019718947,0.0785239877948006,0.03978064421189093,0.039123036618490224,0.4585694401442633,0.3869290226459846,-0.8,0.0,0.0011568069458007812,0.0014367103576660156,0
0.6601440906524658,0.11120711266994476,0.08945874869823456,0.962846040725708,-0.03148724136023178,-0.9550917066763361,0.08113042794638228,0.043648915440546665,0.03917504586573073,0.4566869848501014,0.3891490689549741,-0.8,0.0,0.0015463829040527344,0.0019562244415283203,0
0.670367956161499,0.11220945417881012,0.08946042507886887,0.9643455743789673,-0.031508967475551555,-0.955315608179676,0.08367899834504952,0.047539212044236376,0.0392201901227988,0.45475846864300523,0.39140099028677583,-0.8,0.0,0.0014312267303466797,0.0017473697662353516,0
0.6799006462097168,0.11050132662057877,0.088190458714962,0.9605503082275391,-0.03171827148446769,-0.9553880165871015,0.08658575080687263,0.05032349760515285,0.03933268604348309,0.45295032367623655,0.39349206381017715,-0.8,0.0,0.0011148452758789062,0.0013859272003173828,0
0.690241813659668,0.10973579436540604,0.08759310841560364,0.958829939365387,-0.03191243898856444,-0.9553761655468973,0.08937798945520943,0.05285255089137682,0.0394606699042869,0.4509779563982132,0.3957510364394404,-0.8,0.0,0.0010745525360107422,0.0013403892517089844,0
0.6998064517974854,0.10902713239192963,0.0870155468583107,0.9572589993476868,-0.032116758730277604,-0.9553099997919751,0.09227755547732511,0.05507042812054457,0.03962145798907399,0.449143666458291,0.39783158104957356,-0.8,0.0,0.0011124610900878906,0.0013551712036132812,0
0.7098901271820068,0.10837377607822418,0.08645452558994293,0.9557980298995972,-0.0323056502679384,-0.9552131195994378,0.09527946938340705,0.05711019797985914,0.039793363054298744,0.44719944347807444,0.40001582187821083,-0.8,0.0,0.0010497570037841797,0.0012903213500976562,0
0.7200977802276611,0.10722675174474716,0.08538627624511719,0.9531986713409424,-0.03268831157927323,-0.9550685836293212,0.09852604517545897,0.05887300144006816,0.040053303395281674,0.44522049786939083,0.4022172401537902,-0.8,0.0,0.0011136531829833984,0.0013642311096191406,0
0.7298581600189209,0.10672996938228607,0.08487925678491592,0.9520535469055176,-0.03286227578773576,-0.9549218722114617,0.10164738044698489,0.06055990985682868,0.040269686410733065,0.4433181290400559,0.4043130426593042,-0.8,0.0,0.001074075698852539,0.0013501644134521484,0
0.7399060726165771,0.10628227144479752,0.08438945561647415,0.9510084390640259,-0.03303866434359405,-0.9547845201955931,0.10481467197345155,0.06224439353046322,0.040502542886525356,0.4413494126429031,0.40646118628937306,-0.8,0.0,0.001085042953491211,0.0013480186462402344,0
0.7502508163452148,0.10588275641202927,0.08391892164945602,0.9500607252120972,-0.0332345337695468,-0.9546588566269384,0.10802136043854592,0.06397039681404737,0.04073322754041254,0.439311663023903,0.40866277385048505,-0.8,0.0,0.00115203857421875,0.001425027847290039,0
0.759890079498291,0.10522748529911041,0.08302425593137741,0.9484434127807617,-0.03354900972530731,-0.9545244112440967,0.11135665523672435,0.06564076651753951,0.041013397722856615,0.4374029965922951,0.41070502623182087,-0.8,0.0,0.001142263412475586,0.0014133453369140625,0
0.7701215744018555,0.10496995598077774,0.08260145038366318,0.9477874040603638,-0.03371865284588226,-0.9544055360020266,0.11459017003906151,0.06744226370015627,0.04125581329713473,0.4353666768346293,0.4128629999188247,-0.8,0.0,0.0013594627380371094,0.001683950424194336,0
0.7799777984619141,0.10475647449493408,0.08219385147094727,0.9472181797027588,-0.03390126946113148,-0.9543064820023242,0.11776846802341895,0.0692450051289116,0.0415071983858831,0.4333949767581678,0.41493227654737486,-0.8,0.0,0.001360177993774414,0.0016849040985107422,0
0.7900176048278809,0.10458655655384064,0.08180078864097595,0.9467331767082214,-0.03407194621368382,-0.9542261070287604,0.12087825014074029,0.0711527149214942,0.041744029438725315,0.4313764404744625,0.4170304144826639,-0.8,0.0,0.0009765625,0.0011954307556152344,0
0.8001205921173096,0.1044594943523407,0.08142189681529999,0.9463292956352234,-0.03423105906494695,-0.9541593158327589,0.12394660641894621,0.07313941140611997,0.04197457494840387,0.42933494815298007,0.4191318435701085,-0.8,0.0,0.001117706298828125,0.0013737678527832031,0
0.8100299835205078,0.10433109104633331,0.08070279657840729,0.9457584023475647,-0.03461382025760099,-0.9541033940562609,0.12714426932369421,0.0753458029871601,0.04228169169604097,0.42732263057148645,0.42118329667908827,-0.8,0.0,0.0010461807250976562,0.0012924671173095703,0
0.8199548721313477,0.10432664304971695,0.08036639541387558,0.9455879330635071,-0.034803353244692095,-0.9540675238756273,0.1301854558251503,0.07754799608662913,0.04254095215043443,0.42529734079649384,0.4232282739981238,-0.8,0.0,0.001096963882446289,0.0013229846954345703,0
0.8300683498382568,0.10436034202575684,0.0800442323088646,0.9454920291900635,-0.03496922426254939,-0.9540480743643668,0.13313847853316643,0.07989328064023656,0.042801385399171804,0.42322350056699526,0.42530209095161814,-0.8,0.0,0.0011165142059326172,0.0013644695281982422,0
0.8398559093475342,0.10454067587852478,0.07943611592054367,0.9455295205116272,-0.03531739255225569,-0.9540435065634031,0.13621094304674355,0.08236739454788154,0.04311384091636028,0.4212068630872287,0.42729940146016654,-0.8,0.0,0.0009915828704833984,0.0012173652648925781,0
0.8501133918762207,0.10468484461307526,0.07914875447750092,0.9456611275672913,-0.03548722333118422,-0.9540570445660671,0.13918115565481004,0.08487425663601841,0.043378037584097445,0.41908328757278834,0.42938234485966414,-0.8,0.0,0.0011353492736816406,0.0013954639434814453,0
0.8599939346313477,0.10486406832933426,0.07887198030948639,0.9458606243133545,-0.035659988490642315,-0.954086497029931,0.14207100007663861,0.08737197155902293,0.043644652460220035,0.41702800857161615,0.43137876636059874,-0.8,0.0,0.0014004707336425781,0.0017769336700439453,0
0.8700041770935059,0.10507766157388687,0.07860595732927322,0.9461246728897095,-0.035811081943970424,-0.9541229525752524,0.14492511124416443,0.08990570956008193,0.0438870980392874,0.4149360520994885,0.4333913620137007,-0.8,0.0,0.0012462139129638672,0.0015320777893066406,0
0.8802108764648438,0.10560877621173859,0.07810287922620773,0.9468342661857605,-0.036103737049708554,-0.9541693140283513,0.14787470159601965,0.09271571945064044,0.04417501335356067,0.41279303952345053,0.43543301037127513,-0.8,0.0,0.0014111995697021484,0.0017428398132324219,0
0.8900811672210693,0.10592710971832275,0.07787613570690155,0.9472763538360596,-0.03622466883972833,-0.9542209520218694,0.15065646424763293,0.09559541534620904,0.04440598977993959,0.41071110482165907,0.4373972889446986,-0.8,0.0,0.0011239051818847656,0.0013895034790039062,0
0.8999125957489014,0.10627950727939606,0.07765784859657288,0.9477745294570923,-0.03635155574137348,-0.9542774126348084,0.15337430409523037,0.09846044131591752,0.04463518552234941,0.4086280754545812,0.4393439381057683,-0.8,0.0,0.0011043548583984375,0.0013468265533447266,0
0.91015625,0.10666307061910629,0.07744809985160828,0.9483287930488586,-0.0364738128260878,-0.954344616873434,0.15603123705215063,0.10133609400656161,0.044842092239103286,0.40644789182723934,0.4413616558211561,-0.8,0.0,0.0012059211730957031,0.0014793872833251953,0
0.919945240020752,0.10752680152654648,0.07705225795507431,0.9496143460273743,-0.03669692494934088,-0.954438621032305,0.1588304345522446,0.10451082208799316,0.0450783932489638,0.4043551653993998,0.4432797087785814,-0.8,0.0,0.001077890396118164,0.0013344287872314453,0
0.9301340579986572,0.10800527781248093,0.0768653154373169,0.9503370523452759,-0.03678508886839875,-0.9545448074390488,0.16155369398197733,0.10770436127300734,0.045266577683201206,0.4021673495577093,0.4452655645227096,-0.8,0.0,0.0012602806091308594,0.0015478134155273438,0
0.9400985240936279,0.10851539671421051,0.07668709009885788,0.9511111378669739,-0.03690653711634152,-0.9546577366027905,0.16413760683999065,0.11095058346720839,0.0454606943887472,0.40001827480029445,0.4471972493495416,-0.8,0.0,0.0015087127685546875,0.0019028186798095703,0
0.950636625289917,0.10905570536851883,0.07651814818382263,0.9519363045692444,-0.03697573438056314,-0.954779229534407,0.16662876694705903,0.11423941558784394,0.04562044668561877,0.39773538831476013,0.4492288513465124,-0.8,0.0,0.0019986629486083984,0.002425670623779297,0
0.9600541591644287,0.11022435873746872,0.07621178776025772,0.9537332057952881,-0.03710836359907841,-0.9549304322246367,0.16911256269616096,0.11792931480175632,0.045794037949908245,0.3956865199209625,0.4510345640334427,-0.8,0.0,0.0014014244079589844,0.0017614364624023438,0
0.9700281620025635,0.11085259169340134,0.07607220858335495,0.9547041058540344,-0.0371734954032795,-0.9550921189265041,0.17151840248171826,0.12151785481024886,0.0459351302462978,0.39350764894265033,0.45293678391540226,-0.8,0.0,0.0015478134155273438,0.0019237995147705078,0
0.9799175262451172,0.1115092933177948,0.07593920826911926,0.9557222723960876,-0.037232579466678226,-0.9552571308179508,0.1738890373889737,0.12508438643230976,0.04606742284249032,0.3913382390274203,0.4548124697882827,-0.8,0.0,0.001188516616821289,0.0014412403106689453,0
0.9901769161224365,0.11219371110200882,0.07581088691949844,0.9567756652832031,-0.0373040821560818,-0.9554223708788374,0.17627659998994155,0.128634591092358,0.04618992507478664,0.3890782094597138,0.45674735568323,-0.8,0.0,0.0008232593536376953,0.001008749008178711,0
0.9998462200164795,0.11364246159791946,0.07557404786348343,0.9590118527412415,-0.03743562387636225,-0.9556159061045021,0.1785727019124171,0.13245200004257826,0.04632843322392806,0.38693941134306936,0.4585606742291351,-0.8,0.0,0.0009160041809082031,0.001127481460571289,0
1.0098721981048584,0.11440824717283249,0.07546675950288773,0.9601930975914001,-0.03747321941456266,-0.9558138775940331,0.18083355596762804,0.13625702497317022,0.04643388624060292,0.3847127951175005,0.460430304468418,-0.8,0.0,0.0008077621459960938,0.0010020732879638672,0
1.0198369026184082,0.11520198732614517,0.07536585628986359,0.9614160060882568,-0.03752146362174155,-0.956010982567022,0.18294408721821775,0.1401004524614191,0.04653736002288859,0.38249083572312614,0.4622777959061245,-0.8,0.0,0.0008325576782226562,0.0010101795196533203,0
1.0298233032226562,0.1160222664475441,0.07527075707912445,0.962678849697113,-0.03756041845993148,-0.9562070486180262,0.18505536281074378,0.1439648511024343,0.04662509162127992,0.38025513750008194,0.46411855210150105,-0.8,0.0,0.0010192394256591797,0.0012066364288330078,0
1.0398809909820557,0.11687050759792328,0.0751865953207016,0.9639819860458374,-0.03758792057125055,-0.9564071580487798,0.18705711835198738,0.14789952800701422,0.04670232794954426,0.37799452635874586,0.46596151991642754,-0.8,0.0,0.00079345703125,0.0009698867797851562,0
1.0498576164245605,0.11864601820707321,0.07503946870565414,0.9667078256607056,-0.03763872067169836,-0.9566499470487586,0.18911977615664455,0.15225263588961468,0.04677911707645863,0.37574331059332144,0.4677787559780486,-0.8,0.0,0.0008509159088134766,0.00103759765625,0
1.059943437576294,0.11957009136676788,0.07497527450323105,0.9681535959243774,-0.037669781652575104,-0.956900598568604,0.1911224853978478,0.156388013817199,0.046844674306347714,0.3734585747978183,0.4696048263273945,-0.8,0.0,0.001623392105102539,0.002065420150756836,0
1.0700781345367432,0.12051749229431152,0.07491578161716461,0.9696370363235474,-0.03771649702932191,-0.9571518306995345,0.19307845402032867,0.16050892566725172,0.04691201267962494,0.3711538283058187,0.4714285054320908,-0.8,0.0,0.0012042522430419922,0.0015633106231689453,0
1.0799660682678223,0.12148968875408173,0.07486097514629364,0.9711558818817139,-0.03774847414561189,-0.9573995554928538,0.19496000291386745,0.16466108767506682,0.046970518093770654,0.36889661549504943,0.4731968798251925,-0.8,0.0,0.0013661384582519531,0.0017795562744140625,0
1.1196479797363281,0.1196405291557312,0.07339712977409363,0.9674012660980225,-0.03801449063124194,-0.9574870748546509,0.19892896930942586,0.16995190011956263,0.04711432082358559,0.35975381801447454,0.48018453788518467,-0.8,0.0,0.0007872581481933594,0.0009756088256835938,0
1.1298930644989014,0.11608333140611649,0.07008958607912064,0.9600151181221008,-0.03901262492539724,-0.9573387262279802,0.20312992286229364,0.17323140939404558,0.04755942979129064,0.3573716998829161,0.48196002751555544,-0.8,0.0,0.0009057521820068359,0.0010945796966552734,0
1.1397902965545654,0.11554405838251114,0.06948056817054749,0.9588661193847656,-0.03921905405088065,-0.9571578085893512,0.20667644670225355,0.17643248766295896,0.04784295637266357,0.3550621403004545,0.4836640120220444,-0.8,0.0,0.0007767677307128906,0.0009503364562988281,0
1.1500415802001953,0.1150602325797081,0.06888938695192337,0.9578171372413635,-0.03939809548520946,-0.9569918100487464,0.21009608059775717,0.17928298802062148,0.04816511937594687,0.3526613961983982,0.4854172840262246,-0.8,0.0,0.0011012554168701172,0.001346588134765625,0
1.1601200103759766,0.11425139755010605,0.06775074452161789,0.9560102820396423,-0.039761133662422836,-0.9568227879112048,0.21368593684079046,0.18198272240550728,0.048513249173689627,0.35029269261302953,0.4871293765540255,-0.8,0.0,0.00092315673828125,0.001129150390625,0
1.1699271202087402,0.1139252707362175,0.06720715016126633,0.9552456140518188,-0.039943821281863,-0.9566806378672151,0.21697211092961122,0.1846439935234047,0.048816363153774606,0.34797977709948474,0.4887842824087052,-0.8,0.0,0.0009894371032714844,0.0012078285217285156,0
1.180006504058838,0.1136491447687149,0.06668057292699814,0.9545553922653198,-0.040117612431869225,-0.9564690449093084,0.21974023073078264,0.18723132730628833,0.049109470750831406,0.34559450197143043,0.4904736896176175,-0.8,0.0,0.00124359130859375,0.0016982555389404297,0
1.1901583671569824,0.11342381685972214,0.06617868691682816,0.9538369178771973,-0.040257833293157234,-0.9558629260669674,0.22112123557473237,0.18979530168210218,0.049370730022503466,0.3431837844096981,0.4921634790577597,-0.8,0.0,0.0014069080352783203,0.0018000602722167969,0
1.2000091075897217,0.11314040422439575,0.06526991724967957,0.951813817024231,-0.04043032775372769,-0.9537970083366428,0.21762070124980812,0.19193161699884909,0.04962944511777198,0.34083667442077437,0.49379181986925125,-0.8,0.0,0.0011169910430908203,0.0014166831970214844,0
1.209961175918579,0.11308971792459488,0.06486936658620834,0.950369119644165,-0.040494372306796034,-0.9509176249001569,0.21283385604765204,0.19360449161976775,0.04983545140358236,0.33845757584107183,0.4954255437053938,-0.8,0.0,0.001520395278930664,0.0018591880798339844,0
1.2198171615600586,0.11310030519962311,0.06450777500867844,0.9485894441604614,-0.04051940440997324,-0.9474681761073667,0.20696906619028027,0.194656070922096,0.0500074899181279,0.33609372849222113,0.4970321978184081,-0.8,0.0,0.0008795261383056641,0.0010535717010498047,0
1.2298884391784668,0.1131703183054924,0.06418581306934357,0.9464609622955322,-0.04050332710168739,-0.9435760680937108,0.20047477698131302,0.19508082168435467,0.050133776889873125,0.3336703678452341,0.4986622961704907,-0.8,0.0,0.0008389949798583984,0.0010180473327636719,0
1.2400903701782227,0.11348410695791245,0.06366525590419769,0.9411351084709167,-0.04034581962173241,-0.9383567664017873,0.18865740377384002,0.19366031615978335,0.050179123657129454,0.3312075089576628,0.5003014951107579,-0.8,0.0,0.0010383129119873047,0.0012819766998291016,0
1.2498509883880615,0.11372341215610504,0.06346716731786728,0.937935471534729,-0.040234301598405936,-0.9328123585102239,0.1786474538538307,0.19212066988139256,0.050197375446246056,0.32884364939989613,0.5018584005965807,-0.8,0.0,0.0008213520050048828,0.0010080337524414062,0
1.2600891590118408,0.11401728540658951,0.06331037729978561,0.9343806505203247,-0.04010793349294028,-0.9272311492630237,0.16963894521672368,0.19040895824080756,0.050172247611017434,0.32635627124823335,0.5034794774535994,-0.8,0.0,0.001046895980834961,0.0012927055358886719,0
1.269911527633667,0.11436401307582855,0.06319781392812729,0.9304744601249695,-0.03995919681898907,-0.9216794922768171,0.16153439578224985,0.18843328424055317,0.0501140648691223,0.3239624010923377,0.5050231308351008,-0.8,0.0,0.0010859966278076172,0.0013244152069091797,0
1.2800273895263672,0.11520356684923172,0.06311143189668655,0.9216616153717041,-0.03955908666572301,-0.9151947181684987,0.14881800010176832,0.18466010035199196,0.04993486460884608,0.32148937065204913,0.5066010112087711,-0.8,0.0,0.0008368492126464844,0.0010344982147216797,0
1.2899103164672852,0.11569219827651978,0.0631396695971489,0.9167457222938538,-0.0393226304024528,-0.908708566365447,0.13880456518301199,0.1812785918046562,0.04976311291243391,0.3190658639020925,0.5081308635503371,-0.8,0.0,0.0007193088531494141,0.0009095668792724609,0
1.2999346256256104,0.11622422933578491,0.06321478635072708,0.911498486995697,-0.03907547292243273,-0.9024416250500634,0.13029102694483222,0.17792792953488817,0.04954759396793935,0.31660025062233965,0.5096707577504047,-0.8,0.0,0.0007736682891845703,0.0009567737579345703,0
1.3100388050079346,0.11679720878601074,0.06333808600902557,0.905925452709198,-0.03881323113574233,-0.8964079354380619,0.12293671470989048,0.17460546317632752,0.04931370341251718,0.3141074715177643,0.5112108139864775,-0.8,0.0,0.0008528232574462891,0.0010437965393066406,0
1.3198344707489014,0.11805875599384308,0.0637425109744072,0.893834114074707,-0.038210170189447036,-0.8896373853478928,0.11093270300077734,0.16937314574422313,0.048930273967807754,0.311683652918267,0.5126922083507075,-0.8,0.0,0.0009200572967529297,0.0011086463928222656,0
1.3300786018371582,0.11874368786811829,0.06402132660150528,0.8873336911201477,-0.03787285023240198,-0.8830114757264013,0.10176017027739376,0.16489427299553425,0.048587712323911715,0.3091413943891538,0.514229130130849,-0.8,0.0,0.0010716915130615234,0.0013246536254882812,0
1.3400688171386719,0.11946053802967072,0.06435219943523407,0.8805445432662964,-0.037537275813916714,-0.8767261001152281,0.09403402334510626,0.16054735436180964,0.04820777375266344,0.30665484996301307,0.51571581611791,-0.8,0.0,0.0010409355163574219,0.0013363361358642578,0
1.34987211227417,0.12020531296730042,0.06473427265882492,0.8735111951828003,-0.03718582695405527,-0.8707682123723691,0.08755034680576071,0.1563879010866729,0.04782309956246423,0.3042078792026678,0.5171629977396053,-0.8,0.0,0.001001119613647461,0.001184701919555664,0
1.3599953651428223,0.12177189439535141,0.06565351784229279,0.8586451411247253,-0.03641326638494314,-0.8642411053129143,0.07658036779256615,0.15027821842084968,0.047265777372439755,0.30167387793897016,0.518645226883718,-0.8,0.0,0.0008709430694580078,0.0010504722595214844,0
1.3706626892089844,0.12259257584810257,0.06619168817996979,0.8508355021476746,-0.03602298570221746,-0.8579303684941867,0.0685215572734306,0.14535290727633737,0.04678972975757298,0.2989958742010055,0.5201936824018304,-0.8,0.0,0.0008971691131591797,0.001117706298828125,0
1.3799290657043457,0.12343569844961166,0.06678193062543869,0.8427854180335999,-0.03563910199704121,-0.851993492046783,0.06178741777144775,0.14066132083768568,0.046284087223097424,0.296663121468145,0.5215275566648195,-0.8,0.0,0.0007572174072265625,0.0009334087371826172,0
1.3901124000549316,0.12430071830749512,0.06743096560239792,0.8345036506652832,-0.035198693590462835,-0.8464087870244159,0.05617661353377684,0.1364416384307831,0.04577534084013222,0.29409266915227356,0.5229813590854757,-0.8,0.0,0.0009336471557617188,0.0011627674102783203,0
1.399848222732544,0.12608207762241364,0.06889139115810394,0.817285418510437,-0.03432324662359611,-0.8403354031607686,0.04628050373893924,0.13004286493729758,0.045092019468318506,0.2916285143138649,0.5243594279109396,-0.8,0.0,0.0009822845458984375,0.0012352466583251953,0
1.4100346565246582,0.12699377536773682,0.06970173865556717,0.8083676695823669,-0.03389257219880602,-0.8344897062883097,0.039088817642421586,0.1248461253760659,0.044513288451987314,0.28904339740218626,0.5257888496518368,-0.8,0.0,0.0012400150299072266,0.0015287399291992188,0
1.4202110767364502,0.1279183179140091,0.07056476175785065,0.7992453575134277,-0.0334372457846831,-0.8290181844435912,0.03316970386636571,0.12016525164682143,0.043900820937457265,0.2864538258957876,0.5272041403760651,-0.8,0.0,0.0017731189727783203,0.0023441314697265625,0
1.4300756454467773,0.1288551390171051,0.07148067653179169,0.7899391055107117,-0.032997475526817116,-0.8238921694752755,0.028197375402413467,0.11597650860741451,0.043318998585738344,0.28393699549575824,0.5285638869510872,-0.8,0.0,0.001294851303100586,0.0015552043914794922,0
1.4399502277374268,0.13076023757457733,0.07347003370523453,0.770806074142456,-0.03208139197872577,-0.8183390749974193,0.01941162387384713,0.10987053284209457,0.04255745814336974,0.28141114611656515,0.5299129804424131,-0.8,0.0,0.0010974407196044922,0.001329660415649414,0
1.450598955154419,0.13172361254692078,0.0745401531457901,0.7609957456588745,-0.031630245870063065,-0.813006836790621,0.013152255904524658,0.1050815444230287,0.04191809991932337,0.2786800941174556,0.5313543122462507,-0.8,0.0,0.000978708267211914,0.0012240409851074219,0
1.4598705768585205,0.13269105553627014,0.07566260546445847,0.7510315179824829,-0.03115329777559835,-0.8080187929501363,0.00814644573284969,0.10062378643859608,0.041248931798801056,0.2762962106218391,0.5325977882004508,-0.8,0.0,0.000993967056274414,0.0012426376342773438,0
1.4699654579162598,0.13366112112998962,0.07683195173740387,0.7409223914146423,-0.03068784946024643,-0.8033567995121574,0.004084832950358812,0.09672014296045539,0.0406164046703887,0.27369434634843837,0.5339395141557712,-0.8,0.0,0.0009713172912597656,0.001912832260131836,0
1.47977614402771,0.1332046389579773,0.07856696844100952,0.7185983657836914,-0.029737707209411424,-0.7982784596027721,-0.0030517077715792387,0.08940496584898881,0.039804512178074125,0.27115948735745027,0.5352312887117537,-0.8,0.0,0.0007498264312744141,0.0009274482727050781,0
1.4900879859924316,0.13182412087917328,0.07914657145738602,0.7064611911773682,-0.029466404582150756,-0.7933680339098645,-0.007814719036453095,0.08258102034197262,0.039197222413534266,0.26848857027528134,0.5365760781394706,-0.8,0.0,0.0008294582366943359,0.0010135173797607422,0
1.499894142150879,0.13048982620239258,0.07978879660367966,0.6942539215087891,-0.029203374006600436,-0.788743353870344,-0.011354736186305475,0.07557334152339724,0.03860187057397723,0.26594244557314645,0.5378425565558884,-0.8,0.0,0.0010437965393066406,0.0012629032135009766,0
1.5097956657409668,0.12919947504997253,0.08049113303422928,0.68198162317276,-0.02894768906623544,-0.7843894015835621,-0.01384436630597358,0.0686149155877044,0.03808506544290327,0.2633654980085895,0.5391090932813948,-0.8,0.0,0.0009219646453857422,0.0011546611785888672,0
1.5200612545013428,0.1267412304878235,0.08207187056541443,0.6572669744491577,-0.028460993658091686,-0.7796457813179241,-0.018930442888858187,0.058229871096024496,0.03751329982235364,0.2606874320767083,0.5404091623550175,-0.8,0.0,0.0013575553894042969,0.0017018318176269531,0
1.5300257205963135,0.12556719779968262,0.08295051008462906,0.6448355317115784,-0.028237206100768898,-0.7750952481911857,-0.02211506321970283,0.04942787049987565,0.03704838018401075,0.25808178398765286,0.5416583727532978,-0.8,0.0,0.0013306140899658203,0.0016531944274902344,0
1.540062665939331,0.12442684173583984,0.08388523012399673,0.6323630213737488,-0.027992182906274567,-0.7708520352355608,-0.024264394875739476,0.0410594473358344,0.0365936558499218,0.2554511316764742,0.5429039687874907,-0.8,0.0,0.001279592514038086,0.0016131401062011719,0
1.550051212310791,0.12331810593605042,0.08487480133771896,0.6198544502258301,-0.027723865477472888,-0.7668936040734068,-0.025637459598672984,0.033205891166687075,0.03617116249305138,0.25282719639519546,0.5441308746643083,-0.8,0.0,0.0008661746978759766,0.0010542869567871094,0
1.5598304271697998,0.12119049578905106,0.0870107114315033,0.5947568416595459,-0.027209679815979947,-0.7626162101328928,-0.029351554135949857,0.02251527341682641,0.035671317002483924,0.2502525423455505,0.5453197823750652,-0.8,0.0,0.0008475780487060547,0.0010459423065185547,0
1.5699670314788818,0.12016818672418594,0.08815568685531616,0.5821778774261475,-0.026978863533875436,-0.7585433456269233,-0.03151158202268191,0.013652107091850139,0.035261940538999025,0.24757789538009145,0.5465392810394917,-0.8,0.0,0.0010342597961425781,0.001264333724975586,0
1.5799431800842285,0.11917007714509964,0.08935002237558365,0.5695832371711731,-0.026753685309850506,-0.7547654912665392,-0.032826068443896704,0.005491627824901835,0.03485927019294475,0.2449397838222768,0.5477266675095309,-0.8,0.0,0.0008800029754638672,0.001104593276977539,0
1.589961051940918,0.11819503456354141,0.09059330075979233,0.5569766759872437,-0.026550631069126612,-0.7512601307272027,-0.03359856487798369,-0.0020170816029092004,0.0344989088785554,0.24228490867837518,0.5489062060377086,-0.8,0.0,0.0008172988891601562,0.001001119613647461,0
1.5999431610107422,0.11630983650684357,0.09322483837604523,0.5317426323890686,-0.026134072981399973,-0.7474882838001461,-0.03663146673301945,-0.011822307971029294,0.03407564293102711,0.239633861460091,0.5500687342884759,-0.8,0.0,0.000797271728515625,0.0009827613830566406,0
1.6097557544708252,0.11539634317159653,0.09461066126823425,0.5191213488578796,-0.025926800002653128,-0.7438998596144188,-0.038330072021600256,-0.019861290589405844,0.0337236411791614,0.23702239728699404,0.5511990413492447,-0.8,0.0,0.0008366107940673828,0.0010542869567871094,0
1.6200082302093506,0.11449896544218063,0.09604138880968094,0.5065033435821533,-0.025741705252480332,-0.7405778164095453,-0.0393790253314252,-0.02705827322859141,0.03338289063658143,0.23428817135282687,0.5523667737691582,-0.8,0.0,0.0010285377502441406,0.0012691020965576172,0
1.630075454711914,0.11361802369356155,0.09751489013433456,0.49388614296913147,-0.02556004209124305,-0.7375019292650776,-0.03986164311565293,-0.03344128659505804,0.03307230274222214,0.23159775172530717,0.5535002090295748,-0.8,0.0,0.000873565673828125,0.0010716915130615234,0
1.6399083137512207,0.11190184205770493,0.10058313608169556,0.468694269657135,-0.025232572570444724,-0.7342117953052771,-0.04236609214064283,-0.041614121464088216,0.03272153229381208,0.22896467160246403,0.554594607941671,-0.8,0.0,0.0010342597961425781,0.001291036605834961,0
1.6501080989837646,0.11106370389461517,0.10217639803886414,0.4561257064342499,-0.025063608194776467,-0.731094207290416,-0.043754979568660986,-0.04814588990944217,0.032426693730997665,0.22622787101208647,0.5557166097727678,-0.8,0.0,0.0009386539459228516,0.0011322498321533203,0
1.6598260402679443,0.11023569852113724,0.10380852222442627,0.4435791075229645,-0.024877347853117026,-0.7282143598588876,-0.04460453671291028,-0.05403676470502497,0.03213088542313525,0.22361524305136724,0.5567730444939643,-0.8,0.0,0.0008606910705566406,0.001058816909790039,0
1.6698708534240723,0.1094183549284935,0.10547847300767899,0.4310592710971832,-0.024707488817622948,-0.7255552193449589,-0.04505763726425976,-0.059084592220465526,0.031860459247407026,0.22090955282049815,0.5578521035835999,-0.8,0.0,0.0008509159088134766,0.0010559558868408203,0
1.6799023151397705,0.10782209038734436,0.10893144458532333,0.40610072016716003,-0.024407441028224983,-0.7227172729228621,-0.047405673393760166,-0.0654137884341656,0.03154975940483571,0.2182022625136579,0.5589166061532979,-0.8,0.0,0.0007956027984619141,0.0009746551513671875,0
1.6899116039276123,0.10703875124454498,0.11071041226387024,0.3936678469181061,-0.024256016236335616,-0.7200405229432573,-0.04878194363815086,-0.07026139726120503,0.03128958261068271,0.21549584386137,0.5599656608029424,-0.8,0.0,0.0008955001831054688,0.0011281967163085938,0
1.6998157501220703,0.1062641441822052,0.11252303421497345,0.3812755048274994,-0.02411751568776413,-0.7175793343998877,-0.049651301136512546,-0.07441148257386174,0.03103783758122953,0.21281289042712015,0.5609907964200969,-0.8,0.0,0.0008766651153564453,0.0010917186737060547,0
1.7103078365325928,0.10549716651439667,0.11436890065670013,0.3689270615577698,-0.02395133777121828,-0.7153140751671573,-0.050228193131829225,-0.0777541667181021,0.03079635074015924,0.2099653507835545,0.5620627647072335,-0.8,0.0,0.0012080669403076172,0.0015172958374023438,0
1.7198827266693115,0.1039888933300972,0.11815919727087021,0.3443661630153656,-0.023637395755067847,-0.71289820349941,-0.05268667167945569,-0.08193642893265198,0.030505989625446813,0.20736202323966407,0.563028410755579,-0.8,0.0,0.0009255409240722656,0.0011734962463378906,0
1.7301537990570068,0.10324525088071823,0.12010151892900467,0.33216017484664917,-0.02349716971773736,-0.7106213362283108,-0.05423755649370155,-0.0848701394455254,0.03026725726182356,0.20456447447422646,0.5640508627624672,-0.8,0.0,0.001329660415649414,0.0016796588897705078,0
1.7400610446929932,0.1025075688958168,0.12207502126693726,0.32000669836997986,-0.02336407348401768,-0.7085282004467559,-0.055520480321625675,-0.0872003709009816,0.030032163572065958,0.20186124451802076,0.5650239268930439,-0.8,0.0,0.0016009807586669922,0.0020008087158203125,0
1.749910593032837,0.1017727330327034,0.1240849569439888,0.30790749192237854,-0.023239749154209337,-0.7065999222543048,-0.056570611753874823,-0.08891702957652324,0.029819703609661602,0.1991691693229884,0.5659784819153382,-0.8,0.0,0.0011594295501708984,0.001474618911743164,0
1.7600975036621094,0.10032246261835098,0.12819290161132812,0.2838875949382782,-0.022978794173795728,-0.7045548568412278,-0.05924798829773252,-0.09089433220201198,0.02956520124446829,0.196380138928883,0.5669522387593796,-0.8,0.0,0.0013463497161865234,0.0016756057739257812,0
1.7699463367462158,0.0996059849858284,0.13028854131698608,0.271969735622406,-0.022863559562625858,-0.7026354808458247,-0.06103722565484918,-0.0918855339015567,0.029358551603481966,0.19367914245734177,0.5678806122566509,-0.8,0.0,0.0011646747589111328,0.001459360122680664,0
1.7800116539001465,0.0988946333527565,0.13241012394428253,0.26011529564857483,-0.022743817613434456,-0.7008753092558192,-0.06245895897921062,-0.09224293040117193,0.029152244594228223,0.19091424236227225,0.5688160968742354,-0.8,0.0,0.0010828971862792969,0.001332998275756836,0
1.7903625965118408,0.09818863123655319,0.13455739617347717,0.24832536280155182,-0.022595082499900814,-0.699256056781701,-0.06355471803745512,-0.09204347451575784,0.028951935623444558,0.18806617046738078,0.5697640876062074,-0.8,0.0,0.0014986991882324219,0.0019249916076660156,0
1.7999835014343262,0.0967889055609703,0.13892409205436707,0.22494350373744965,-0.02231367398533836,-0.6975343977737188,-0.06598124650565491,-0.09215503128778378,0.02870409143121914,0.18541474692170684,0.5706324312760005,-0.8,0.0,0.0013043880462646484,0.0016252994537353516,0
1.8102433681488037,0.09609527140855789,0.14114084839820862,0.21335475146770477,-0.02218267921866769,-0.6959180932401263,-0.06766022376834106,-0.09136164732215295,0.02849811302394081,0.1825828160582019,0.5715448497539426,-0.8,0.0,0.001558542251586914,0.0019788742065429688,0
1.8202226161956787,0.0954054594039917,0.1433829665184021,0.20183701813220978,-0.022047842082351082,-0.6944407615657893,-0.06902509211105064,-0.09008937667163164,0.02828871155758537,0.17982403385292736,0.5724188299216415,-0.8,0.0,0.0016167163848876953,0.0020287036895751953,0
1.830073595046997,0.09472044557332993,0.14564605057239532,0.19037584960460663,-0.021900055787582834,-0.6930917669317702,-0.0701665480308407,-0.0884433165398641,0.028087909531822254,0.17709660868471747,0.5732685157867752,-0.8,0.0,0.001329660415649414,0.0017118453979492188,0
1.840214490890503,0.0933641865849495,0.15023446083068848,0.16767796874046326,-0.021642889218796358,-0.6916668518758994,-0.07257706405244528,-0.08665168050923373,0.027847900989611533,0.17428472173019163,0.5741296332462118,-0.8,0.0,0.0016155242919921875,0.002038717269897461,0
1.8502802848815918,0.0926927700638771,0.1525568813085556,0.15644173324108124,-0.02150017580839024,-0.6903285429366997,-0.07429356203898374,-0.084375652256108,0.027640098994637312,0.1714895185726971,0.5749707340549643,-0.8,0.0,0.0016551017761230469,0.002027750015258789,0
1.8600873947143555,0.09202487766742706,0.15489734709262848,0.14528289437294006,-0.02134895999704328,-0.6891056139527436,-0.07571737587281353,-0.08176792684858379,0.027426660743704555,0.16876224596581615,0.5757771307863602,-0.8,0.0,0.0011785030364990234,0.0015234947204589844,0
1.8700237274169922,0.0913611575961113,0.15725432336330414,0.13420380651950836,-0.021186966947169292,-0.6879932932739846,-0.07680493179206041,-0.07883281598606812,0.02721847729445608,0.16599517093689903,0.5765809598188529,-0.8,0.0,0.001232147216796875,0.0015532970428466797,0
1.8801400661468506,0.08741113543510437,0.16062529385089874,0.10929060727357864,-0.020849883819009186,-0.6867237498788975,-0.07782212819046869,-0.07759489085666639,0.026944504976755712,0.16317403504918465,0.5773856893669668,-0.8,0.0,0.00176239013671875,0.002222776412963867,0
1.890442132949829,0.08417961001396179,0.16167309880256653,0.09553460031747818,-0.020724978982858508,-0.6854360216780585,-0.07773391228616265,-0.07706797132963661,0.026728910144547792,0.16029709670495051,0.578191007183581,-0.8,0.0,0.0014922618865966797,0.0018641948699951172,0
1.9002201557159424,0.08100651949644089,0.16276608407497406,0.08194441348314285,-0.020614671986871613,-0.6841749011266416,-0.07705207840779944,-0.07725323311989885,0.026516197452006406,0.15756282484641435,0.5789421009275609,-0.8,0.0,0.0014681816101074219,0.001783609390258789,0
1.9099345207214355,0.07789033651351929,0.16390308737754822,0.06851142644882202,-0.0204854205124311,-0.6829511731880686,-0.07579846055554787,-0.07789404968024692,0.02631781886182039,0.1548428689777084,0.5796755005403904,-0.8,0.0,0.0011458396911621094,0.0014185905456542969,0
1.9203035831451416,0.07182283699512482,0.16630209982395172,0.04211200773715973,-0.020248722866981938,-0.6815695287365633,-0.0742338403278921,-0.08039084844257895,0.026085176147739492,0.1519358375259739,0.5804442275320523,-0.8,0.0,0.002456188201904297,0.0032112598419189453,0
1.9304609298706055,0.06886880844831467,0.16756002604961395,0.02914329431951046,-0.02011544718311174,-0.6802434952961354,-0.0722272525149498,-0.08225967675966143,0.025884341082602166,0.14908446146315407,0.5811831237658586,-0.8,0.0,0.0015680789947509766,0.002041339874267578,0
1.9401955604553223,0.06596533954143524,0.16885517537593842,0.01632656343281269,-0.01998029363236561,-0.6790103996876948,-0.06992393743707266,-0.08402861122906778,0.025681941292614356,0.14634837773774997,0.5818781249828255,-0.8,0.0,0.0015707015991210938,0.0019669532775878906,0
1.950096607208252,0.06311257183551788,0.17018674314022064,0.0036599093582481146,-0.01983767697174267,-0.6778651450643396,-0.06737180753741041,-0.08563494104690915,0.025487327862336703,0.14356219706313514,0.5825717943519112,-0.8,0.0,0.001043558120727539,0.0012998580932617188,0
1.9600307941436768,0.06031036004424095,0.1715567260980606,-0.008857483975589275,-0.019723994577269807,-0.6768028766911476,-0.0647115409390633,-0.08713305172045953,0.02530574053776236,0.1407633866347077,0.583254377594483,-0.8,0.0,0.0010881423950195312,0.0013573169708251953,0
1.9700899124145508,0.05484524369239807,0.17439311742782593,-0.03341713547706604,-0.019477693702031132,-0.6756620667725419,-0.061748562275109393,-0.08991928443499818,0.02508170738964872,0.13792607236366553,0.5839318441071123,-0.8,0.0,0.0011720657348632812,0.0014503002166748047,0
1.9800388813018799,0.052178990095853806,0.17585435509681702,-0.045475900173187256,-0.019330912973463867,-0.6745998551535599,-0.05866664600501266,-0.09187878008435517,0.024884698403627663,0.13511662021552479,0.5845883157757548,-0.8,0.0,0.0008490085601806641,0.0010259151458740234,0
1.9898414611816406,0.04955577477812767,0.17734502255916595,-0.05738861858844757,-0.019212844118164082,-0.673636219789263,-0.055659183787842945,-0.0934439941000703,0.024693057931194,0.1323454504283764,0.5852219081262339,-0.8,0.0,0.0008437633514404297,0.0010654926300048828,0
2.0000243186950684,0.04697512462735176,0.17886434495449066,-0.069155752658844,-0.019095138278063563,-0.6727664391342053,-0.05256325985153675,-0.09455418106693494,0.024512889978487877,0.12946363193984528,0.5858661690223667,-0.8,0.0,0.0007917881011962891,0.0009984970092773438,0
2.010061264038086,0.041937798261642456,0.1819806545972824,-0.0922565907239914,-0.018876800303253935,-0.6718648742710324,-0.04949892977815034,-0.09652134135849294,0.024300880674287678,0.1266200384705022,0.5864873109093909,-0.8,0.0,0.0010347366333007812,0.001283407211303711,0
2.019902467727661,0.03947984427213669,0.18357612192630768,-0.10360074788331985,-0.01876931868752235,-0.6710414508591935,-0.04651114821870072,-0.09762877033044878,0.024123314672310575,0.1238290075271939,0.5870829386848422,-0.8,0.0,0.0011620521545410156,0.0014858245849609375,0
2.0302443504333496,0.03705973923206329,0.1851978302001953,-0.11480248719453812,-0.018655768635405495,-0.6703114046404367,-0.043626231477565044,-0.09809116904185966,0.023944382722370164,0.12089296291212961,0.5876945563116324,-0.8,0.0,0.0010561943054199219,0.0012853145599365234,0
2.0399110317230225,0.032338835299015045,0.18850870430469513,-0.13678070902824402,-0.01837933568749182,-0.6695819069510821,-0.04087063764479016,-0.09885307259619723,0.02371594507696403,0.1181458744044824,0.5882529663003836,-0.8,0.0,0.0015041828155517578,0.001819610595703125,0
2.050299882888794,0.03003714606165886,0.19019554555416107,-0.14755909144878387,-0.018235814155527493,-0.6689306135926264,-0.03813977723311655,-0.09867436456246619,0.02351954564323999,0.115190685340875,0.5888387776044471,-0.8,0.0,0.0017278194427490234,0.0021505355834960938,0
2.060269355773926,0.027772484347224236,0.19190050661563873,-0.15819820761680603,-0.01809833195179916,-0.6683598162404001,-0.03550063281877333,-0.09803819410065731,0.02331929583169452,0.11235206003118625,0.5893869820472358,-0.8,0.0,0.0015327930450439453,0.0018894672393798828,0
2.0700290203094482,0.025545429438352585,0.19362397491931915,-0.16870009899139404,-0.01796791205513452,-0.6678567768633106,-0.03303869867539579,-0.09691644104680631,0.023131560744277416,0.10957064659573186,0.5899103943859552,-0.8,0.0,0.0012328624725341797,0.0015327930450439453,0
2.0800375938415527,0.021202515810728073,0.19712302088737488,-0.18929234147071838,-0.01768714020962284,-0.6673702173545151,-0.030708130739572785,-0.09588407103231698,0.022890478411513687,0.10671576488758397,0.5904335233745268,-0.8,0.0,0.0012309551239013672,0.0015201568603515625,0
2.090003252029419,0.0190868116915226,0.19889642298221588,-0.19938339293003082,-0.017559169638203972,-0.6669521422041067,-0.028583985629455716,-0.09410417426724828,0.02269240132127569,0.10387064329778724,0.590940681846244,-0.8,0.0,0.0012521743774414062,0.0015637874603271484,0
2.0999560356140137,0.017007211223244667,0.20068804919719696,-0.2093365341424942,-0.01742879446724159,-0.6666054120716685,-0.026632891097874607,-0.09182425162889266,0.022489805338733564,0.10102679217349184,0.5914335019789918,-0.8,0.0,0.0010461807250976562,0.001318216323852539,0
2.1102614402770996,0.014964203350245953,0.20249463617801666,-0.2191525399684906,-0.017267122947928995,-0.6663192651008444,-0.024855748476857294,-0.08900841310218267,0.022288943756674662,0.09807972249651853,0.5919293606799767,-0.8,0.0,0.0013549327850341797,0.0016384124755859375,0
2.1205573081970215,0.0109825748950243,0.20614765584468842,-0.23837566375732422,-0.01699624443872884,-0.6660738211738008,-0.023224327174796704,-0.08609223186980107,0.022046153993489036,0.09513295020616659,0.5924100959513359,-0.8,0.0,0.0016286373138427734,0.002119779586791992,0
2.129979372024536,0.009045357815921307,0.20799259841442108,-0.2477845847606659,-0.016855763532777165,-0.6658800245232741,-0.021801737405268126,-0.08260226470814466,0.02183819583895323,0.09243420255388184,0.592837176801715,-0.8,0.0,0.0008952617645263672,0.0011103153228759766,0
2.1401870250701904,0.00714358314871788,0.20984967052936554,-0.2570592164993286,-0.016694873502293792,-0.6657342430996485,-0.02052843627364923,-0.07871095115147124,0.02162010087509788,0.08950827822208875,0.5932859918536061,-0.8,0.0,0.0018770694732666016,0.002061128616333008,0
2.1499876976013184,0.00527572724968195,0.21171879768371582,-0.26619988679885864,-0.016543727821358094,-0.6656323740074037,-0.019407127644170942,-0.07451353117930971,0.02141430182322795,0.08669695991447757,0.5937033241793307,-0.8,0.0,0.0007531642913818359,0.0009248256683349609,0
2.1601145267486572,0.0016426219372078776,0.21548928320407867,-0.2840854823589325,-0.01627911828389699,-0.6655816513455183,-0.018640229424752405,-0.0698889792889495,0.021166709921128558,0.0837900409807159,0.5941205509258621,-0.8,0.0,0.0011744499206542969,0.0015172958374023438,0
2.169919967651367,-0.00012262968812137842,0.2173951119184494,-0.292831689119339,-0.016151373480544205,-0.6655680547727745,-0.017947768043359427,-0.06496667146285764,0.020960118654263015,0.08097346348984828,0.5945109740033889,-0.8,0.0,0.0009007453918457031,0.001146078109741211,0
2.1799726486206055,-0.0018541166791692376,0.219309464097023,-0.3014477491378784,-0.016002208631857452,-0.6655817896475466,-0.017367568868470653,-0.059706541348762576,0.020745217950820686,0.0780839797217852,0.5948973794788542,-0.8,0.0,0.001081228256225586,0.0013670921325683594,0
2.1903345584869385,-0.0035523881670087576,0.221231147646904,-0.30993565917015076,-0.01585237562499967,-0.6656203726859795,-0.01683766795536757,-0.054191336740959314,0.020541508627337113,0.07510368450948975,0.5952809727961235,-0.8,0.0,0.0012764930725097656,0.0015523433685302734,0
2.199753761291504,-0.006851757410913706,0.22509367763996124,-0.3265261650085449,-0.015569099436264066,-0.6657232997399798,-0.01670589226556257,-0.048407676924703644,0.020288766165899582,0.07239289454262171,0.5956167130124379,-0.8,0.0,0.0008938312530517578,0.0011250972747802734,0
2.210130214691162,-0.00845254398882389,0.22703532874584198,-0.33463096618652344,-0.015441383301275386,-0.6658528137966845,-0.01662507899160536,-0.04244258613171848,0.02008111470846217,0.06940487898171749,0.5959722835615203,-0.8,0.0,0.0014433860778808594,0.0018007755279541016,0
2.2201571464538574,-0.010021062567830086,0.22898341715335846,-0.34261003136634827,-0.015299253271494215,-0.6659997021017193,-0.016689283830394266,-0.03619749384017143,0.019866678401792792,0.06651585282479806,0.5963016361900996,-0.8,0.0,0.0014340877532958984,0.0018205642700195312,0
2.230017900466919,-0.011555400677025318,0.23093700408935547,-0.35046446323394775,-0.015160397978253352,-0.6661618153808866,-0.016786337686433606,-0.029719453020070015,0.019666876872846326,0.06367318297119413,0.5966118719656162,-0.8,0.0,0.0012364387512207031,0.0015370845794677734,0
2.240067958831787,-0.014527374878525734,0.23486031591892242,-0.36587342619895935,-0.014876362347615538,-0.6663864419461946,-0.0172524973045774,-0.023044654437408132,0.019415380519499377,0.06077445247702189,0.5969141193891447,-0.8,0.0,0.0012447834014892578,0.001552581787109375,0
2.249875545501709,-0.01596798375248909,0.23682956397533417,-0.3733934164047241,-0.01468463399672761,-0.6666268439177154,-0.017685855479917946,-0.01639133443814088,0.019185528209463527,0.05794427491240156,0.5971954964706917,-0.8,0.0,0.0011293888092041016,0.0014100074768066406,0
2.259964942932129,-0.017376860603690147,0.2388022094964981,-0.38079237937927246,-0.014531260143401174,-0.6668700914059864,-0.018210290348721223,-0.009630013186885292,0.01895954159832883,0.05503141714431967,0.5974709558857969,-0.8,0.0,0.0010952949523925781,0.0013499259948730469,0
2.270250082015991,-0.018754083663225174,0.2407783716917038,-0.3880726993083954,-0.01439093278847006,-0.6671120327826691,-0.018805619325880863,-0.002785544781657645,0.018747374543042445,0.05206070132886518,0.5977371356851996,-0.8,0.0,0.0011494159698486328,0.0014255046844482422,0
2.279888391494751,-0.020099971443414688,0.24275799095630646,-0.3952358365058899,-0.014229119685031428,-0.6673563117411411,-0.019562771533572415,0.004038413666236947,0.0185333413245445,0.04927564396437566,0.5979731690568534,-0.8,0.0,0.001329660415649414,0.0017600059509277344,0
2.290367841720581,-0.02884780243039131,0.24626030027866364,-0.4164520502090454,-0.013997186722207617,-0.6673972763834604,-0.020780553908448875,0.006255441275072767,0.01829719607393688,0.04624632168773504,0.5982150764819911,-0.8,0.0,0.0017232894897460938,0.0021834373474121094,0
2.3002002239227295,-0.033080071210861206,0.24802787601947784,-0.42675313353538513,-0.013896453290743375,-0.6673185263020265,-0.022018322514067275,0.008037394847244968,0.01810185902363526,0.04340296884828316,0.5984280928358519,-0.8,0.0,0.0015931129455566406,0.001931905746459961,0
2.3100502490997314,-0.03721725940704346,0.2498077154159546,-0.4368528425693512,-0.013788767564946926,-0.667170271477438,-0.023026358629248712,0.009021157792378354,0.017910456798282307,0.04055353118052,0.598627940467859,-0.8,0.0,0.0012848377227783203,0.0016036033630371094,0
2.320356845855713,-0.04522337019443512,0.25338947772979736,-0.4564622640609741,-0.013538054456681351,-0.6669390747707651,-0.024443353062385702,0.007345907753235877,0.017681081239555967,0.0375710324973546,0.5988225258931754,-0.8,0.0,0.0012547969818115234,0.0015540122985839844,0
2.3298683166503906,-0.049097560346126556,0.2551919221878052,-0.4659796357154846,-0.013414860310162025,-0.6666967726532593,-0.025589774287324854,0.00600630514794904,0.017487610471394795,0.034817796614208404,0.5989889156227615,-0.8,0.0,0.0010077953338623047,0.0012485980987548828,0
2.340181350708008,-0.05288855358958244,0.2570020258426666,-0.4753102958202362,-0.013298837278124585,-0.6664650005212347,-0.026631757661108764,0.004562511188700172,0.017296106378701652,0.03183170679510626,0.5991550237146562,-0.8,0.0,0.0029227733612060547,0.003443002700805664,0
2.3503594398498535,-0.056598223745822906,0.25881779193878174,-0.4844561815261841,-0.013165754198143396,-0.6662553953091362,-0.02740536921499123,0.0031585351697292936,0.017111458982250603,0.02888391390057324,0.5993043630057971,-0.8,0.0,0.0015482902526855469,0.0018892288208007812,0
2.35988187789917,-0.06022823601961136,0.26063844561576843,-0.4934200644493103,-0.013038309535717243,-0.6660687687101317,-0.02818867148498828,0.0016735250420437822,0.016932014049512487,0.026125377352219613,0.5994309507009161,-0.8,0.0,0.0011429786682128906,0.001451730728149414,0
