time,x,y,z,yaw,throttle,roll_rate,pitch_rate,yaw_rate,x_ref,y_ref,z_ref,yaw_ref,pred_time,nr_time,metadata
1.6689300537109375e-06,0.132280632853508,0.021196626126766205,1.152984380722046,-0.027979016901081295,-0.7640897102716016,0.24,-0.37717876171024384,0.13615609963639896,0.5557046068687596,0.22625735326136323,-0.8131286766306816,0.3351039154626974,0.0005567073822021484,0.0009343624114990234,Sim
0.009210824966430664,0.13228186964988708,0.020957360044121742,1.152494192123413,-0.027971043062946597,-0.810211626754708,0.40800000000000003,-0.5040251331971708,0.18525431516728927,0.5546920370027848,0.22872853797832327,-0.8143642689891616,0.33896143772264997,0.0002620220184326172,0.0004913806915283203,Nonlinear
0.01901388168334961,0.132268488407135,0.020552676171064377,1.1517425775527954,-0.02796871819717551,-0.8454906387401228,0.5256000000000001,-0.5928175932380195,0.25163231419938886,0.5536020917052604,0.23135410966646006,-0.8156770548332299,0.3430677325179295,0.0001595020294189453,0.0003123283386230469,1stOrderHold
0.029154062271118164,0.132254496216774,0.020387379452586174,1.1514759063720703,-0.02796088701753508,-0.872793103346137,0.574367483166256,-0.6549723152666137,0.2936388684461249,0.552461587655814,0.23406450855440958,-0.8170322542772047,0.34731524143001047,0.00016260147094726562,0.0003180503845214844,QuatYawError
0.03939199447631836,0.13223500549793243,0.020246384665369987,1.1512799263000488,-0.027960509543687225,-0.8940953279720665,0.5433530681795631,-0.6984806206866296,0.33318149117121726,0.5512966268690809,0.23679533188551977,-0.8183976659427599,0.3516036964438515,0.0002830028533935547,0.0005636215209960938,NoPyJoules
0.049284934997558594,0.13220983743667603,0.020127693191170692,1.1511534452438354,-0.027944326872456265,-0.9108139296815987,0.46871866736042034,-0.7289364344806407,0.363271614073269,0.5501580981604116,0.23942862616763028,-0.8197143130838151,0.35574764167904194,0.0004279613494873047,0.0006475448608398438,0
0.059096574783325195,0.13214942812919617,0.019957540556788445,1.1511273384094238,-0.027950350677245814,-0.9239922968032174,0.3752376289598986,-0.7493550561849891,0.3891865427423243,0.5490165025291923,0.2420348734183016,-0.8210174367091507,0.35985753174179325,0.0001666545867919922,0.0003249645233154297,0
0.06918001174926758,0.13211415708065033,0.01990506425499916,1.15122389793396,-0.027958415138618378,-0.9344141156671762,0.2786337445538729,-0.7434429221682322,0.41037523754034777,0.5478304190591838,0.24470764588267155,-0.8223538229413357,0.3640812719411452,0.00016617774963378906,0.00033664703369140625,0
0.07918858528137207,0.1320747286081314,0.019873665645718575,1.1513841152191162,-0.027957842702515435,-0.9426765719602838,0.19419358477363832,-0.7252281042247336,0.4284334341443585,0.5466402742780561,0.24735482719609828,-0.8236774135980491,0.3682736534186616,0.00017380714416503906,0.0003380775451660156,0
0.08919429779052734,0.13203079998493195,0.019861867651343346,1.1516053676605225,-0.02796368949782779,-0.9492396916498742,0.12504656358132013,-0.7004859890512735,0.4437437323289501,0.5454376837870492,0.24999546616892665,-0.8249977330844633,0.3724648364736874,0.00018024444580078125,0.0003669261932373047,0
0.09920310974121094,0.13198158144950867,0.019869133830070496,1.1518856287002563,-0.02797495889477107,-0.9544607759364321,0.07198417079359276,-0.6736730328771875,0.45699911203349614,0.5442219588818221,0.2526310738425348,-0.8263155369212674,0.37665731781974465,0.0001919269561767578,0.00035691261291503906,0
0.10908150672912598,0.1318725198507309,0.019937939941883087,1.1526188850402832,-0.02802562055821131,-0.958619103338124,0.033466363104487334,-0.6471743058504625,0.468567792388902,0.5430095871793507,0.2552265429599969,-0.8276132714799984,0.3807951710739417,0.00018906593322753906,0.0003635883331298828,0
0.11916232109069824,0.13181047141551971,0.019999375566840172,1.1530686616897583,-0.028035975997931124,-0.9619340414185688,0.007191192735179153,-0.6224994586852907,0.478843587316736,0.541759611952489,0.25786919718548873,-0.8289345985927443,0.38501781271934404,0.00021004676818847656,0.00038170814514160156,0
0.12905073165893555,0.1317441463470459,0.020079314708709717,1.1535718441009521,-0.028027750960271096,-0.9645785599102132,-0.009444522000691229,-0.6002333636889571,0.4880393371766625,0.5405209987309787,0.2604554663102031,-0.8302277331551016,0.38915986045225787,0.00016689300537109375,0.00032210350036621094,0
0.1390845775604248,0.13160017132759094,0.020293720066547394,1.1547598838806152,-0.027998044505521645,-0.9666894542171337,-0.01864638609871284,-0.5807017665221781,0.49641935076041693,0.539251548516033,0.2630736920010445,-0.8315368460005222,0.39336282799510724,0.0001761913299560547,0.00034689903259277344,0
0.14924979209899902,0.13152222335338593,0.020426340401172638,1.1554291248321533,-0.028000584716368206,-0.9683751667612278,-0.02237379520567548,-0.5638709740514838,0.504168568710547,0.5379525456287734,0.2657198875724632,-0.8328599437862315,0.3976208231039805,0.0001766681671142578,0.0003561973571777344,0
0.15921926498413086,0.1314409375190735,0.02057427540421486,1.1561468839645386,-0.02801717808753979,-0.9697218241782809,-0.022328967429885334,-0.5494550577141226,0.5113860234005551,0.5366659436210269,0.2683088983939086,-0.8341544491969543,0.4017968261407929,0.00016880035400390625,0.0003337860107421875,0
0.16920804977416992,0.13135752081871033,0.020738711580634117,1.1569119691848755,-0.02801031314607157,-0.970797930732167,-0.019749009822553572,-0.5372371478881055,0.5181908191171869,0.5353643530489367,0.27089667676901,-0.8354483383845049,0.40598091852941637,0.00019073486328125,0.0003910064697265625,0
0.17919039726257324,0.1311820149421692,0.021117446944117546,1.1585766077041626,-0.027980695297608146,-0.9716580379626127,-0.015578121883992782,-0.5270596253858489,0.5246555235430052,0.5340511352872244,0.27347647960734517,-0.8367382398036726,0.4101623144674362,0.00015783309936523438,0.00031447410583496094,0
0.1892251968383789,0.13108769059181213,0.02133110910654068,1.15947425365448,-0.027990925707524473,-0.9723456270370786,-0.010436765273729939,-0.5186086117040541,0.5308799476280942,0.5327184877349865,0.2760634217446218,-0.8380317108723109,0.4143656814844491,0.00017452239990234375,0.0003612041473388672,0
0.19933438301086426,0.13099004328250885,0.02156011387705803,1.160413384437561,-0.02798820015643816,-0.972895381023742,-0.004891214632038537,-0.511543550054433,0.5369080677759577,0.5313632908000042,0.27866297420035924,-0.8393314871001796,0.41860020748621596,0.00022792816162109375,0.00040650367736816406,0
0.2091832160949707,0.1308896690607071,0.02180454321205616,1.1614434719085693,-0.027987785520067403,-0.9733349814756379,0.0007651379665514343,-0.5056325832091423,0.5427433538519821,0.5300307961576712,0.28118918031187673,-0.8405945901559383,0.42272567704134406,0.00017690658569335938,0.0003464221954345703,0
0.2192075252532959,0.13078561425209045,0.022063368931412697,1.1625127792358398,-0.027987311170310513,-0.9736865322472338,0.00638528769188062,-0.5007839814755098,0.5484699829496388,0.5286622278482699,0.2837538525668048,-0.8418769262834024,0.42692464984255835,0.00018858909606933594,0.0003516674041748047,0
0.2291269302368164,0.13067804276943207,0.022336117923259735,1.1636196374893188,-0.027982970942076132,-0.9739676900097675,0.01171176007637466,-0.49668547440903693,0.5540731621660491,0.5272957659402202,0.2862851292357263,-0.8431425646178631,0.4310796804857864,0.00017881393432617188,0.00034165382385253906,0
0.23937249183654785,0.13045533001422882,0.022922849282622337,1.165947437286377,-0.027964160985800308,-0.9741925632350917,0.01673616596031949,-0.49340476887047147,0.5596409103950883,0.5258716500431566,0.28889272694356255,-0.8444463634717813,0.4353713312929354,0.0001747608184814453,0.0003421306610107422,0
0.2492663860321045,0.1303383708000183,0.023237338289618492,1.1671638488769531,-0.02796052473836964,-0.9743724279267897,0.021386199846119797,-0.4906696102387097,0.5651035006741398,0.5244841761989446,0.29140409900499753,-0.8457020495024987,0.4395156760022895,0.00018095970153808594,0.0003733634948730469,0
0.2591996192932129,0.13021741807460785,0.02356572635471821,1.1684160232543945,-0.02798067203537258,-0.974516298002542,0.025677669823028708,-0.48838899806296265,0.5705319830203976,0.5230791207329242,0.2939187531500345,-0.8469593765750172,0.4436764990208885,0.00017333030700683594,0.0003402233123779297,0
0.2692878246307373,0.13025791943073273,0.022248968482017517,1.1637741327285767,-0.028001106409954422,-0.9746313801951412,0.030132191823412795,-0.48646705106578636,0.5759361729184999,0.5216398045432243,0.296465705126422,-0.848232852563211,0.447902236591058,0.0001919269561767578,0.0003762245178222656,0
0.27936887741088867,0.13026714324951172,0.02164549194276333,1.161679744720459,-0.027981406771436294,-0.9747234370765975,0.03434954003374064,-0.48478308316286534,0.5813037489072356,0.5201891206090241,0.2990038106780751,-0.8495019053390375,0.4521249781050013,0.0001881122589111328,0.0003647804260253906,0
0.2891833782196045,0.1302698701620102,0.02107515186071396,1.1597055196762085,-0.027952479178875923,-0.9747970769047672,0.038421596487546096,-0.4832554412001674,0.5866046773024217,0.5187649298448156,0.30146798762572374,-0.8507339938128619,0.456236066590243,0.0001804828643798828,0.0003631114959716797,0
0.299116849899292,0.13025563955307007,0.02002905309200287,1.1561050415039062,-0.02793961978275888,-0.9748559851347852,0.04251400149335289,-0.4819269802389772,0.5918941776459279,0.5173115892280105,0.30395512769221406,-0.851977563846107,0.46039698947738283,0.0001742839813232422,0.00033783912658691406,0
0.309049129486084,0.13023945689201355,0.019554415717720985,1.1544733047485352,-0.02792667365818961,-0.9749031093943767,0.046253925283063976,-0.4806993254159958,0.597156131736993,0.5158465010432427,0.3064349643259459,-0.8532174821629729,0.4645574130218182,0.00017905235290527344,0.0003459453582763672,0
0.3191800117492676,0.13021740317344666,0.019110815599560738,1.1529490947723389,-0.02790066849431168,-0.9749408073146183,0.04992078934974422,-0.4796662339579383,0.6024307441172589,0.5143398712331151,0.30895711168364864,-0.8544785558418243,0.4688010270608049,0.00018525123596191406,0.00035691261291503906,0
0.3293282985687256,0.13018855452537537,0.018696947023272514,1.1515284776687622,-0.0279003106925159,-0.9749709646989573,0.0533511309042545,-0.4787410790323811,0.6077124973723681,0.5128182897743971,0.3114761654972374,-0.8557380827486186,0.47305193150327585,0.00020265579223632812,0.0003895759582519531,0
0.33910584449768066,0.13010908663272858,0.01795709878206253,1.148987054824829,-0.027904438907268746,-0.9749950899972935,0.05675236710584997,-0.4778901119231628,0.6129446267484181,0.5113406253627927,0.31389610519021754,-0.8569480525951088,0.47714754036468143,0.0001780986785888672,0.00035381317138671875,0
0.3491232395172119,0.13006165623664856,0.017628399655222893,1.1478859186172485,-0.027910120881934272,-0.9750143898461431,0.05996254182408782,-0.4771247052180819,0.6182001451398241,0.5098148702399143,0.3163681369579738,-0.8581840684789869,0.48134361697821026,0.0001850128173828125,0.00037407875061035156,0
0.3592245578765869,0.13000909984111786,0.017326857894659042,1.1468788385391235,-0.027909386806120966,-0.9750298294757518,0.06299788880941691,-0.476405966758217,0.6234572579575094,0.5082642314815495,0.318853369115758,-0.859426684557879,0.4855748473181282,0.0001933574676513672,0.00037217140197753906,0
0.36907029151916504,0.12995070219039917,0.01705259643495083,1.1459628343582153,-0.02791825240838763,-0.9750421810197842,0.06587428504551068,-0.4757438862423542,0.6286865677055411,0.5067411679359117,0.3212684060391685,-0.8606342030195842,0.48969901858222487,0.00017213821411132812,0.0003380775451660156,0
0.37917184829711914,0.1298140436410904,0.01658099703490734,1.1443904638290405,-0.02791218942706683,-0.9750520621528351,0.0688855292618292,-0.4753201394190924,0.6339412908137189,0.5051666045601059,0.32373863167254774,-0.8618693158362738,0.49393034879068365,0.00018835067749023438,0.0003654956817626953,0
0.3892374038696289,0.12973639369010925,0.016383208334445953,1.1437309980392456,-0.027921143426742227,-0.9750599669938856,0.0715884852939231,-0.47485932394406566,0.6391951538353882,0.5035856754857649,0.3261923779697279,-0.8630961889848638,0.4981465988494699,0.0001819133758544922,0.000370025634765625,0
0.3991732597351074,0.12965454161167145,0.016211630776524544,1.1431527137756348,-0.027916087844283788,-0.9750662908248774,0.07419544653258332,-0.4743771077120015,0.6444319837271182,0.5020134282022727,0.3286069352655259,-0.8643034676327629,0.5023085204220185,0.00017881393432617188,0.0003464221954345703,0
0.4092268943786621,0.12956653535366058,0.016063904389739037,1.1426540613174438,-0.02791930546810074,-0.9750713498628877,0.07673933768752916,-0.474008626377969,0.64968415409257,0.500410760063272,0.33104240092909304,-0.8655212004645465,0.5065197770537607,0.00018835067749023438,0.0003826618194580078,0
0.4191441535949707,0.12947320938110352,0.015939172357320786,1.142232894897461,-0.02792066539782943,-0.9750753970761552,0.07909684885468472,-0.4735158357985443,0.6549136135911896,0.4988182556240775,0.333437172277106,-0.8667185861385529,0.5106739088801209,0.0001571178436279297,0.0003161430358886719,0
0.429279088973999,0.12937763333320618,0.015836546197533607,1.1419097185134888,-0.02791482430808413,-0.9750786348357993,0.08136456031562565,-0.47295495435125845,0.6601719855615286,0.4971789567942728,0.33587659180264196,-0.8679382959013209,0.5149192206843025,0.00017714500427246094,0.0003693103790283203,0
0.4392578601837158,0.12918129563331604,0.015695631504058838,1.1414762735366821,-0.027915095585115457,-0.9750812250364939,0.08348750043967827,-0.4722292494843253,0.6654102900206929,0.4955532615880609,0.3382705498996843,-0.8691352749498421,0.5190991185942091,0.0001800060272216797,0.00035381317138671875,0
0.44913792610168457,0.12907901406288147,0.01565706357359886,1.1413625478744507,-0.027914543971309106,-0.9750832971925563,0.08573976880015963,-0.4715864603680742,0.6706358770410853,0.49393229032346436,0.34063307616233757,-0.8703165380811687,0.5232376709281923,0.00017189979553222656,0.00033020973205566406,0
0.45933961868286133,0.12897183001041412,0.015638800337910652,1.1413151025772095,-0.027920417561391943,-0.9750849549145307,0.08797192264614037,-0.47100863388817005,0.6759029197785714,0.4922467327823554,0.3430643584884567,-0.8715321792442283,0.5275109459238198,0.00017261505126953125,0.0003371238708496094,0
0.46929931640625,0.128742977976799,0.015661941841244698,1.1414154767990112,-0.027929113351681637,-0.9750862810902697,0.09019060510900491,-0.47050479169612575,0.6811430667751035,0.4905896131826215,0.34542992261430655,-0.8727149613071532,0.5316828543504561,0.00021123886108398438,0.00039315223693847656,0
0.4792158603668213,0.12862074375152588,0.01570364087820053,1.141559362411499,-0.027932152120834868,-0.9750873420296832,0.09230490534474081,-0.4699972035504618,0.6863794098032917,0.4889283793675246,0.347777284837647,-0.8738886424188235,0.5358366865711935,0.0001659393310546875,0.0003247261047363281,0
0.4893465042114258,0.1284940242767334,0.015765780583024025,1.14176344871521,-0.027931747559356956,-0.97508819078046,0.09435813798138423,-0.46952294906138364,0.6916373474153068,0.4872196816520756,0.35016707699446864,-0.8750835384972343,0.5400802007416395,0.0002071857452392578,0.000400543212890625,0
0.4990673065185547,0.12836305797100067,0.01584799215197563,1.1420515775680542,-0.027943047248249125,-0.9750888697805993,0.09637284979940901,-0.46903894071293134,0.6968415230784663,0.48556912836062666,0.35245229689009155,-0.8762261484450458,0.5441520408903162,0.0001678466796875,0.0003304481506347656,0
0.5090858936309814,0.1282273381948471,0.01594783179461956,1.142397165298462,-0.027934352065443386,-0.9750894129804019,0.09845938188648468,-0.4686353069514924,0.70207371801474,0.48385679690961964,0.35479938005070283,-0.8773996900253513,0.5483486168465493,0.00017499923706054688,0.00035119056701660156,0
0.5192551612854004,0.12794770300388336,0.016197023913264275,1.1432511806488037,-0.027939987319088554,-0.9750898475400464,0.10042623110657058,-0.46822969502302525,0.7073259457725066,0.4821071098700511,0.35717325573556935,-0.8785866278677846,0.5526083097206175,0.00019073486328125,0.0003726482391357422,0
0.529038667678833,0.12780240178108215,0.016346847638487816,1.1437557935714722,-0.02792195225054898,-0.9750901951876354,0.10239607923477148,-0.4677957212367399,0.7125255201553163,0.48041280282473947,0.3594489377951728,-0.8797244688975864,0.5567064152955451,0.00018262863159179688,0.00034689903259277344,0
0.5392212867736816,0.12765227258205414,0.016513699665665627,1.144311785697937,-0.027909342936310613,-0.9750904733056257,0.10425642093485539,-0.4674322074194239,0.7177784044788127,0.47863797000039476,0.36180891873183724,-0.8809044593659185,0.5609717008079024,0.00017833709716796875,0.00035071372985839844,0
0.5492165088653564,0.12733164429664612,0.016901986673474312,1.1455734968185425,-0.027936229883151437,-0.9750906957999662,0.10601601161061174,-0.4671241500026489,0.7230168934457953,0.47688452526106195,0.36411694490442426,-0.882058472452212,0.5651584896471297,0.00020885467529296875,0.0004260540008544922,0
0.5591897964477539,0.12716495990753174,0.01712048053741455,1.1462773084640503,-0.027944495749613014,-0.9750908737954053,0.107836442180696,-0.466808130126817,0.728258574147436,0.4751238356703523,0.36641143647256974,-0.8832057182362848,0.5693360905805961,0.00016498565673828125,0.00032329559326171875,0
0.5693366527557373,0.12699584662914276,0.017351822927594185,1.1470385789871216,-0.027944488322825294,-0.9750910161917354,0.10964005945946124,-0.4664207365752261,0.7335204952081913,0.4733211748850386,0.3687371223587973,-0.8843685611793985,0.5735863958118216,0.0002040863037109375,0.0003879070281982422,0
0.5791487693786621,0.12665028870105743,0.017857320606708527,1.1486936807632446,-0.027944505671055286,-0.975091130108786,0.11137697118830354,-0.46605996119103094,0.7387380460054804,0.47156715574463437,0.3709776511097613,-0.8854888255548806,0.5776964856116544,0.00015306472778320312,0.0003066062927246094,0
0.5892050266265869,0.12647287547588348,0.018133575096726418,1.1495866775512695,-0.027948844352869196,-0.9750912212424178,0.11305147279194032,-0.4657159541627602,0.7439871213561106,0.4697584893797633,0.37326526982247193,-0.8866326349112359,0.5819088407973464,0.0001766681671142578,0.00035452842712402344,0
0.5992634296417236,0.12629252672195435,0.018424831330776215,1.1505218744277954,-0.02796745680754823,-0.9750912941493175,0.11462940306409755,-0.46527498296027664,0.74923739042942,0.4679383361820904,0.37554455598655256,-0.8877722779932762,0.5861220947999063,0.0002033710479736328,0.0004107952117919922,0
0.6091101169586182,0.1261095106601715,0.018731025978922844,1.1514979600906372,-0.0279754881945017,-0.9750913524748337,0.11616295050613913,-0.4647817614990698,0.754461886774826,0.46614578208036855,0.377767269424816,-0.8888836347124079,0.5902466655381665,0.00018739700317382812,0.0003867149353027344,0
0.6191267967224121,0.12572850286960602,0.01938559301197529,1.1535682678222656,-0.02797365576723691,-0.9750913991352445,0.11762104897831446,-0.46437843805071977,0.7597007838890446,0.4643114489065947,0.3800195763566118,-0.8900097881783059,0.5944424425460728,0.0002052783966064453,0.0004165172576904297,0
0.629169225692749,0.1255350410938263,0.019733818247914314,1.1546587944030762,-0.027983303607490007,-0.9750914364635717,0.11904749042209638,-0.4639061486947768,0.7649440505938786,0.4624614758623751,0.3822687318408266,-0.8911343659204133,0.5986490053563938,0.000202178955078125,0.00041604042053222656,0
0.6391324996948242,0.12533877789974213,0.02009563520550728,1.1557934284210205,-0.02798031320080602,-0.9750914663262324,0.1204719163804226,-0.46344055753509367,0.7701767139485715,0.46061531781463216,0.38449125997156997,-0.8922456299857849,0.6028224118111433,0.0001914501190185547,0.0003685951232910156,0
0.6493394374847412,0.1251390427350998,0.020470423623919487,1.1569652557373047,-0.02797206189412994,-0.9750914902163604,0.12192895136927387,-0.4629993304960259,0.7754434972681522,0.4587129340355798,0.3867588966636318,-0.8933794483318158,0.6070978839146701,0.00020241737365722656,0.00037360191345214844,0
0.6591765880584717,0.12500938773155212,0.02025318145751953,1.1558191776275635,-0.027952454425549507,-0.9750915093284626,0.12340619098920097,-0.46243213186646265,0.7806561668022372,0.45686890694714166,0.3889354726235754,-0.8944677363117877,0.6112184599112952,0.00015497207641601562,0.00031256675720214844,0
0.669191837310791,0.12507440149784088,0.019682496786117554,1.153591513633728,-0.027933533248958753,-0.975091524618144,0.12513720639599954,-0.46178461124735803,0.7858900715334741,0.4549808847233463,0.3911424223174482,-0.8955712111587241,0.6154136377079562,0.00018286705017089844,0.000362396240234375,0
0.6792757511138916,0.12513069808483124,0.019145727157592773,1.1514867544174194,-0.027913752479730925,-0.9750915368498888,0.12702192929837416,-0.46104399360114073,0.7901230500734319,0.45306914765840534,0.393355243310784,-0.896677621655392,0.61963757764439,0.0001838207244873047,0.0003566741943359375,0
0.6890578269958496,0.1251782774925232,0.01864093728363514,1.149501085281372,-0.02789063488029286,-0.9750915466352846,0.1290359435127746,-0.46089554418302453,0.7930861350514024,0.4512043497859565,0.3954929009909434,-0.8977464504954716,0.6237350840080723,0.00017070770263671875,0.0003376007080078125,0
0.6992194652557373,0.12525217235088348,0.017723994329571724,1.1458756923675537,-0.027903573300605024,-0.9750915544636014,0.1310387051327075,-0.46152529413289134,0.7951602945359817,0.449256514584736,0.3977041414206984,-0.8988520707103491,0.6279915810888324,0.0001747608184814453,0.0003447532653808594,0
0.7091281414031982,0.12527893483638763,0.01731042191386223,1.144276738166809,-0.027907471969663488,-0.9750915607262546,0.1325751610443518,-0.4628863639785968,0.7966122061751872,0.44734673275408804,0.3998510981531031,-0.8999255490765515,0.6321421176477208,0.00018930435180664062,0.0003829002380371094,0
0.7191479206085205,0.1252973973751068,0.01692735031247139,1.1427829265594482,-0.02792260848208499,-0.9750915657363771,0.13370082426744737,-0.4649135267121419,0.7976285443226311,0.44540510405360684,0.40201280238693343,-0.9010064011934666,0.6363391929466584,0.00018215179443359375,0.0003612041473388672,0
0.7292101383209229,0.12530770897865295,0.01657211408019066,1.1413919925689697,-0.027947375273014382,-0.9750915697444752,0.13435832790691601,-0.4674957751034215,0.7983399810258418,0.44344473939587864,0.40417417421468343,-0.9020870871073416,0.6405540448458723,0.00017547607421875,0.00035858154296875,0
0.7391395568847656,0.12531106173992157,0.016245292499661446,1.1401015520095825,-0.027934915703872857,-0.9750915729509536,0.13439083980740513,-0.4704300500239112,0.7988379867180893,0.44149996560265653,0.40629764997210244,-0.9031488249860512,0.6447132699678172,0.0001766681671142578,0.0003509521484375,0
0.7491044998168945,0.12529733777046204,0.015673330053687096,1.1378101110458374,-0.02790165225449452,-0.9750915755161363,0.1341823653251363,-0.47373291006722096,0.7991865907026625,0.4395380110837857,0.4084193149356552,-0.9042096574678276,0.6488873755023529,0.0001900196075439453,0.0003857612609863281,0
0.7592391967773438,0.12528324127197266,0.015427220612764359,1.1368050575256348,-0.02789685191597216,-0.9750915775682825,0.13338488629878512,-0.4772673562231423,0.7994306134918637,0.4375321769583837,0.41056740509453205,-0.905283702547266,0.6531325874379937,0.0001850128173828125,0.0003600120544433594,0
0.7690732479095459,0.12526282668113708,0.015207844786345959,1.1358904838562012,-0.027901644938978395,-0.9750915792099996,0.13218705247226425,-0.48103752765928703,0.7996014294443047,0.43557581003612383,0.41264235569240165,-0.9063211778462008,0.6572518651435874,0.00018906593322753906,0.00037288665771484375,0
0.7791388034820557,0.1252354085445404,0.015014838427305222,1.1350630521774292,-0.027895830840966564,-0.9750915805233731,0.13057429895043737,-0.48498173665626254,0.7997210006110133,0.4335631981040146,0.4147564987433216,-0.9073782493716608,0.6614681152023736,0.0001957416534423828,0.0003731250762939453,0
0.7892963886260986,0.12512466311454773,0.014583838172256947,1.1331305503845215,-0.02789510295561835,-0.9750915815740718,0.12860938464567712,-0.4889154029144545,0.7998047004277093,0.43152178256657064,0.41688002011438413,-0.908440010057192,0.6657229145179386,0.00023293495178222656,0.0004374980926513672,0
0.7991492748260498,0.12512466311454773,0.014583838172256947,1.1331305503845215,-0.02789510295561835,-0.9750915824146309,0.12632695313714562,-0.4929463498914435,0.7998632902993965,0.4295316660359155,0.4189302422509154,-0.9094651211254576,0.6698500818382619,0.00018477439880371094,0.0003600120544433594,0
0.8092236518859863,0.12507961690425873,0.014485078863799572,1.132645845413208,-0.02789693751631266,-0.9750915830870783,0.12387311872963216,-0.4970639944610862,0.7999043032095776,0.42748674073383325,0.42101672947374,-0.9105083647368699,0.6740700270330604,0.000194549560546875,0.0003910064697265625,0
0.8190658092498779,0.12497284263372421,0.014348103664815426,1.1319036483764648,-0.02789328577205055,-0.975091583625036,0.12121146611439129,-0.501210764658155,0.7999330122467043,0.4254791642404105,0.4230454831306934,-0.9115227415653466,0.678192700269044,0.0001666545867919922,0.0003490447998046875,0
0.8292896747589111,0.12484791874885559,0.014293632470071316,1.13145112991333,-0.0278745999105609,-0.9750915840554023,0.11823136589986817,-0.5053234127452229,0.7999531085726931,0.42338353335367,0.4251427803514506,-0.9125713901757253,0.6824752630389731,0.0001862049102783203,0.0003714561462402344,0
0.8392989635467529,0.12484791874885559,0.014293632470071316,1.13145112991333,-0.0278745999105609,-0.9750915843996955,0.11511846783788805,-0.5094816884689319,0.7999671760008852,0.4213218700425469,0.4271860037780395,-0.9135930018890197,0.6866679441221121,0.00017714500427246094,0.00035452842712402344,0
0.8492205142974854,0.12477999925613403,0.014295787550508976,1.1313303709030151,-0.027867996461409326,-0.9750915846751298,0.11190966796601493,-0.5136501295106081,0.7999770232006196,0.4192685473477173,0.4292014506090757,-0.9146007253045378,0.690823873582208,0.00017547607421875,0.0003504753112792969,0
0.8593049049377441,0.12470772117376328,0.014316744171082973,1.1312898397445679,-0.027877230898229688,-0.9750915848954773,0.10855286927579882,-0.5178470136809514,0.7999839162404337,0.4171716445693073,0.431239862451675,-0.9156199312258375,0.6950480132557236,0.0001804828643798828,0.0003466606140136719,0
0.8691601753234863,0.12454946339130402,0.014419622719287872,1.131398320198059,-0.02787525129074615,-0.9750915850717554,0.10500612834324687,-0.5220572406433793,0.7999887413683037,0.4151128085600746,0.43322206334553975,-0.9166110316727698,0.6991761792614554,0.0001838207244873047,0.00036644935607910156,0
0.8792169094085693,0.12446300685405731,0.01449931412935257,1.131545066833496,-0.027874735227689868,-0.9750915852127777,0.10142576837369177,-0.5263420057033035,0.7999921189578125,0.41300217655225124,0.4352346518409387,-0.9176173259204693,0.7033887341842291,0.00018095970153808594,0.0003533363342285156,0
0.8893773555755615,0.12437073141336441,0.014597911387681961,1.1317508220672607,-0.02788815761201438,-0.9750915853255958,0.09761676230388308,-0.5306575378245428,0.7999944832704687,0.41085986944869834,0.4372575530240713,-0.9186287765120356,0.7076447319222847,0.00019359588623046875,0.00036835670471191406,0
0.8990762233734131,0.1241718977689743,0.014848342165350914,1.132338523864746,-0.0278811290886523,-0.9750915854158502,0.0938462261048642,-0.5350112555806722,0.7999961382893281,0.4088056411935582,0.4391787195758962,-0.9195893597879481,0.7117073841652006,0.00017881393432617188,0.000339508056640625,0
0.9092235565185547,0.1240670308470726,0.01499752327799797,1.1327182054519653,-0.027885347297322286,-0.9750915854880536,0.08990333777244096,-0.5392961765625134,0.7999972968025297,0.40664681248612766,0.44117838783747343,-0.9205891939187367,0.715957889133508,0.0001773834228515625,0.0003714561462402344,0
0.9192290306091309,0.12395869940519333,0.015163489617407322,1.1331522464752197,-0.027872421099908916,-0.9750915855458163,0.08589986011690762,-0.5435725037424206,0.7999981077617708,0.4045085867531003,0.44313971074934094,-0.9215698553746704,0.720148972319993,0.00020933151245117188,0.0004088878631591797,0
0.9291250705718994,0.12384606152772903,0.01534658670425415,1.1336541175842285,-0.027889435382045354,-0.9750915855920266,0.08178718173373423,-0.5478109967967876,0.7999986754332395,0.40238444250098254,0.4450693883353173,-0.9225346941676587,0.7242942158462148,0.00018835067749023438,0.00036787986755371094,0
0.9392030239105225,0.12360880523920059,0.015765314921736717,1.1348093748092651,-0.027873394414615588,-0.9750915856289948,0.07755315997433787,-0.5520966456226422,0.7999990728032677,0.40021179095587317,0.4470240736021858,-0.9235120368010928,0.7285156590691266,0.00020003318786621094,0.0003838539123535156,0
0.9492602348327637,0.12348233163356781,0.01599869504570961,1.1354591846466064,-0.02788545494962207,-0.9750915856585693,0.07331016994337114,-0.5563655312102975,0.7999993509622874,0.39803414515816066,0.44896416258785327,-0.9244820812939266,0.7327284137289822,0.00025153160095214844,0.0004508495330810547,0
0.9591906070709229,0.12335150688886642,0.016245288774371147,1.1361569166183472,-0.027901613752958177,-0.975091585682229,0.06903892255469003,-0.5605812736612386,0.7999995456736012,0.3958747354063543,0.45086937561443324,-0.9254346878072166,0.7368880383250905,0.00018477439880371094,0.0003688335418701172,0
0.969200849533081,0.12321896106004715,0.016505718231201172,1.136900782585144,-0.027906049988714134,-0.9750915857011566,0.06472573890559881,-0.5647635814520968,0.7999996819715208,0.39368872799984045,0.4527794004212953,-0.9263897002106476,0.7410811188823931,0.00019025802612304688,0.00038433074951171875,0
0.9790780544281006,0.12308190017938614,0.016779953613877296,1.1376897096633911,-0.02789885305384239,-0.9750915857162988,0.060357302406843893,-0.5689404779948604,0.7999997773800646,0.3915227402180362,0.45465365267658425,-0.9273268263382921,0.7452184727938856,0.00017142295837402344,0.000347137451171875,0
0.9892470836639404,0.12279248237609863,0.017372693866491318,1.139401912689209,-0.027885424634816337,-0.9750915857284124,0.055801726384977705,-0.5731702429392596,0.7999998441660452,0.3892834362759714,0.45657245453615763,-0.9282862272680787,0.7494780657994129,0.00019121170043945312,0.0003924369812011719,0
0.9992141723632812,0.12264234572649002,0.017690347507596016,1.1403452157974243,-0.027883510236576748,-0.9750915857381033,0.051220189729036976,-0.5773362878434519,0.7999998909162317,0.38707947554853644,0.4584424496150743,-0.9292212248075371,0.7536530701508165,0.0002143383026123047,0.0003910064697265625,0
1.0090560913085938,0.12248783558607101,0.01802052929997444,1.1413275003433228,-0.027884844132894472,-0.9750915857458561,0.04663977493815439,-0.5814820300064082,0.7999999236413622,0.3848943783850908,0.4602785216448346,-0.9301392608224173,0.7577756435182592,0.00018334388732910156,0.0003495216369628906,0
1.0192222595214844,0.1221630871295929,0.01871924288570881,1.1434071063995361,-0.027865363458071224,-0.9750915857520583,0.042145039662763416,-0.5858562928239287,0.7999999465489536,0.3826281479386362,0.4621641487664844,-0.9310820743832422,0.7620340381012959,0.00018072128295898438,0.0003523826599121094,0
1.0290920734405518,0.12199254333972931,0.019086340442299843,1.1445038318634033,-0.02785889543719738,-0.97509158575702,0.03749371710972512,-0.5901471266469972,0.7999999625842675,0.3804191422497685,0.463984133575654,-0.931992066787827,0.7661682960880213,0.00018167495727539062,0.0003571510314941406,0
1.0391840934753418,0.12181682139635086,0.019466696307063103,1.1456366777420044,-0.02785994976309263,-0.9750915857609895,0.03267897912480741,-0.5943573198109233,0.7999999738089872,0.37815145280321144,0.4658341751555166,-0.9329170875777583,0.7703956315548449,0.00018358230590820312,0.000362396240234375,0
1.049264669418335,0.12163859605789185,0.019859448075294495,1.1468054056167603,-0.027841242325549204,-0.9750915857641651,0.027806068967705867,-0.5985024102888289,0.799999981666291,0.37587735320944676,0.4676710546359062,-0.933835527317953,0.7746181733317065,0.00018548965454101562,0.00036644935607910156,0
1.0590639114379883,0.12157254666090012,0.0197074506431818,1.1456396579742432,-0.027842009812509495,-0.9750915857667055,0.02303643435856688,-0.6025287177105233,0.7999999871664037,0.37365816737690455,0.4694460287962112,-0.9347230143981056,0.7787228702303319,0.00016880035400390625,0.0003421306610107422,0
1.069108486175537,0.12167733162641525,0.019182920455932617,1.1434303522109985,-0.027853676993710188,-0.9750915857687378,0.0184877074614569,-0.6064457098075449,0.7999999910164827,0.3713747236077213,0.4712545115596121,-0.935627255779806,0.7829303318575209,0.0001785755157470703,0.00034499168395996094,0
1.0791919231414795,0.12177304178476334,0.018689468502998352,1.1413418054580688,-0.027851501037772078,-0.9750915857703637,0.013991052402535058,-0.6102178502504484,0.7999999937115378,0.36907364164243334,0.4730588198573119,-0.9365294099286559,0.7871540720568729,0.0002105236053466797,0.0003952980041503906,0
1.1183197498321533,0.12186037749052048,0.018227219581604004,1.1393702030181885,-0.027846451583934815,-0.9750915857716643,0.009315647355516023,-0.6170641231769558,0.7999999955980766,0.36006200440779323,0.47995349043614866,-0.9399767452180743,0.8035438977745203,0.00019693374633789062,0.0003757476806640625,0
1.1194303035736084,0.12210598587989807,0.01666553132236004,1.1326061487197876,-0.027855794706202915,-0.975091585772705,0.0040185463876912,-0.6215714751521175,0.7999999969186536,0.35980433511821075,0.48014668636797053,-0.9400733431839852,0.8040090854379299,0.00014972686767578125,0.0003077983856201172,0
1.1292376518249512,0.12214432656764984,0.01634448952972889,1.1311768293380737,-0.02784658526022337,-0.9750915857735374,-0.0008767724572452968,-0.6259904744756483,0.7999999978430575,0.357524354996351,0.4818467967979482,-0.940923398398974,0.8081171778669453,0.0001938343048095703,0.000392913818359375,0
1.1390981674194336,0.12219449132680893,0.015780122950673103,1.128640055656433,-0.027877099247607454,-0.9750915857742034,-0.0057653867919525165,-0.6301542271118578,0.7999999984901403,0.3552239162970879,0.483545209148596,-0.941772604574298,0.8122475409805764,0.00016236305236816406,0.00032448768615722656,0
1.1491904258728027,0.12221218645572662,0.015320631675422192,1.1265069246292114,-0.027882689282308894,-0.9750915857747361,-0.01052382448183669,-0.6341961648370565,0.7999999989430981,0.35286105807416773,0.48527216455797134,-0.9426360822789857,0.8164749763159408,0.00018072128295898438,0.00036144256591796875,0
1.1592891216278076,0.12221218645572662,0.015320631675422192,1.1265069246292114,-0.027882689282308894,-0.9750915857751622,-0.015431777512193802,-0.6380830468351641,0.7999999992601687,0.3504882890731505,0.4869886643676377,-0.9434943321838188,0.8207051081019092,0.00019216537475585938,0.0003745555877685547,0
1.1690523624420166,0.12220302224159241,0.014957190491259098,1.1247302293777466,-0.02790461078012609,-0.9750915857755033,-0.020328970419866695,-0.6417160944025032,0.7999999994821181,0.348186398916751,0.48863711648767033,-0.9443185582438351,0.8247947248508621,0.00017547607421875,0.0003476142883300781,0
1.179260015487671,0.12220302224159241,0.014957190491259098,1.1247302293777466,-0.02790461078012609,-0.9750915857757761,-0.02522506821494793,-0.6453082787398821,0.7999999996374827,0.34577143959026496,0.4903489691675468,-0.9451744845837733,0.8290704965600114,0.00019788742065429688,0.0003819465637207031,0
1.1889848709106445,0.12215956300497055,0.014585306867957115,1.122660756111145,-0.02789458674664779,-0.9750915857759944,-0.030612389803407927,-0.6477403690367357,0.7999999997462379,0.3434628727501523,0.4919687541320208,-0.9459843770660104,0.8331440344738832,0.00018167495727539062,0.00036263465881347656,0
1.1991643905639648,0.12215956300497055,0.014585306867957115,1.122660756111145,-0.02789458674664779,-0.9750915857761691,-0.03538050538697124,-0.6505086210137838,0.7999999998223666,0.34103824653228715,0.4936526252357855,-0.9468263126178927,0.837408021695209,0.00018405914306640625,0.0003688335418701172,0
1.2091853618621826,0.12216612696647644,0.014492884278297424,1.1220436096191406,-0.027794212853631695,-0.9750915857763086,-0.041336295742705156,-0.6515066941347221,0.7999999998756566,0.33864332074845177,0.49529859813294563,-0.9476492990664728,0.841605596336851,0.0001881122589111328,0.0003781318664550781,0
1.2190613746643066,0.12225303798913956,0.014331722632050514,1.1207275390625,-0.02733647113504646,-0.9750915857764203,-0.050733831348270385,-0.6473960156641234,0.7999999999129597,0.33627526615793074,0.496909393522011,-0.9484546967610055,0.8457424509056392,0.0001709461212158203,0.00033473968505859375,0
1.2290549278259277,0.12242800742387772,0.014195953495800495,1.1191142797470093,-0.02635081928698112,-0.9750915857765097,-0.06413772795593065,-0.6367927219067734,0.7999999999390718,0.33387122902882604,0.4985278351574575,-0.9492639175787287,0.8499285406650802,0.00016927719116210938,0.0003314018249511719,0
1.2393529415130615,0.12242800742387772,0.014195953495800495,1.1191142797470093,-0.02635081928698112,-0.9750915857765811,-0.06991166471458622,-0.6302981677853787,0.7999999999573503,0.3313858031034344,0.5001834158601141,-0.950091707930057,0.8542421625512223,0.00020003318786621094,0.0003726482391357422,0
1.2491719722747803,0.12254058569669724,0.014144930057227612,1.1181668043136597,-0.025511585637192132,-0.9750915857766381,-0.07968587434599449,-0.6205351095677615,0.7999999999701453,0.3290083332790613,0.5017504525488085,-0.9508752262744042,0.8583551485387408,0.00021600723266601562,0.00042700767517089844,0
1.25931978225708,0.12280735373497009,0.014109943062067032,1.1159230470657349,-0.02277707259421358,-0.9750915857766839,-0.09887273458183762,-0.6003076377684722,0.7999999999791017,0.3265434708824061,0.503358084889943,-0.9516790424449715,0.8626058532441299,0.0001742839813232422,0.0003421306610107422,0
1.2690491676330566,0.12312494218349457,0.014166761189699173,1.1130766868591309,-0.018583319187836397,-0.9750915857767204,-0.12279599955254931,-0.5695335402328952,0.7999999999853712,0.32417286533241635,0.5048880602491715,-0.9524440301245858,0.8666812886602782,0.00017881393432617188,0.0003528594970703125,0
1.2793309688568115,0.12312494218349457,0.014166761189699173,1.1130766868591309,-0.018583319187836397,-0.9750915857767497,-0.12923469421425496,-0.5486329710622483,0.7999999999897598,0.3216598720038606,0.5064927706714677,-0.9532463853357338,0.8709881194856407,0.00018405914306640625,0.0003578662872314453,0
1.2893555164337158,0.12330790609121323,0.014229883439838886,1.1113780736923218,-0.015952090216136607,-0.9750915857767731,-0.14045501287017992,-0.523952154388294,0.7999999999928319,0.31920210621264977,0.5080452887188388,-0.9540226443594193,0.8751871921553959,0.0001957416534423828,0.00036978721618652344,0
1.299147129058838,0.12374424189329147,0.014421610161662102,1.1072680950164795,-0.009744729487866434,-0.975091585776792,-0.15978182305537986,-0.4859961145042178,0.7999999999949823,0.31679421570138677,0.5095502182299044,-0.9547751091149521,0.8792886932607132,0.0001704692840576172,0.0003349781036376953,0
1.309030532836914,0.12430079281330109,0.014705217443406582,1.1020957231521606,-0.0023502874688649256,-0.975039254046895,-0.17875247002340228,-0.43791342464964755,0.7999999999964876,0.3143565574995438,0.5110576824166094,-0.9555288412083047,0.8834286437542687,0.00017499923706054688,0.0003437995910644531,0
1.3193488121032715,0.12430079281330109,0.014705217443406582,1.1020957231521606,-0.0023502874688649256,-0.9746021980768337,-0.17564948397413144,-0.40546481760882525,0.7999999999975413,0.3118039883071122,0.5126190328848298,-0.9563095164424149,0.8877507544663855,0.00019240379333496094,0.0003840923309326172,0
1.3292078971862793,0.12463992834091187,0.014885442331433296,1.0990822315216064,0.0017456219284364036,-0.973247918362855,-0.17690500334268142,-0.37064950842367145,0.799999999998279,0.30935777039629225,0.5140989884209411,-0.9570494942104706,0.8918805183687715,0.00016951560974121094,0.0003445148468017578,0
1.3393137454986572,0.1254562884569168,0.01531929336488247,1.0921531915664673,0.01058172380730559,-0.9704975803130089,-0.18356372655829015,-0.32356029087651333,0.7999999999987953,0.30684303625796766,0.5156038703306943,-0.9578019351653471,0.896113646210966,0.00017952919006347656,0.0003502368927001953,0
1.3490333557128906,0.12649735808372498,0.015850048512220383,1.0839804410934448,0.020190441265602165,-0.9663420665509509,-0.1867834724500394,-0.2687775197396059,0.7999999999991567,0.30441750662535944,0.5170396325814872,-0.9585198162907436,0.9001849870169384,0.0001800060272216797,0.000354766845703125,0
1.3591854572296143,0.12649735808372498,0.015850048512220383,1.0839804410934448,0.020190441265602165,-0.9621702066697257,-0.16807205595496752,-0.23420726803215514,0.7999999999994097,0.3018768765601495,0.5185270980366293,-0.9592635490183146,0.9044374893560632,0.0001804828643798828,0.0003533363342285156,0
1.3692278861999512,0.12711365520954132,0.01615087315440178,1.0794122219085693,0.02524381233153879,-0.9576299031628593,-0.15380101995187254,-0.19949194025367348,0.7999999999995868,0.2993565419187542,0.5199862121349422,-0.9599931060674711,0.9086440521663842,0.00018286705017089844,0.0003693103790283203,0
1.3790781497955322,0.12855976819992065,0.016820626333355904,1.0692825317382812,0.035740974888349326,-0.9521019797797587,-0.1439045386958172,-0.15410156430851293,0.7999999999997108,0.2968775830993641,0.5214055050084149,-0.9607027525042073,0.9127701209327576,0.0001652240753173828,0.0003261566162109375,0
1.3894069194793701,0.13031531870365143,0.017582759261131287,1.057809591293335,0.046676292532459966,-0.9455012470526506,-0.12960140773198273,-0.10349732221491695,0.7999999999997975,0.29427097522684464,0.5228810506597478,-0.9614405253298739,0.9170966258606731,0.00019288063049316406,0.0003674030303955078,0
1.3993620872497559,0.13031531870365143,0.017582759261131287,1.057809591293335,0.046676292532459966,-0.9393811705244627,-0.09834613447881145,-0.0735766083160049,0.7999999999998583,0.2917517097267486,0.5242908924170999,-0.9621454462085499,0.9212666367850327,0.00019073486328125,0.0003762245178222656,0
1.4091296195983887,0.13131916522979736,0.017996808513998985,1.0515618324279785,0.05229503433249549,-0.9332588245596353,-0.07293269638929284,-0.04365507745758328,0.7999999999999008,0.2892733625137633,0.5256623647741779,-0.962831182387089,0.9253580511677215,0.00017547607421875,0.00035309791564941406,0
1.419248104095459,0.1336001604795456,0.018884170800447464,1.0380322933197021,0.06375348626040472,-0.9262872812526732,-0.05096099354757749,-0.004486551078018701,0.7999999999999305,0.2866991692757897,0.5270707602747207,-0.9635353801373603,0.9295964720425826,0.0001800060272216797,0.0003612041473388672,0
1.4292185306549072,0.13626006245613098,0.019843121990561485,1.0232120752334595,0.07546713596620157,-0.9183182798831603,-0.024926746472166354,0.03829832885628235,0.7999999999999514,0.28415593526475713,0.5284462171818539,-0.964223108590927,0.9337728745535585,0.0001780986785888672,0.00035953521728515625,0
1.4392516613006592,0.13626006245613098,0.019843121990561485,1.0232120752334595,0.07546713596620157,-0.9111894853909155,0.012532366343778516,0.062308144710466674,0.799999999999966,0.2815900459124707,0.5298179366943069,-0.9649089683471535,0.9379755424907853,0.0001881122589111328,0.0003628730773925781,0
1.449247121810913,0.1377398669719696,0.020346907898783684,1.015285611152649,0.08140729660606998,-0.9043283169647083,0.04414207691618196,0.08629065270260292,0.7999999999999762,0.27902720596069486,0.5311721174287746,-0.9655860587143872,0.9421624311985534,0.00019884109497070312,0.0003914833068847656,0
1.4592041969299316,0.14085720479488373,0.02043718472123146,0.9955707788467407,0.09345130539702376,-0.8966682496869478,0.07378171160566346,0.11766560029814163,0.7999999999999834,0.2764677332772024,0.5325087721874313,-0.9662543860937156,0.9463332410712401,0.00017976760864257812,0.0003464221954345703,0
1.4693090915679932,0.14425347745418549,0.019679971039295197,0.9719465970993042,0.10562553451846281,-0.888040065073862,0.10691029212871783,0.15133451757427802,0.7999999999999884,0.2738637175486318,0.5338526615185534,-0.9669263307592766,0.9505659694392711,0.00019931793212890625,0.00037932395935058594,0
1.4792158603668213,0.14425347745418549,0.019679971039295197,0.9719465970993042,0.10562553451846281,-0.8805251232146295,0.14654040751837985,0.16931689407045045,0.7999999999999918,0.2713044166493127,0.5351578398067024,-0.9675789199033511,0.9547157070498324,0.0001895427703857422,0.00036716461181640625,0
1.4892261028289795,0.1461092233657837,0.019350606948137283,0.9597895741462708,0.11176059952501201,-0.8734590979115753,0.18121207201273243,0.18725627061053818,0.7999999999999943,0.2687120668867696,0.5364641880959439,-0.9682320940479718,0.9589087876071352,0.00018668174743652344,0.0003695487976074219,0
1.4992425441741943,0.14806939661502838,0.01905173249542713,0.9474108219146729,0.11790799949020217,-0.8666749188748736,0.21571820615829382,0.20344753254636513,0.799999999999996,0.26611181600026784,0.5377587762045726,-0.9688793881022862,0.9631044647465005,0.00032782554626464844,0.0006716251373291016,0
1.5092835426330566,0.1545739322900772,0.018329516053199768,0.9091061353683472,0.13642524805254916,-0.8581952833935557,0.24566461735022252,0.23249228208962774,0.7999999999999973,0.26349893040421113,0.5390438884505014,-0.9695219442252507,0.9673104283455762,0.0003504753112792969,0.0006105899810791016,0
1.519310474395752,0.1545739322900772,0.018329516053199768,0.9091061353683472,0.13642524805254916,-0.8508073805056834,0.2837733664190497,0.24669689642729403,0.799999999999998,0.2608835123728946,0.5403145315202819,-0.9701572657601409,0.9715104997007402,0.00017547607421875,0.00035119056701660156,0
1.529207468032837,0.15694402158260345,0.018142908811569214,0.8959597945213318,0.14263085758333702,-0.8439995673986627,0.31694758128553674,0.2609345665645504,0.7999999999999986,0.25829597853967196,0.5415562643624697,-0.9707781321812348,0.9756561427011257,0.000194549560546875,0.00038909912109375,0
1.5391933917999268,0.15941423177719116,0.017982767894864082,0.8826403021812439,0.14885875085332978,-0.8376014114020428,0.3496837366489809,0.2736308403727731,0.799999999999999,0.2556792044007643,0.5427965958229585,-0.9713982979114792,0.9798390366672587,0.00017261505126953125,0.000335693359375,0
1.5490267276763916,0.16739380359649658,0.017664717510342598,0.8417648077011108,0.16750452466471405,-0.8296881164949244,0.3774980374928612,0.2956457614101786,0.7999999999999994,0.2530965950074233,0.544005619084627,-0.9720028095423134,0.9839580147672297,0.00017881393432617188,0.00035381317138671875,0
1.5592091083526611,0.16739380359649658,0.017664717510342598,0.8417648077011108,0.16750452466471405,-0.822928984607158,0.41137896627573595,0.3062592203752364,0.7999999999999996,0.25041628896513163,0.5452446076954193,-0.9726223038477095,0.988223200411046,0.0002014636993408203,0.0003800392150878906,0
1.5691916942596436,0.17023718357086182,0.017611615359783173,0.8278735876083374,0.1737024294632613,-0.8167985448574427,0.4411017302228667,0.31698764436428545,0.7999999999999997,0.24778268675247495,0.5464464659467795,-0.9732232329733896,0.9924046962176067,0.00017380714416503906,0.0003535747528076172,0
1.5792508125305176,0.17316806316375732,0.017584647983312607,0.813850998878479,0.17988697860388395,-0.8111018372352202,0.4699505648654579,0.3264211646804892,0.7999999999999998,0.2451230594032537,0.5476446710676448,-0.9738223355338224,0.9966182498257892,0.00019812583923339844,0.0003795623779296875,0
1.5891249179840088,0.18246513605117798,0.017665529623627663,0.7710943818092346,0.19850404512321296,-0.8040705050978242,0.49190465966875774,0.3428837836883062,0.7999999999999999,0.24250671390240072,0.5488082485825619,-0.9744041242912809,1.0007543054462504,0.00017690658569335938,0.00036787986755371094,0
1.5991573333740234,0.18246513605117798,0.017665529623627663,0.7710943818092346,0.19850404512321296,-0.7981518982399773,0.519663743910559,0.3509063854351575,0.7999999999999999,0.23984276453555606,0.549977679819774,-0.9749888399098869,1.0049566737778546,0.00017881393432617188,0.0003581047058105469,0
1.6092431545257568,0.1857234090566635,0.017749017104506493,0.7566438913345337,0.20473534286467748,-0.792852557744097,0.5437554975979834,0.35913927446416594,0.7999999999999999,0.23715895001661524,0.5511403019440845,-0.9755701509720422,1.0091814126626153,0.000194549560546875,0.00038242340087890625,0
1.619168758392334,0.19246400892734528,0.018003545701503754,0.7275044918060303,0.21714764345795798,-0.7871957833250566,0.5635578717845771,0.3695028755723605,0.7999999999999999,0.23451226667965985,0.5522716693591734,-0.9761358346795866,1.0133390398879063,0.00018453598022460938,0.00036263465881347656,0
1.6291084289550781,0.1994813084602356,0.01838742382824421,0.6980887055397034,0.2296006407308263,-0.7811248458680535,0.579571625078804,0.3803872082504447,0.7999999999999999,0.23185642398841205,0.5533919033156391,-0.9766959516578195,1.0175025593571088,0.00018072128295898438,0.0003535747528076172,0
1.6392788887023926,0.1994813084602356,0.01838742382824421,0.6980887055397034,0.2296006407308263,-0.7762187885910433,0.6005168241601374,0.38639864830958,0.7999999999999999,0.22913337697022274,0.554524927805975,-0.9772624639029874,1.0217627515738814,0.0003437995910644531,0.0007238388061523438,0
1.6492679119110107,0.20308639109134674,0.018629584461450577,0.6832926273345947,0.23583635901623318,-0.7718827155149611,0.6184137739097493,0.3926770919165912,0.7999999999999999,0.22645351822735438,0.5556246971494817,-0.9778123485747408,1.0259469438310458,0.0003154277801513672,0.00063323974609375,0
1.6594080924987793,0.2104690968990326,0.019214430823922157,0.6535652279853821,0.24828579833248834,-0.7672238548339478,0.6303952551885856,0.40034857380272226,0.7999999999999999,0.2237277084969697,0.5567278621110092,-0.9783639310555046,1.0301944527431268,0.0003032684326171875,0.0006163120269775391,0
1.6691575050354004,0.21423839032649994,0.01956014893949032,0.6386450529098511,0.2545285010980642,-0.7628236982193202,0.642316323964476,0.40635991552728545,0.7999999999999999,0.22110187422352684,0.5577759059110062,-0.978887952955503,1.0342782771167087,0.0002970695495605469,0.0006113052368164062,0
1.6792893409729004,0.2180558443069458,0.019944559782743454,0.6236949563026428,0.2607759781865933,-0.7587795853743371,0.652751797688219,0.411730006299482,0.7999999999999999,0.2183678397305924,0.5588519361793375,-0.9794259680896686,1.038522290629859,0.000301361083984375,0.0006129741668701172,0
1.6895322799682617,0.2219248116016388,0.02036965824663639,0.6087213754653931,0.26704402656163817,-0.7550602619259454,0.6619775239593708,0.4165454028689547,0.7999999999999999,0.2155985018764818,0.5599261433337585,-0.9799630716668792,1.0428128428830583,0.00031065940856933594,0.0006291866302490234,0
1.699117660522461,0.22978824377059937,0.021345876157283783,0.5787665247917175,0.2795876940812856,-0.7510452653605787,0.6637848010212853,0.4224224975579761,0.7999999999999999,0.21300215774050846,0.5609189609898096,-0.9804594804949047,1.0468279577005164,0.0001804828643798828,0.00037360191345214844,0
1.7091259956359863,0.23377516865730286,0.021901842206716537,0.5637727379798889,0.28589719464106944,-0.7472481466865946,0.6663965562005789,0.42699071023400015,0.7999999999999999,0.21028637218338594,0.5619427387856796,-0.9809713693928397,1.0510202393094918,0.00018310546875,0.0003762245178222656,0
1.7192111015319824,0.2377934455871582,0.02250557765364647,0.5487746000289917,0.2921972298834727,-0.7437622823430926,0.6681185451768771,0.4310998906870285,0.7999999999999999,0.2075447776218365,0.562961069064196,-0.9814805345320979,1.05524467858863,0.00020051002502441406,0.00039315223693847656,0
1.7290852069854736,0.2418399453163147,0.023157551884651184,0.53377765417099,0.29852422007283075,-0.7405619243413751,0.669029914875767,0.43475684823155236,0.7999999999999999,0.20485576478339454,0.563945135305741,-0.9819725676528704,1.0593807342090913,0.00018286705017089844,0.00035762786865234375,0
1.739323616027832,0.24999664723873138,0.02461441606283188,0.5038079619407654,0.3111883181556657,-0.7371418982663482,0.6621298908586186,0.43849881282376757,0.7999999999999999,0.20206261495402647,0.564951944538596,-0.982475972269298,1.063669388960014,0.00031447410583496094,0.0006279945373535156,0
1.7492051124572754,0.2541019916534424,0.02542201057076454,0.48884376883506775,0.31754309406571085,-0.7339078256493489,0.6563175039083645,0.44142738131671766,0.7999999999999999,0.1993621418268417,0.5659105374581872,-0.9829552687290936,1.0678085405052424,0.0003402233123779297,0.0006809234619140625,0
1.7592763900756836,0.25822219252586365,0.026284929364919662,0.4739001393318176,0.323915699689343,-0.7309369015188593,0.6501499959851212,0.44407411851409667,0.7999999999999999,0.19660512538051855,0.5668742582567236,-0.9834371291283617,1.0720271874090097,0.0003135204315185547,0.000637054443359375,0
1.7693026065826416,0.26235654950141907,0.02720273658633232,0.45898768305778503,0.33030572347060194,-0.7282025928502853,0.6434804453480393,0.44659291301972753,0.7999999999999999,0.19385581715950656,0.5678203255902522,-0.9839101627951261,1.076226959158551,0.000316619873046875,0.0006437301635742188,0
1.779141902923584,0.27065038681030273,0.02921217866241932,0.4292467534542084,0.34317988748349026,-0.7252988225511255,0.6283540865644259,0.4491442251653802,0.7999999999999999,0.19115333855892147,0.5687357920491538,-0.9843678960245769,1.080348433972044,0.0002906322479248047,0.0006060600280761719,0
1.789318561553955,0.2748020589351654,0.03030930459499359,0.41442441940307617,0.34963987181349554,-0.7225268705301642,0.6150141646906074,0.4510407312303049,0.7999999999999999,0.1883536523240328,0.5696691159402951,-0.9848345579701475,1.0846112227708793,0.00021576881408691406,0.0003979206085205078,0
1.7991926670074463,0.2789519131183624,0.03146844357252121,0.3996387720108032,0.35610694524196845,-0.7199656556531274,0.6016714079183975,0.45279086855713696,0.7999999999999999,0.18563284485653966,0.5705615189534498,-0.9852807594767248,1.0887472783913406,0.0001957416534423828,0.00037789344787597656,0
1.8091049194335938,0.28309762477874756,0.032691147178411484,0.38489434123039246,0.3625902977496419,-0.7175970327651747,0.5882342063994928,0.4544219452029743,0.7999999999999999,0.18289727366881045,0.5714442993717902,-0.985722149685895,1.0928993129783422,0.00018095970153808594,0.00035071372985839844,0
1.8191421031951904,0.2913583517074585,0.03533770516514778,0.3555409014225006,0.37565536941899624,-0.7151105876989458,0.5659271187898902,0.45592292454851074,0.7999999999999999,0.18012294683553493,0.572324841347362,-0.986162420673681,1.097103678680764,0.00019669532775878906,0.00038170814514160156,0
1.8290507793426514,0.295461505651474,0.03676809370517731,0.3409380316734314,0.3821949562814421,-0.712721279744044,0.545998777987949,0.4571334777289483,0.7999999999999999,0.17737998191013807,0.5731808981617924,-0.9865904490808961,1.1012542152396523,0.00017786026000976562,0.0003521442413330078,0
1.8393476009368896,0.2995481789112091,0.03826715052127838,0.32642483711242676,0.38876151735407705,-0.7104959780773936,0.5268395948231903,0.4581071702883747,0.7999999999999999,0.17452525924348167,0.5740565598318649,-0.9870282799159324,1.1055673377830901,0.0002951622009277344,0.0006039142608642578,0
1.8493876457214355,0.30361199378967285,0.03983524814248085,0.311964750289917,0.39534512056795706,-0.7084298726404529,0.5081831959094241,0.45874212658190416,0.7999999999999999,0.1717375634342894,0.574896694464017,-0.9874483472320085,1.1097729019080025,0.00031828880310058594,0.0006361007690429688,0
1.8592538833618164,0.30764690041542053,0.041475795209407806,0.29756060242652893,0.4019645207560881,-0.7065000960001063,0.4893733453174197,0.4591137941649108,0.7999999999999999,0.1689941865751646,0.5757090974648554,-0.9878545487324277,1.1139056618666148,0.0002930164337158203,0.0005996227264404297,0
1.86932373046875,0.3148873448371887,0.04185812920331955,0.2633948028087616,0.4152283180078786,-0.7043126559526771,0.464586201021118,0.45690866609682407,0.7999999999999999,0.16619023254492782,0.5765247666897432,-0.9882623833448716,1.1181237095591368,0.00023031234741210938,0.0004229545593261719,0
1.879251480102539,0.31846922636032104,0.04220886901021004,0.24651610851287842,0.42190041538136125,-0.702103239993561,0.44195731083438977,0.454275107034646,0.7999999999999999,0.16342199163619556,0.577315557255873,-0.9886577786279365,1.1222822356012954,0.0002677440643310547,0.0005552768707275391,0
1.889209508895874,0.322020560503006,0.042667459696531296,0.2297721654176712,0.4285804298622405,-0.6999582977648725,0.42033709276500525,0.4512660726484764,0.7999999999999999,0.16064152799207163,0.5780954069047535,-0.9890477034523767,1.1264534449481456,0.0001862049102783203,0.0003859996795654297,0
1.8993453979492188,0.3255329430103302,0.04323570057749748,0.21316348016262054,0.4352852726550843,-0.6979017742016856,0.3992597080538902,0.44800713842995693,0.7999999999999999,0.15780758147159818,0.5788754332583866,-0.9894377166291932,1.1306991562264908,0.0001919269561767578,0.0003724098205566406,0
1.9091696739196777,0.32900646328926086,0.043913666158914566,0.1966915726661682,0.4419698276193949,-0.6959330576003709,0.37837769802308757,0.4446315979885721,0.7999999999999999,0.15505714543825933,0.5796182205974364,-0.9898091102987181,1.1348143393219086,0.00018835067749023438,0.00037860870361328125,0
1.9192750453948975,0.33582812547683716,0.04559309035539627,0.16421355307102203,0.45543773248839936,-0.6938061101035787,0.35028061872924576,0.43991480535803884,0.7999999999999999,0.15222436619603721,0.5803686262507776,-0.9901843131253887,1.1390472674270213,0.00018739700317382812,0.0003628730773925781,0
1.929335117340088,0.3391704857349396,0.0465957410633564,0.14817827939987183,0.46220966623441223,-0.6917120091299539,0.32448078841132844,0.4354942903441133,0.7999999999999999,0.14940067849455216,0.5811019164185981,-0.9905509582092991,1.1432612205093673,0.00019931793212890625,0.0003750324249267578,0
1.9390788078308105,0.3456987738609314,0.04892997071146965,0.11652238667011261,0.4757893718996942,-0.6895360394529145,0.29197555478420323,0.4301245416913582,0.7999999999999999,0.14666242573494429,0.5817990485361264,-0.9908995242680632,1.1473426480379683,0.00017571449279785156,0.00034499168395996094,0
1.949148178100586,0.34888163208961487,0.05025641247630119,0.1009029671549797,0.48256871871309387,-0.6874332248472192,0.2630565614901779,0.42534654888238366,0.7999999999999999,0.1438292309019231,0.5825059247236557,-0.9912529623618278,1.1515604959934085,0.00019359588623046875,0.0003829002380371094,0
1.9592564105987549,0.35200732946395874,0.051687661558389664,0.08542119711637497,0.48939064814530203,-0.6854661356243051,0.23606016180111317,0.4209398223997699,0.7999999999999999,0.14098167521380392,0.5832016523072525,-0.9916008261536262,1.1557946225210118,0.00019121170043945312,0.00038051605224609375,0
1.9691448211669922,0.3550724983215332,0.05322672426700592,0.07007784396409988,0.49620569575584106,-0.6836379098678389,0.21040098247354666,0.41687639132650023,0.7999999999999999,0.13819278830419138,0.5838687808580906,-0.9919343904290452,1.1599366702539258,0.00019693374633789062,0.0003864765167236328,0
1.9792420864105225,0.36100342869758606,0.05662388727068901,0.039831630885601044,0.50985575206688,-0.6817772982759805,0.17789950640385724,0.4122087302917281,0.7999999999999999,0.13534174009534955,0.5845362378740627,-0.9922681189370313,1.1641662028286488,0.000194549560546875,0.00037670135498046875,0
