time,x,y,z,yaw,throttle,roll_rate,pitch_rate,yaw_rate,x_ref,y_ref,z_ref,yaw_ref,pred_time,nr_time,metadata
7.152557373046875e-07,0.00820368155837059,-0.007963798940181732,0.0034826931077986956,-0.007421803151171729,-0.7267678239423945,0.13167895241053085,-0.2998316709338144,0.12844699467738652,0.5557047111578932,0.22625709711945496,-0.8131285485597275,0.3351035159885339,0.0003380775451660156,0.0005064010620117188,Sim
0.010018348693847656,0.008181838318705559,-0.007996215485036373,0.0036099262069910765,-0.0074436160137266606,-0.7444730008267146,0.2035456752772098,-0.44988216965367006,0.21994163695570293,0.5546027233948445,0.22894501349237004,-0.814472506746185,0.3392996924706036,0.00014519691467285156,0.00029540061950683594,Nonlinear
0.019966602325439453,0.008162307552993298,-0.008028862997889519,0.003736095270141959,-0.0074779749385425025,-0.7586096995704887,0.24263293451938758,-0.554917518757569,0.28556343917360905,0.5534955012070745,0.23160900272556184,-0.8158045013627808,0.34346680720727785,0.0002307891845703125,0.0005135536193847656,0OrderHold
0.030118703842163086,0.008145695552229881,-0.008061450906097889,0.0038625483866780996,-0.007486576330902526,-0.7702696966609615,0.26247965458886907,-0.6284422631302983,0.33309661462480866,0.5523523991473313,0.23432205862058153,-0.8171610293102907,0.3477193095464028,0.00026297569274902344,0.0005724430084228516,QuatYawError
0.04012417793273926,0.008115733973681927,-0.008129236288368702,0.004127402324229479,-0.007494533488527273,-0.7800361709102821,0.27119433659411174,-0.6799095841912088,0.3679444775703618,0.5512127951400164,0.23699041008853117,-0.8184952050442655,0.3519103927328877,0.0002288818359375,0.0005061626434326172,NoPyJoules
0.050035715103149414,0.008103152737021446,-0.00816401094198227,0.004261994268745184,-0.007503514475465146,-0.7882609719098661,0.2735998872519044,-0.7159367089338462,0.3938982501203767,0.5500711808347267,0.2396282454450837,-0.8198141227225418,0.3560621277142667,0.00014472007751464844,0.00030350685119628906,0
0.060195207595825195,0.008092137984931469,-0.008200221695005894,0.004399282392114401,-0.0075260378069487216,-0.7951986884805403,0.27263668196427904,-0.7411556962536924,0.4136701865036593,0.5488879062283821,0.24232636339495284,-0.8211631816974764,0.3603177259781589,0.00023937225341796875,0.0005438327789306641,0
0.07005476951599121,0.008083715103566647,-0.008237382397055626,0.004536135587841272,-0.007547312332081056,-0.8010220449379193,0.2700114407881611,-0.7588089873775847,0.4290672562836864,0.5477269102453749,0.24493924102326892,-0.8224696205116344,0.36444768961762647,0.00022745132446289062,0.0005006790161132812,0
0.08013224601745605,0.008114072494208813,-0.008314915932714939,0.004677401389926672,-0.007536808080302302,-0.8055888618881341,0.2664069404501818,-0.7711662911643093,0.44142423234247774,0.5465274008819591,0.24760411968545742,-0.8238020598427287,0.3686689331034566,0.00024271011352539062,0.0005443096160888672,0
0.09008407592773438,0.008172675967216492,-0.008348734118044376,0.004595915321260691,-0.007501707193815323,-0.8091581757949835,0.2623240863978752,-0.7798164038150166,0.45162418253799647,0.5453301229775043,0.250230008139192,-0.8251150040695959,0.37283754586824397,0.0002276897430419922,0.000499725341796875,0
0.10010409355163574,0.008268189616501331,-0.008376741781830788,0.004376164637506008,-0.007459480437405663,-0.8118666404365195,0.2580230906239547,-0.7858714826705117,0.46032225332895155,0.5441118952313716,0.2528680396327794,-0.8264340198163896,0.3770347210357225,0.0002269744873046875,0.0005133152008056641,0
0.11010909080505371,0.008401943370699883,-0.00839676707983017,0.003994285129010677,-0.0073588465997543265,-0.8138370541213161,0.25349511583754314,-0.7901100378693582,0.4679447464870356,0.5428827609466693,0.2554961993199143,-0.8277480996599571,0.3812256044851257,0.0002276897430419922,0.0004999637603759766,0
0.12006306648254395,0.008777850307524204,-0.008416310884058475,0.0027241050265729427,-0.006977506183683255,-0.8148759981736983,0.24702487761988653,-0.7795861104844244,0.47470105588484224,0.5416472972570937,0.25810502779699107,-0.8290525138984954,0.385395116066781,0.00022864341735839844,0.0005061626434326172,0
0.13004469871520996,0.009017618373036385,-0.008421550504863262,0.0018252730369567871,-0.00667798468003925,-0.8153328722923835,0.24079335513243033,-0.763244471383919,0.48088606302413284,0.5403958119695019,0.26071510582592394,-0.8303575529129619,0.38957621239917817,0.0002357959747314453,0.0005259513854980469,0
0.1402144432067871,0.009283970110118389,-0.008425198495388031,0.0007455978775396943,-0.00628443603964234,-0.8152650045222456,0.23458134060745223,-0.7426473250597821,0.4866654470106662,0.5391078065037131,0.26336813202579196,-0.8316840660128959,0.393836105010328,0.00022673606872558594,0.0005166530609130859,0
0.1500566005706787,0.009580097161233425,-0.008429035544395447,-0.0005161597509868443,-0.005787860467151663,-0.8147416260817812,0.22806963049130555,-0.7187791845143572,0.4920708024250096,0.5378488877281694,0.26592964101350386,-0.8329648205067519,0.39795877824631154,0.0002338886260986328,0.0005185604095458984,0
0.16023588180541992,0.010256366804242134,-0.008416458033025265,-0.003579820739105344,-0.004228238797222313,-0.8136250230489471,0.21695862187764486,-0.681939199331649,0.49686865084618803,0.5365340444017626,0.2685725585347234,-0.8342862792673617,0.40222266559909653,0.00023436546325683594,0.0005517005920410156,0
0.17014455795288086,0.010635760612785816,-0.008392867632210255,-0.005379520822316408,-0.0031601735889217157,-0.8121223555506046,0.20593215804424092,-0.6451895539713342,0.5013830714974171,0.5352416809054467,0.27113897363070477,-0.8355694868153524,0.40637320215798506,0.00026226043701171875,0.0005540847778320312,0
0.18010640144348145,0.011047576554119587,-0.008356105536222458,-0.007384763099253178,-0.0018829512979441781,-0.8103150185673889,0.1950335393721233,-0.6081045918923652,0.5056290103105342,0.5339300080991138,0.2737128905464268,-0.8368564452732133,0.41054600940148933,0.00025391578674316406,0.0005593299865722656,0
0.19005393981933594,0.011496053077280521,-0.008304973132908344,-0.009570513851940632,-0.0004013690816980942,-0.8082684939455312,0.1842205292993148,-0.5705779695465168,0.5096081298227648,0.532607867890536,0.2762767798080346,-0.8381383899040172,0.41471282453254094,0.00024962425231933594,0.0005605220794677734,0
0.2001345157623291,0.012499470263719559,-0.008070585317909718,-0.01456819660961628,0.0031056187017840246,-0.8058420959078422,0.1689084498188772,-0.5192777646393096,0.5126618462288316,0.5312554860445995,0.27886844308296405,-0.839434221541482,0.4189353663094024,0.0002484321594238281,0.0005500316619873047,0
0.20996785163879395,0.013064777478575706,-0.007886559702455997,-0.01737431064248085,0.005120944282000554,-0.8031511142453173,0.15513605968613084,-0.4711693606211141,0.5155883174079846,0.5299241222299114,0.2813901645027025,-0.8406950822513513,0.4230543444093735,0.00014662742614746094,0.0003063678741455078,0
0.22013592720031738,0.013681926764547825,-0.0076806191354990005,-0.020350009202957153,0.007274216793517808,-0.8003017202243464,0.14268988720309217,-0.425473068762939,0.518426567615774,0.5285348494424927,0.28399104374046985,-0.8419955218702349,0.42731353794073723,0.00014925003051757812,0.0003116130828857422,0
0.2299962043762207,0.014356034807860851,-0.007451798766851425,-0.023491891101002693,0.009590678476210462,-0.7973544370839248,0.13129105266592378,-0.38164650927751576,0.5210935183471085,0.5271754397804224,0.28650664161990785,-0.8432533208099539,0.4314438011858275,0.00015878677368164062,0.0003273487091064453,0
0.24008584022521973,0.01588742807507515,-0.006918704602867365,-0.03026614524424076,0.014704596376806638,-0.794156087164409,0.11675731362127828,-0.32543840853985917,0.5226275409394197,0.5257720152416092,0.28907401818353895,-0.8445370090917694,0.43567013796724235,0.0001437664031982422,0.0003027915954589844,0
0.25001978874206543,0.01675039902329445,-0.006609377451241016,-0.03388331085443497,0.017450671269959674,-0.7908409620235995,0.10436478741841815,-0.27466709810339457,0.5242319996531785,0.52437803068751,0.2915950632851812,-0.8457975316425905,0.4398312605914639,0.00016760826110839844,0.00034499168395996094,0
0.25989389419555664,0.01768229529261589,-0.006268002558499575,-0.03765133395791054,0.020306720755339423,-0.7874980660478142,0.09351091819659299,-0.2279854497841707,0.5258351230534652,0.5229804644092191,0.29409426013833984,-0.8470471300691699,0.4439673162119251,0.00014591217041015625,0.0003020763397216797,0
0.27009081840515137,0.018687497824430466,-0.005893859546631575,-0.041567012667655945,0.023289396015474334,-0.7841832463423201,0.08412000808008938,-0.18440140222254742,0.5274405353203746,0.5215247055816082,0.2966681335567015,-0.8483340667783508,0.44823859383673503,0.00021958351135253906,0.00047087669372558594,0
0.28018736839294434,0.02092766761779785,-0.005045967176556587,-0.04981807991862297,0.02956433124910034,-0.7807021906336722,0.07252990142652505,-0.1300115668772664,0.5277971855580424,0.5200707955993059,0.2992095713119903,-0.8496047856559951,0.45246782680583536,0.00015664100646972656,0.0003178119659423828,0
0.28990745544433594,0.022168833762407303,-0.0045652976259589195,-0.054140739142894745,0.032825471693613655,-0.7772430425963042,0.06295061427536805,-0.08164857847452368,0.5283507407613652,0.5186593956148018,0.3016495173881246,-0.8508247586940623,0.45653936734888934,0.00014066696166992188,0.00029754638671875,0
0.30010294914245605,0.02349711023271084,-0.004044404253363609,-0.05858825147151947,0.03617798851445521,-0.7738670344179689,0.05509338009398947,-0.037741469938457506,0.5290825400009443,0.5171666644305395,0.3042016456263669,-0.8521008228131834,0.46081004576245416,0.00014352798461914062,0.0003025531768798828,0
0.30988478660583496,0.02491353452205658,-0.0034837692510336637,-0.06315625458955765,0.03961774947853061,-0.7706041486323446,0.0486469011157063,0.0026876826215922814,0.5298414165428201,0.5157226925173447,0.3066432853050271,-0.8533216426525135,0.4649074522575955,0.00013518333435058594,0.00028324127197265625,0
0.32007360458374023,0.026418624445796013,-0.0028822249732911587,-0.06783900409936905,0.043154029666238033,-0.7674742923838707,0.04339328226746825,0.04047839885995181,0.5306469808371344,0.5142063868443617,0.3091792226661853,-0.8545896113330926,0.46917533435201564,0.00014328956604003906,0.0003025531768798828,0
0.3299896717071533,0.029704073444008827,-0.001552904024720192,-0.07751259952783585,0.05039886928585994,-0.7642055619834162,0.03650215990387762,0.08777655040395228,0.5300516731671656,0.5127186983034516,0.31164007510269615,-0.8558200375513481,0.4733289668356713,0.00014662742614746094,0.00030231475830078125,0
0.34000587463378906,0.03148644044995308,-0.0008250136743299663,-0.0825008824467659,0.05413041744898316,-0.7610518515876069,0.03152604425018848,0.1293565875982011,0.5298089687135867,0.5112040308259272,0.3141185108638528,-0.8570592554319263,0.4775245441064958,0.00013709068298339844,0.00029206275939941406,0
0.3501744270324707,0.03336189687252045,-5.58783758606296e-05,-0.08758282661437988,0.05791779086847007,-0.7580457372691426,0.02800673487260135,0.1666637949259719,0.5298160830394374,0.5096540698211355,0.3166271136759345,-0.8583135568379672,0.48178393737494124,0.00014638900756835938,0.00030517578125,0
0.3601386547088623,0.03740815445780754,0.0016167782014235854,-0.09800862520933151,0.06566657891860586,-0.7549029847524701,0.023440511528429256,0.21085882394824368,0.5284804447720942,0.5081233114877883,0.3190778906829553,-0.8595389453414776,0.48595774330385433,0.00015401840209960938,0.0003178119659423828,0
0.36993908882141113,0.03957724571228027,0.002522306051105261,-0.10334397852420807,0.06960863377755207,-0.7519230587915092,0.02054886857618915,0.24905658729703176,0.5276066760033168,0.5066062198327583,0.3214811627868154,-0.8607405813934077,0.4900629395451842,0.00014519691467285156,0.00030112266540527344,0
0.37997889518737793,0.04184393212199211,0.003471423638984561,-0.10875388979911804,0.07359248935952602,-0.7491223338278847,0.019000986252322823,0.2828438972697414,0.5270781411180723,0.505040287517517,0.32393565407997904,-0.8619678270399895,0.49426840380155557,0.00015664100646972656,0.00032782554626464844,0
0.38986968994140625,0.044207312166690826,0.0044649504125118256,-0.11423354595899582,0.07763987994230626,-0.7464974955533155,0.018458582473058725,0.31321568986182935,0.5267440376367357,0.5034859683204796,0.32634625737763406,-0.863173128688817,0.49841145021987826,0.00014710426330566406,0.0003046989440917969,0
0.3999147415161133,0.04922463744878769,0.006584754213690758,-0.125400573015213,0.08586956771309176,-0.7437453824471302,0.01721448321957286,0.34890903126892997,0.5250019052973389,0.5018956316483186,0.32878682292989675,-0.8643934114649483,0.502619111584149,0.00014162063598632812,0.0003039836883544922,0
0.40999841690063477,0.05187663808465004,0.007711472921073437,-0.13107071816921234,0.09004342440780849,-0.7411890756612798,0.01723651985439624,0.3796275886143624,0.5238011564247427,0.5002872816271337,0.3312289779625765,-0.8656144889812882,0.5068429516520419,0.0001518726348876953,0.0003197193145751953,0
0.4199957847595215,0.05462333932518959,0.008881733752787113,-0.13679398596286774,0.09424643233116568,-0.7388147672282174,0.01808637001414208,0.4066728671123426,0.522954887113685,0.4986809666198113,0.3336424636210603,-0.8668212318105302,0.511030639308137,0.0002562999725341797,0.0005743503570556641,0
0.43009281158447266,0.057455193251371384,0.01009787991642952,-0.14256665110588074,0.09846148408795179,-0.7366130467705909,0.019615320607916563,0.4309279885358689,0.5223678914519596,0.4970468214430941,0.336072101331421,-0.8680360506657104,0.515260072014319,0.00024366378784179688,0.0005397796630859375,0
0.4401743412017822,0.060382019728422165,0.011358147487044334,-0.14838382601737976,0.10271639650443105,-0.7345659605558779,0.021632954656738524,0.45313393312800154,0.5219450053017086,0.4954033742135595,0.33849002469470185,-0.8692450123473509,0.5194830132653441,0.0002491474151611328,0.0005633831024169922,0
0.4500246047973633,0.06651090085506439,0.014010809361934662,-0.1601412296295166,0.11133295455802202,-0.7323770863584675,0.02281382087245714,0.4786006588315122,0.5199650515138062,0.4937862662325543,0.3408447201881129,-0.8704223600940564,0.5236090820317174,0.00024247169494628906,0.0005459785461425781,0
0.46004605293273926,0.06970950216054916,0.015402158722281456,-0.16607166826725006,0.11570732635739357,-0.7303733844230805,0.02473810568282723,0.5003988017833988,0.5185128598295384,0.4921295698521481,0.343232408838588,-0.871616204419294,0.5278068564104412,0.0001499652862548828,0.0003190040588378906,0
0.46991825103759766,0.07299569249153137,0.01683688350021839,-0.17202700674533844,0.12006992684762761,-0.7285348371349647,0.027140358974580253,0.5193608565887362,0.5174110717187681,0.4904862577059021,0.3455766644344773,-0.8727883322172386,0.5319421130825754,0.00013446807861328125,0.00029015541076660156,0
0.4799959659576416,0.07982353866100311,0.019834961742162704,-0.18401508033275604,0.12882288871141365,-0.7265875957849437,0.028796658932108463,0.5396541429521732,0.5149404631002492,0.48879721792124353,0.34796160672185134,-0.8739808033609257,0.5361634564369464,0.00014925003051757812,0.00031256675720214844,0
0.4900240898132324,0.08336343616247177,0.021398894488811493,-0.19004172086715698,0.13321932162298733,-0.7248270363980476,0.03119062433488456,0.5566298619029638,0.5131375887371366,0.48710497861310387,0.350326618757878,-0.8751633093789389,0.5403640271348147,0.00015044212341308594,0.0003108978271484375,0
0.49986791610717773,0.08698748797178268,0.023003682494163513,-0.19608600437641144,0.13761738023045547,-0.7232291203071877,0.03405501955953254,0.5708928022384914,0.5117725693235453,0.48543270982505043,0.3526401625338617,-0.8763200812669308,0.5444873994505844,0.00013971328735351562,0.0002961158752441406,0
0.5099959373474121,0.09068622440099716,0.02464871294796467,-0.20214460790157318,0.1419989874163026,-0.7217745360696134,0.037185219417248526,0.5828354372146966,0.5107648588955385,0.4837006936962825,0.3550121672812568,-0.8775060836406283,0.5487298150670806,0.00024318695068359375,0.0005388259887695312,0
0.5200188159942627,0.09830202162265778,0.028057951480150223,-0.21429623663425446,0.15079768958089473,-0.7202236214684044,0.039501532238954695,0.5944877490158919,0.5083343383804374,0.4819752475718619,0.3573511728370881,-0.878675586418544,0.5529281886570496,0.00015234947204589844,0.0003161430358886719,0
0.5300884246826172,0.10221702605485916,0.02982071414589882,-0.22038471698760986,0.1552073591071119,-0.7188281052871421,0.0423318769851878,0.6038757600509553,0.5065610783815521,0.48023036717470197,0.35969263885052044,-0.8798463194252601,0.5571461364810308,0.0002524852752685547,0.0005774497985839844,0
0.5400805473327637,0.10619942843914032,0.03162132576107979,-0.22646749019622803,0.15959050401805885,-0.7175608632615278,0.045419213233872935,0.6113140296092611,0.5052456759962757,0.4784876696704612,0.36200766562785874,-0.8810038328139294,0.5613316270292266,0.00024271011352539062,0.0005407333374023438,0
0.5500056743621826,0.11024556308984756,0.03345951810479164,-0.2325565367937088,0.16399028556652848,-0.716397171028618,0.048604493173253334,0.617077381631976,0.5042340115539702,0.47674560872460536,0.36429881218829885,-0.8821494060941494,0.5654890545174357,0.0002353191375732422,0.0005321502685546875,0
0.5601303577423096,0.11852049827575684,0.037248238921165466,-0.2447429746389389,0.1727799804298044,-0.7151547225227471,0.05065300812179358,0.6210509546134368,0.5018200924169897,0.4749572181728532,0.36662738700962416,-0.883313693504812,0.5697300719743595,0.00024175643920898438,0.0005373954772949219,0
0.5700078010559082,0.12273869663476944,0.039199888706207275,-0.25083622336387634,0.17719361897234348,-0.7140339850705673,0.0530996311040821,0.6235782614849295,0.5000267797351133,0.47320153877807647,0.36889063921175963,-0.8844453196058798,0.573867525754393,0.0001556873321533203,0.00032067298889160156,0
0.5799620151519775,0.12700901925563812,0.041186194866895676,-0.2569265365600586,0.18158842369741499,-0.7130173314405437,0.05569425769336144,0.6246782358032247,0.49868701337978966,0.47142130301951785,0.37116297641249174,-0.8855814882062458,0.5780371372045893,0.0002684593200683594,0.0005905628204345703,0
0.5900206565856934,0.13132800161838531,0.043206460773944855,-0.2630126476287842,0.18594131235690886,-0.712086240218316,0.058336305533986124,0.6245875970766404,0.4976968513853966,0.46961130728648703,0.37345042518208044,-0.8867252125910402,0.5822504910756899,0.00016021728515625,0.0003235340118408203,0
0.599989652633667,0.13569562137126923,0.045260172337293625,-0.2690940499305725,0.19028419928264226,-0.7112277252891674,0.06098674488584542,0.6235437324995107,0.49694108162957024,0.4678064914044295,0.3757087789763202,-0.8878543894881601,0.5864262943754205,0.00015783309936523438,0.0003199577331542969,0
0.6100516319274902,0.13825036585330963,0.04647103324532509,-0.2748703956604004,0.19464069118357039,-0.710456085676138,0.06371091431198904,0.6199852024669421,0.49635889034914593,0.4659738289955338,0.37797935220226114,-0.8889896761011306,0.5906410464060936,0.000148773193359375,0.0003120899200439453,0
0.6201965808868408,0.14358501136302948,0.04904140532016754,-0.28640875220298767,0.20334724936919601,-0.7096604670578193,0.06513998886959806,0.6102099099564381,0.4942799619893278,0.4641148976660138,0.38025959785975877,-0.8901297989298793,0.5948905526889922,0.00024628639221191406,0.0005402565002441406,0
0.6300780773162842,0.14635694026947021,0.05039764568209648,-0.29217109084129333,0.20765806877810525,-0.708925249789216,0.06669638865346882,0.5997034981277694,0.4927603366885531,0.4622935128535284,0.38247183945167074,-0.8912359197258353,0.5990297042342206,0.00024628639221191406,0.0005545616149902344,0
0.6400940418243408,0.14919504523277283,0.05180036649107933,-0.2979292869567871,0.21197332458531187,-0.7082292951674273,0.06834366042736056,0.5885689620517631,0.4916516820762009,0.4604365817593161,0.38470528223277173,-0.8923526411163858,0.6032251816365043,0.0002377033233642578,0.0005328655242919922,0
0.6500301361083984,0.15209439396858215,0.05324967950582504,-0.30368340015411377,0.21628824541911149,-0.7075723924358266,0.0699695309298159,0.5768744525651689,0.49081828657527227,0.4585837968315312,0.38691200715870383,-0.8934560035793518,0.6073872030775936,0.000156402587890625,0.00032258033752441406,0
0.660006046295166,0.15806132555007935,0.05628259852528572,-0.3151693046092987,0.22485680683572898,-0.7068916956012945,0.06971392090472524,0.5596247759819163,0.4885887115011731,0.456712947807921,0.38911859799372117,-0.8945592989968605,0.6115659025650098,0.0001418590545654297,0.00029778480529785156,0
0.6700713634490967,0.16111834347248077,0.05786299705505371,-0.32090064883232117,0.2291177449685072,-0.7062311074378769,0.06964850478291724,0.5429430025822073,0.4870112134708313,0.4548145712111767,0.3913357967449355,-0.8956678983724677,0.6157820527552551,0.0001537799835205078,0.00032019615173339844,0
0.6800367832183838,0.1642196774482727,0.059483543038368225,-0.3266220986843109,0.2333825415697862,-0.7055986035046107,0.06973352808918257,0.5266694815969623,0.4858730306009746,0.4529244317033515,0.39352186618559853,-0.8967609330927993,0.6199563580268724,0.00018596649169921875,0.00034809112548828125,0
0.6900315284729004,0.1705462485551834,0.06284090876579285,-0.33806607127189636,0.24188864888082406,-0.7049592386391424,0.06801478330269514,0.5052381762540905,0.48345648326379087,0.45101817640192304,0.395705199049853,-0.8978525995249265,0.624142947129018,0.0002503395080566406,0.0005633831024169922,0
0.7001359462738037,0.17376196384429932,0.06457631289958954,-0.3437666893005371,0.24614175314828235,-0.7043315661678407,0.0666075958182259,0.4852603695565138,0.48175718426401354,0.4490803053233281,0.39790310299205556,-0.8989515514960278,0.6283754757599672,0.000244140625,0.0005478858947753906,0
0.7098631858825684,0.17700771987438202,0.06634979695081711,-0.34945228695869446,0.2503531499756134,-0.7037241230748719,0.0652492798435419,0.466315212018433,0.4805163523786735,0.4472046521747002,0.4000099987166639,-0.9000049993583319,0.6324500123592476,0.00012755393981933594,0.000274658203125,0
0.7201473712921143,0.18357940018177032,0.0700109452009201,-0.36077648401260376,0.2587528932899993,-0.7031164307859277,0.062017838433925415,0.4424338566785105,0.4781133023825812,0.44521085721777154,0.40222791128341284,-0.9011139556417064,0.6367578418700188,0.00014591217041015625,0.0003139972686767578,0
0.7300393581390381,0.186897873878479,0.07189001888036728,-0.3664145767688751,0.26292266907178935,-0.7025056234208892,0.05940933041598244,0.420723642048545,0.47642133112752966,0.4432827188053144,0.4043518655930358,-0.9021759327965179,0.6409013876310459,0.00015044212341308594,0.0003123283386230469,0
0.7399599552154541,0.19023215770721436,0.07380317151546478,-0.37203601002693176,0.26706751093747005,-0.7019078881957618,0.056996144524118816,0.400465875243043,0.47524095929410387,0.44133882716984013,0.4064726800565444,-0.9032363400282721,0.6450569176169783,0.0001323223114013672,0.00028324127197265625,0
0.7500748634338379,0.19357888400554657,0.07574858516454697,-0.3776397705078125,0.2712270309870919,-0.7013361949742445,0.0548401013486779,0.3811814887468815,0.47444372505962246,0.43934641489552395,0.4086254124726583,-0.9043127062363291,0.6492938404637263,0.0002455711364746094,0.0005459785461425781,0
0.7604236602783203,0.20029562711715698,0.07972811907529831,-0.38882628083229065,0.279469153007275,-0.7007854989239813,0.050359090066123824,0.3570058353279483,0.47242045054494103,0.43729706479440955,0.41081781500099773,-0.9054089075004988,0.6536287343490754,0.0002570152282714844,0.0007348060607910156,0
0.7700042724609375,0.20365740358829498,0.08176282048225403,-0.39438799023628235,0.28356238170268505,-0.7002308022590493,0.04644030433369748,0.3349187742570962,0.4709741166663668,0.4353900832385634,0.4128383163146523,-0.9064191581573261,0.6576418517957159,0.00015306472778320312,0.0003178119659423828,0
0.7800064086914062,0.20701640844345093,0.08382612466812134,-0.39992958307266235,0.287663632156398,-0.6996860497922416,0.04286662571437144,0.3143811008614053,0.46999484591629415,0.43338923905320664,0.4149382694725596,-0.9074691347362798,0.6618315368226285,0.00014853477478027344,0.00031113624572753906,0
0.7899565696716309,0.21036981046199799,0.0859178900718689,-0.4054506719112396,0.2917524244487055,-0.6991580063135088,0.039641375965913384,0.2951153036289646,0.46933902691350315,0.4313887425299124,0.4170176888555939,-0.9085088444277969,0.6659994505076298,0.00014495849609375,0.0003058910369873047,0
0.8001015186309814,0.21705928444862366,0.09017883241176605,-0.41642916202545166,0.2999062542895855,-0.6986381280829069,0.0340775712238536,0.2716220321830352,0.46741583227730765,0.4293388119580279,0.4191278856703156,-0.9095639428351577,0.6702489567905283,0.00015044212341308594,0.00030922889709472656,0
0.810051441192627,0.22038760781288147,0.09234603494405746,-0.4218842089176178,0.3039467938460256,-0.6981230119350919,0.029433771667883912,0.2504486759942029,0.46611732387949584,0.42731826247175725,0.42118772840399604,-0.910593864201998,0.6744167706069887,0.00015664100646972656,0.0003249645233154297,0
0.8200416564941406,0.22370067238807678,0.09453653544187546,-0.42731374502182007,0.3079596624421252,-0.6976273463478061,0.025248864484013155,0.23105407674113052,0.4652728016274225,0.42527958820249573,0.42324611263225514,-0.9116230563161275,0.6786014622068575,0.0001385211944580078,0.00029540061950683594,0
0.8301212787628174,0.22699664533138275,0.09675050526857376,-0.4327448010444641,0.3119778909973735,-0.6971509897523627,0.02135667729369427,0.21305749071064722,0.4647581037062645,0.4232126204733957,0.4253129175936719,-0.9126564587968359,0.6828236045095555,0.0002684593200683594,0.0005898475646972656,0
0.8401131629943848,0.2335328459739685,0.10124406218528748,-0.4435270130634308,0.31996315102763456,-0.6966981973840414,0.015042626993745412,0.1916581020068742,0.4629728641549779,0.42115373099069825,0.4273517694740652,-0.9136758847370325,0.6870089951892104,0.0002524852752685547,0.0005557537078857422,0
0.8499841690063477,0.2367684245109558,0.10352255403995514,-0.44887515902519226,0.323937594094289,-0.696251273621432,0.009594373406296153,0.17264663501427044,0.4617833143176174,0.41911010436605234,0.42935616965204626,-0.9146780848260231,0.6911437525186401,0.00014853477478027344,0.00030612945556640625,0
0.8604145050048828,0.23997807502746582,0.10582661628723145,-0.45419445633888245,0.32790995555463176,-0.6958255915217976,0.004774831660623849,0.1554269351659976,0.4610993872312096,0.4169403132101353,0.4314635271030846,-0.9157317635515423,0.6955128014449696,0.0002484321594238281,0.0005803108215332031,0
0.8699924945831299,0.24315914511680603,0.10815002769231796,-0.4594840109348297,0.3319247608441315,-0.6954268333230655,0.00037976706090510695,0.13954248532286492,0.46061959337192054,0.4149384991997794,0.4333890191062006,-0.9166945095531003,0.6995248203376604,0.00024628639221191406,0.0005452632904052734,0
0.8800792694091797,0.24943554401397705,0.11285123974084854,-0.4699731469154358,0.3398911413078337,-0.6950398501091867,-0.006365874079120441,0.12091092180128636,0.45888077188112775,0.4128207359630947,0.4354067523120063,-0.9177033761560032,0.7037499586965847,0.0002617835998535156,0.0005941390991210938,0
0.8900957107543945,0.25252565741539,0.11522998660802841,-0.47517305612564087,0.3438492152809464,-0.6946631739657828,-0.012288014703370032,0.1046115030756606,0.45775269802491686,0.4107080302546231,0.4374001759080209,-0.9187000879540104,0.70794563583595,0.00015282630920410156,0.00032520294189453125,0
0.8998744487762451,0.2555810511112213,0.11762787401676178,-0.48032885789871216,0.3477874565458868,-0.6943087706571182,-0.017507235231610335,0.09008409657630581,0.4570222464277575,0.40863617568753546,0.439336404045312,-0.919668202022656,0.71204174404006,0.0001399517059326172,0.00029659271240234375,0
0.9101238250732422,0.2586011588573456,0.12004295736551285,-0.48545220494270325,0.35169952907743657,-0.6939846210128313,-0.02210436132359947,0.07686612934233195,0.4566538713743406,0.4064548086553974,0.4413552860461788,-0.9206776430230894,0.7163349927438631,0.0002446174621582031,0.0005428791046142578,0
0.9200606346130371,0.26452764868736267,0.12492259591817856,-0.49560409784317017,0.35950450590662447,-0.6936628106758871,-0.029099284440836835,0.06143511134164377,0.45503001291852163,0.4043304418470254,0.44330226008423324,-0.9216511300421166,0.7204973137905752,0.0003781318664550781,0.0005691051483154297,0
0.9300408363342285,0.2674308121204376,0.12738832831382751,-0.5006336569786072,0.36339030280223444,-0.6933564946752938,-0.03506620130341238,0.04814509149392121,0.4540038245840259,0.4021874110687534,0.44524744398796223,-0.922623721993981,0.7246778109117271,0.0001418590545654297,0.00029754638671875,0
0.940070390701294,0.27029281854629517,0.12987112998962402,-0.5056294202804565,0.3672661342010327,-0.6930717428057913,-0.04030984103282677,0.03638798649186378,0.45340749469124675,0.40002435552162935,0.44719181006532877,-0.9235959050326643,0.7288789808208408,0.0001442432403564453,0.0003006458282470703,0
0.9499471187591553,0.273112952709198,0.13236959278583527,-0.5105922818183899,0.3711255971663441,-0.6928099612540707,-0.04501530389886823,0.025937877696446253,0.453094197969709,0.39788507337547,0.4490962796383386,-0.9245481398191693,0.7330161349952516,0.0001494884490966797,0.0003142356872558594,0
0.9600703716278076,0.27862340211868286,0.13741491734981537,-0.5204166173934937,0.37879587445089485,-0.6925601648376842,-0.052114907662769515,0.013979773077656634,0.45158869312508204,0.3956829856744248,0.45103766455560335,-0.9255188322778016,0.7372565532409303,0.00014829635620117188,0.0003077983856201172,0
0.970038652420044,0.2813106179237366,0.13996008038520813,-0.5252942442893982,0.38261037891563787,-0.6923287811715362,-0.0579821783588265,0.00384822755876992,0.4506702144448335,0.39350535243531737,0.4529387790913432,-0.9264693895456716,0.7414320569350383,0.00015783309936523438,0.0003266334533691406,0
0.979921817779541,0.2839524447917938,0.14251859486103058,-0.5301347970962524,0.38642252665150256,-0.69212290043643,-0.0629417268045769,-0.005006117936658672,0.4501501679520904,0.391337295657841,0.45481328149825123,-0.9274066407491256,0.7455719075600529,0.00014328956604003906,0.00030493736267089844,0
0.9900364875793457,0.2865474820137024,0.14508958160877228,-0.5349375605583191,0.39022678457941057,-0.6919446710563893,-0.06724830441051584,-0.012745500285446526,0.44994834730103483,0.3891092090099411,0.4567209470384054,-0.9283604735192026,0.7498087305382599,0.00016450881958007812,0.0003294944763183594,0
1.0000872611999512,0.2923950254917145,0.15025490522384644,-0.5445628762245178,0.39783168222455956,-0.6917765877166234,-0.07329928241883875,-0.020903548134644824,0.44853400805683286,0.38688598617225745,0.4586057497497385,-0.9293028748748692,0.7540187887475118,0.00020265579223632812,0.0006308555603027344,0
1.0099716186523438,0.2956317663192749,0.1528480499982834,-0.5493825674057007,0.4014907091076199,-0.6916223328879079,-0.0779930891025211,-0.027172311409182807,0.4477244667426378,0.3846906700153348,0.46044879020706825,-0.930224395103534,0.7581591387152306,0.00023508071899414062,0.0005342960357666016,0
1.0202250480651855,0.29880490899086,0.15545211732387543,-0.5541603565216064,0.40513034123835845,-0.6914877497161096,-0.08154258254824409,-0.032041520064497654,0.4474035306995526,0.3824041060423736,0.462349542750864,-0.9311747713754319,0.7624540851842286,0.0002651214599609375,0.0005786418914794922,0
1.0298779010772705,0.3019137382507324,0.15806640684604645,-0.5588873624801636,0.40874189521660587,-0.6913673246243784,-0.0844364866013816,-0.03597321157028578,0.4473408093329928,0.3802428900488963,0.4641285862422858,-0.9320642931211429,0.7664974627987551,0.00014352798461914062,0.0003104209899902344,0
1.0400853157043457,0.30793890357017517,0.1633220911026001,-0.5682225227355957,0.41598189065906127,-0.6912460834938333,-0.08849960164535337,-0.03985073612688286,0.44618528302570953,0.3779485086616132,0.4659988463509995,-0.9329994231754997,0.7707731346393638,0.00015473365783691406,0.00033783912658691406,0
1.050079107284546,0.31085634231567383,0.165963277220726,-0.5728290677070618,0.4195540304252976,-0.6911399126327836,-0.09152782973435045,-0.04262603904422434,0.4456066833087653,0.3756932320726718,0.46781897714264387,-0.9339094885713219,0.7749593242673456,0.00019860267639160156,0.0003712177276611328,0
1.0600183010101318,0.3137126564979553,0.1686139553785324,-0.5773953795433044,0.4231146668127098,-0.6910528328105745,-0.09369857130988844,-0.044482617797840025,0.4454276697611696,0.37344158277590445,0.4696183389240962,-0.9348091694620481,0.7791226439994665,0.00014495849609375,0.0003113746643066406,0
1.0700664520263672,0.31650763750076294,0.1712723672389984,-0.5819202661514282,0.4266804929898408,-0.6909875897708363,-0.09525150048805127,-0.04578094816039733,0.4455435353321665,0.37115649018025365,0.4714264097365306,-0.9357132048682653,0.7833316036547686,0.00014781951904296875,0.0003066062927246094,0
1.0800306797027588,0.3219093084335327,0.17661140859127045,-0.5908453464508057,0.4338021791364711,-0.6909251177230417,-0.09794916159040054,-0.046978173516100105,0.4445191861502215,0.3688818382640962,0.473208399543902,-0.936604199771951,0.7875054095836816,0.0001494884490966797,0.00031638145446777344,0
1.0900189876556396,0.3245188891887665,0.1792909801006317,-0.5952568054199219,0.4373351916304801,-0.6908774739745713,-0.09975176545681366,-0.04753123347048742,0.4440462217819342,0.3665931027360993,0.47498368080000364,-0.9374918404000018,0.7916893022352234,0.00014257431030273438,0.0002999305725097656,0
1.1001389026641846,0.32706838846206665,0.18197739124298096,-0.5996273159980774,0.44088118169590207,-0.690846587324699,-0.10084995455489061,-0.047536901062904306,0.44397503298188934,0.36426549762691396,0.47677106375976375,-0.9383855318798818,0.7959283223213297,0.00015497207641601562,0.0003418922424316406,0
1.1098880767822266,0.32955825328826904,0.1846708059310913,-0.6039571166038513,0.4444133273060576,-0.690827245772401,-0.10157965981269182,-0.04712876357622526,0.4441320429074377,0.36201492168610255,0.4784821798945129,-0.9392410899472564,0.8000120468263708,0.00014400482177734375,0.0003037452697753906,0
1.1199846267700195,0.33436083793640137,0.19007810950279236,-0.6124942898750305,0.4514461929755513,-0.6908116062722699,-0.10325413018673801,-0.04628398156825158,0.44319058759267727,0.35967568295492347,0.4802430666765626,-0.9401215333382813,0.8042412797954712,0.00014495849609375,0.0003046989440917969,0
1.1300203800201416,0.33667486906051636,0.19278821349143982,-0.6167009472846985,0.45493617386835455,-0.6908105757000581,-0.10404000756642658,-0.04511694379648072,0.44279923847173436,0.35734204209218096,0.4819820172510484,-0.9409910086255242,0.8084450462866476,0.00015091896057128906,0.0003123283386230469,0
1.1399879455566406,0.33893245458602905,0.19550447165966034,-0.6208676695823669,0.45843059981896184,-0.6908192919389324,-0.10434270116547369,-0.0435336866367214,0.4427805858887782,0.3550159351761208,0.4836979282269301,-0.941848964113465,0.812620250375133,0.0001342296600341797,0.0002884864807128906,0
1.1500349044799805,0.3411288261413574,0.19823168218135834,-0.6249943971633911,0.46189830001596105,-0.690840033387272,-0.10421560887952983,-0.04170414891661127,0.44304531412405807,0.3526629624061523,0.48541614615391276,-0.9427080730769564,0.8168287106877307,0.00014519691467285156,0.0003056526184082031,0
1.1602754592895508,0.3453552722930908,0.20369845628738403,-0.6331256628036499,0.46898660230232336,-0.6908688048088019,-0.1049768544307521,-0.039513791304403745,0.4421810931192907,0.3502560926826643,0.48715569332470376,-0.9435778466623519,0.8211182642555213,0.0002474784851074219,0.0004284381866455078,0
1.1700594425201416,0.34738466143608093,0.20643867552280426,-0.6371287107467651,0.472517521475888,-0.6909141053721152,-0.10513884623930911,-0.037282171821191236,0.4417889082178698,0.34794851654240294,0.48880653620419307,-0.9444032681020965,0.8252165695675306,0.00014734268188476562,0.0003094673156738281,0
1.1800196170806885,0.3493601977825165,0.209182471036911,-0.6410900950431824,0.4760549403785246,-0.6909726118431825,-0.10471949883967124,-0.03490856901733767,0.44175238725977933,0.34559139343482254,0.4904758799204887,-0.9452379399602443,0.8293886777312487,0.000202178955078125,0.0003788471221923828,0
1.1899795532226562,0.3512827157974243,0.21192866563796997,-0.6450108289718628,0.47959181320111793,-0.6910384330411177,-0.1038149101536545,-0.03250244228616242,0.4419649983913388,0.34322631820844207,0.49213381766454256,-0.9460669088322713,0.8335606860264261,0.0001437664031982422,0.00031447410583496094,0
1.2000908851623535,0.35497522354125977,0.21742498874664307,-0.652731716632843,0.48662087897161976,-0.6911102760543203,-0.10343298899229644,-0.029510632421180422,0.4410662108264909,0.3408171570844198,0.4938052910175162,-0.946902645508758,0.8377961108450607,0.0001583099365234375,0.0003414154052734375,0
1.2100775241851807,0.3567456007003784,0.22017763555049896,-0.6565320491790771,0.49015488944178104,-0.69119161848525,-0.10260215934189407,-0.02655701213561059,0.4406805031941822,0.33842971570906094,0.4954445756339292,-0.9477222878169645,0.8419793044168163,0.00015401840209960938,0.000316619873046875,0
1.2199230194091797,0.3584665358066559,0.22293344140052795,-0.6602926254272461,0.493680904540774,-0.6912803692611502,-0.10132271259226644,-0.023584372658762235,0.44063477896277625,0.3360682981843956,0.49704939287302635,-0.9485246964365132,0.8461033758123722,0.00013875961303710938,0.00029778480529785156,0
1.2299952507019043,0.3601371943950653,0.22569049894809723,-0.6640132069587708,0.49719865669933827,-0.6913782759115751,-0.0998344668894138,-0.020738353078216552,0.44086575733305494,0.3336446242819935,0.4986795210229987,-0.9493397605114993,0.850322422190303,0.00014925003051757812,0.0003123283386230469,0
1.2400577068328857,0.36332643032073975,0.23121149837970734,-0.6713322401046753,0.504226945218445,-0.6914741977825949,-0.09915855642478431,-0.01760485930077249,0.43997244091049403,0.3312154071318934,0.5002962663047308,-0.9501481331523653,0.8545373739580577,0.00015091896057128906,0.0003132820129394531,0
1.2500996589660645,0.3648480772972107,0.23397214710712433,-0.674935519695282,0.507764326872365,-0.6915759055394826,-0.09793388865296708,-0.014687187376752705,0.43959798744694567,0.32878332969366614,0.501897920015162,-0.9509489600075809,0.858743737031297,0.00014734268188476562,0.00030803680419921875,0
1.260267734527588,0.3663218319416046,0.2367333322763443,-0.6785010099411011,0.5112840672909492,-0.6916806655610841,-0.09632357746882467,-0.011779452184917187,0.4396131649397538,0.32631281498792736,0.5035076432137398,-0.9517538216068698,0.8630029305626608,0.00018167495727539062,0.0004172325134277344,0
1.269953966140747,0.3677487075328827,0.23949596285820007,-0.6820298433303833,0.5147989327532683,-0.6917862216235355,-0.09455899772962159,-0.0089915305203628,0.4398272243401961,0.32395204226150437,0.5050297756712968,-0.9525148878356484,0.86706028977291,0.00013709068298339844,0.0002989768981933594,0
1.2801988124847412,0.3704594373703003,0.2450210154056549,-0.6889771223068237,0.521879817480033,-0.6918972120369999,-0.0934102497269447,-0.006138868016905952,0.43893099084851456,0.3214473963995485,0.5066276456609444,-0.9533138228304722,0.8713516409744365,0.0001499652862548828,0.00032329559326171875,0
1.290045976638794,0.37174540758132935,0.24778278172016144,-0.6923946738243103,0.5254070967105553,-0.6920148830659573,-0.09186982887779525,-0.0033546783703912618,0.438527686621175,0.31903254632646977,0.5081517828212835,-0.9540758914106418,0.8754764114497785,0.00015211105346679688,0.00032019615173339844,0
1.2998828887939453,0.3729873597621918,0.25054487586021423,-0.695774495601654,0.5289458926965234,-0.6921389083824278,-0.09008302036062821,-0.0005995005479657732,0.43846350371532294,0.3166129951190349,0.5096628408288699,-0.9548314204144349,0.8795968875778627,0.0001385211944580078,0.0002944469451904297,0
1.310023307800293,0.37418675422668457,0.25330716371536255,-0.69911789894104,0.5324878747057242,-0.6922683080686151,-0.08798847687510494,0.0020783960615323956,0.43868318572050485,0.3141113005498088,0.5112084612630229,-0.9556042306315113,0.8838444963584846,0.000156402587890625,0.0003180503845214844,0
1.3200597763061523,0.3764527142047882,0.2588261365890503,-0.7056953310966492,0.5395277115990245,-0.6924070936336908,-0.08663749744666725,0.00452254016715801,0.4377735490754642,0.3116278213905566,0.5127261461398037,-0.9563630730699018,0.8880485624552836,0.000152587890625,0.00032258033752441406,0
1.3300342559814453,0.3775210678577423,0.2615813612937927,-0.7089291214942932,0.5430559439744665,-0.6925478336434614,-0.08479040707819174,0.0067520552657338775,0.4373805038866958,0.3091524159583758,0.5142225040846611,-0.9571112520423305,0.8922266627314545,0.0001633167266845703,0.0003285408020019531,0
1.339984655380249,0.37854790687561035,0.26433250308036804,-0.7121275067329407,0.5465798044757313,-0.6926889183705937,-0.08266388861760236,0.00880555047297377,0.43734692964916255,0.30667582759755263,0.5157033418229477,-0.9578516709114738,0.8963946762849966,0.00015497207641601562,0.00032520294189453125,0
1.3500206470489502,0.3795330822467804,0.26708003878593445,-0.7152895331382751,0.5501181422374628,-0.6928366757461817,-0.08032434743939734,0.010747858348831865,0.4375730009071358,0.3041707512269259,0.5171848355259921,-0.9585924177629961,0.900598542644714,0.0001621246337890625,0.0003285408020019531,0
1.3599739074707031,0.3813858926296234,0.27256202697753906,-0.721505880355835,0.557138632828026,-0.6929931345062144,-0.07854295444005684,0.012331737263411576,0.4366620213072662,0.3016792567736509,0.5186420982069404,-0.9593210491034702,0.9047677546207467,0.00014519691467285156,0.00031685829162597656,0
1.370053768157959,0.38225045800209045,0.2752950191497803,-0.7245620489120483,0.5606526646829278,-0.6931463501805949,-0.07654435701747013,0.013825688474709623,0.4362899144559833,0.29914895680369785,0.5201056639215337,-0.9600528319607669,0.9089899967919854,0.000171661376953125,0.0003414154052734375,0
1.3799803256988525,0.38307422399520874,0.278024286031723,-0.7275896072387695,0.5641819485729569,-0.6932977457704877,-0.0744519711764235,0.015238183301718554,0.436265218213619,0.2966502004899874,0.521534906357427,-0.9607674531787135,0.9131480234914399,0.00014328956604003906,0.0003039836883544922,0
1.3900327682495117,0.38385850191116333,0.28074929118156433,-0.7305834889411926,0.5677127326596724,-0.6934444331817492,-0.0721777184020707,0.01664635720382322,0.4365029207948351,0.2941127973359891,0.5229700397185286,-0.9614850198592643,0.9173587807804777,0.00024175643920898438,0.0005376338958740234,0
1.4001579284667969,0.38622841238975525,0.28650277853012085,-0.7368125319480896,0.5747446090551208,-0.6935756424040875,-0.07037631328386154,0.01850310921754218,0.4356228154011464,0.2915500209540222,0.5244030752023763,-0.9622015376011881,0.9215999979744834,0.0002522468566894531,0.0005524158477783203,0
1.4100613594055176,0.387797474861145,0.28952303528785706,-0.7400386929512024,0.578183003424343,-0.6937003248283483,-0.06799758587909463,0.02080006387937824,0.4352729710312264,0.2890366115007618,0.5257925800276737,-0.9628962900138368,0.9257483374254726,0.0002396106719970703,0.0005366802215576172,0
1.420135736465454,0.3893139660358429,0.2925310432910919,-0.7432241439819336,0.581614621402203,-0.6938139102884695,-0.06516966371362956,0.02344583683391725,0.4353237026786341,0.28647302310995443,0.5271937092096638,-0.9635968546048319,0.9299682826202713,0.0002543926239013672,0.0005586147308349609,0
1.4298908710479736,0.39077749848365784,0.2955242097377777,-0.7463718056678772,0.5850789183123302,-0.6939175119860297,-0.06221046009113032,0.02628008933843154,0.43559243644748263,0.283984198037333,0.5285385277017114,-0.9642692638508557,0.9340545038388344,0.00013971328735351562,0.00029468536376953125,0
1.440033197402954,0.3921901285648346,0.29850608110427856,-0.7494809627532959,0.5884495303328772,-0.6940187543091667,-0.05899578542460224,0.029274549607573478,0.43610972347634147,0.2813898958179415,0.5299242649016631,-0.9649621324508315,0.9383029115677832,0.00028586387634277344,0.0006275177001953125,0
1.450117588043213,0.39486563205718994,0.3044297695159912,-0.7556183934211731,0.5951767054614256,-0.6941168628810712,-0.05614025502946134,0.03244224628679488,0.43553318610088404,0.27880370896529455,0.5312894614682239,-0.9656447307341118,0.9425270512412989,0.00026106834411621094,0.0005669593811035156,0
1.459998369216919,0.3961297273635864,0.30737069249153137,-0.7586469054222107,0.598538551245905,-0.6942142442208673,-0.053058851970402984,0.03540599557257011,0.4354209872462438,0.27626331427157624,0.5326148525789384,-0.9663074262894691,0.9466659031809046,0.0001461505889892578,0.0003085136413574219,0
1.4699785709381104,0.39734646677970886,0.3102979362010956,-0.7616370916366577,0.6018930117646158,-0.6943129300051634,-0.04981680979539968,0.03818685026953389,0.43565221177391067,0.27369096233508305,0.5339412487681543,-0.9669706243840771,0.9508464003020565,0.00015616416931152344,0.0003216266632080078,0
1.4799895286560059,0.3996383845806122,0.3161091208457947,-0.7675072550773621,0.6086134359052234,-0.6944098871495918,-0.047096310730781375,0.040782273637180746,0.43486642745164755,0.2711042856532834,0.5352592514851312,-0.9676296257425656,0.9550397804649816,0.00016236305236816406,0.0003380775451660156,0
1.4900321960449219,0.4007127583026886,0.3189946711063385,-0.7703871726989746,0.6119617689650877,-0.6945037228509143,-0.04425914244560166,0.043138464970955775,0.43463825203318696,0.26850303868657105,0.5365688382827293,-0.9682844191413646,0.9592464431438436,0.00023937225341796875,0.0005285739898681641,0
1.5001530647277832,0.40174052119255066,0.32186663150787354,-0.7732321619987488,0.6153624000558419,-0.6945987687146924,-0.041347835556652925,0.04528138067063061,0.4347930749163325,0.26587513627924425,0.5378758331701595,-0.9689379165850798,0.9634858627041134,0.00024318695068359375,0.0005419254302978516,0
1.5100600719451904,0.40272238850593567,0.3247245252132416,-0.7760413885116577,0.618764528700952,-0.694697762324344,-0.03838601471410244,0.04720140171890057,0.4351818417472813,0.26329660131664995,0.5391427452308907,-0.9695713726154453,0.9676357001832158,0.0002415180206298828,0.0005385875701904297,0
1.520073652267456,0.40455037355422974,0.33039534091949463,-0.7815694212913513,0.6255509636636177,-0.6948049229469871,-0.036118812658896486,0.04864350694866619,0.4344819949367749,0.26068419387955694,0.5404107244137236,-0.9702053622068618,0.9718301789000906,0.0002448558807373047,0.0005409717559814453,0
1.530019998550415,0.4053974449634552,0.3332074284553528,-0.7842881679534912,0.6289482712097553,-0.6949160657185844,-0.03361877593632122,0.049800639257456196,0.43428048026024857,0.25808328199184144,0.5416576590027318,-0.9708288295013658,0.9759964946884377,0.00015592575073242188,0.0003190040588378906,0
1.540079116821289,0.40620023012161255,0.3360041677951813,-0.7869719862937927,0.6323168539832031,-0.6950237845825936,-0.031015348833531586,0.0508229713304302,0.43445628404970044,0.2554468149996955,0.5429059998807448,-0.9714529999403724,0.9802100482966203,0.00014257431030273438,0.00029969215393066406,0
1.55000901222229,0.406961053609848,0.33878499269485474,-0.7896221876144409,0.635690793356637,-0.695132827194452,-0.028234718633759537,0.05170135402917991,0.4348739037594186,0.252838294560491,0.5441257178297515,-0.9720628589148756,0.9843694731556469,0.0001468658447265625,0.00030493736267089844,0
1.5602824687957764,0.4083585739135742,0.3442957103252411,-0.794820249080658,0.6423986618152451,-0.695248176583642,-0.026346208981937787,0.05192101665935326,0.4342645376691732,0.2501333940140461,0.5453744449449515,-0.9726872224724756,0.9886728085820787,0.00015425682067871094,0.0003218650817871094,0
1.5699923038482666,0.4089941680431366,0.3470272719860077,-0.7973690629005432,0.6457569852397957,-0.6953657285431016,-0.024456708615562497,0.05214103962476622,0.4341038274451966,0.24757121955331154,0.5465423050861534,-0.9732711525430766,0.992740054777875,0.0001468658447265625,0.00030541419982910156,0
1.5801775455474854,0.4095889627933502,0.3497447967529297,-0.7998840808868408,0.6491123280681276,-0.6954825496101356,-0.022463583434109716,0.0523764785667697,0.4343329707526577,0.2448777390758319,0.5477544092977333,-0.9738772046488666,0.9970064388441818,0.0001621246337890625,0.00032401084899902344,0
1.5899848937988281,0.4101434350013733,0.3524477779865265,-0.8023667931556702,0.6524518557721586,-0.6955984630080599,-0.020495252929060515,0.05254137835744335,0.43478158283974944,0.2422785834551497,0.5489089979213002,-0.9744544989606501,1.0011145312731973,0.00023889541625976562,0.0005342960357666016,0
1.6001181602478027,0.41112953424453735,0.3578101694583893,-0.8072911500930786,0.6591616271942741,-0.6957167435419402,-0.019645549851928214,0.05191200566058441,0.43417117678908673,0.23958733525480985,0.5500890007857813,-0.9750445003928906,1.0053591439975929,0.00024700164794921875,0.0005459785461425781,0
1.6101140975952148,0.4115610122680664,0.3604680597782135,-0.8097061514854431,0.6625380964411385,-0.6958338214212207,-0.01852215603101394,0.05129220549577701,0.4340478747528499,0.2369269287614053,0.5512400841989703,-0.9756200420994852,1.0095462324424427,0.00027441978454589844,0.0006046295166015625,0
1.6200292110443115,0.41195303201675415,0.36311033368110657,-0.8120887279510498,0.6659015976092658,-0.6959493849521843,-0.017199833185092266,0.05065896275941737,0.4342577127679956,0.23428257006661812,0.5523691495394906,-0.9761845747697453,1.013699465451935,0.0002422332763671875,0.0005464553833007812,0
1.630103588104248,0.4123048782348633,0.36573687195777893,-0.8144406676292419,0.6692752990783744,-0.6960588674857237,-0.01580686417703243,0.04989078300275246,0.43472194077573106,0.2315902254925814,0.5535033581255812,-0.9767516790627906,1.0179194106467335,0.0002446174621582031,0.0005407333374023438,0
1.6401960849761963,0.41261717677116394,0.36834728717803955,-0.8167634606361389,0.6726445490823143,-0.6961632002634888,-0.014347668611781694,0.04916750873971153,0.4353687573311328,0.22888753295997,0.5546264483916167,-0.9773132241958082,1.022146945850639,0.0002522468566894531,0.0005669593811035156,0
1.6501693725585938,0.4131293296813965,0.3735225796699524,-0.8213174939155579,0.6794332396724007,-0.6962829766752476,-0.013964255635254231,0.04767171327221966,0.4348423702986828,0.2262114134413581,0.5557233092365866,-0.9778616546182932,1.0263245467841053,0.00024628639221191406,0.0005588531494140625,0
1.6603167057037354,0.4133295714855194,0.3760847747325897,-0.8235475420951843,0.6828312945669192,-0.6964037797902961,-0.013257292055343461,0.04628248889352992,0.4347935681536366,0.22348319838582026,0.5568260590518767,-0.9784130295259383,1.0305750517524126,0.0001544952392578125,0.00032210350036621094,0
1.6698572635650635,0.4134916663169861,0.37863174080848694,-0.825751006603241,0.686213347663812,-0.6965212841750672,-0.012518571878228753,0.04492444150767225,0.43498976406519096,0.22091321694293656,0.5578506525764069,-0.9789253262882034,1.0345713912841856,0.00015401840209960938,0.00031757354736328125,0
1.6802089214324951,0.41370412707328796,0.38367965817451477,-0.8300668597221375,0.6929763339980544,-0.6966545620281045,-0.012862589556574494,0.04279219610975164,0.43421701594335205,0.21811943451757926,0.5589489353113855,-0.9794744676556927,1.0389074835920253,0.00024199485778808594,0.0005362033843994141,0
1.690032958984375,0.4137555956840515,0.38618090748786926,-0.8321805596351624,0.6963516154206697,-0.6967818813977553,-0.012823773569232479,0.040924214626439324,0.4339535179346839,0.21546299950995113,0.5599782994386253,-0.9799891497193126,1.0430225668189022,0.00015473365783691406,0.00032329559326171875,0
1.6998813152313232,0.4137745499610901,0.3886643648147583,-0.8342669606208801,0.6997644390042116,-0.6968958854456023,-0.012497657436859122,0.03920332107809802,0.434036236666555,0.2127951130513723,0.5609975399780766,-0.9804987699890382,1.0471478366369484,0.0001418590545654297,0.00032138824462890625,0
1.7100186347961426,0.413756400346756,0.39113089442253113,-0.8363276124000549,0.7031362023872488,-0.6970031448277376,-0.012068738745484572,0.03746824853988739,0.43442209494382195,0.21004391248626245,0.5620334107750742,-0.981016705387537,1.051394147126539,0.00019884109497070312,0.0004222393035888672,0
1.719972848892212,0.41360363364219666,0.396017849445343,-0.8403708338737488,0.7098745810740514,-0.6971201992654367,-0.013209930775049115,0.034793068757106936,0.4337289080241632,0.207337498624296,0.5630374425064643,-0.9815187212532321,1.0555637585767352,0.0002079010009765625,0.0004329681396484375,0
1.7299656867980957,0.41347217559814453,0.3984386622905731,-0.8423502445220947,0.7132397177303768,-0.6972376760887501,-0.01391289170879418,0.03242956170369176,0.4335514222419757,0.2046157564467596,0.5640322616781068,-0.9820161308390534,1.0597495487305535,0.00020599365234375,0.00043964385986328125,0
1.7400388717651367,0.41330423951148987,0.4008431136608124,-0.8442900776863098,0.7166181971737489,-0.6973533746685054,-0.014249878329719832,0.030271138467205288,0.43374254459771455,0.201867299677246,0.5650217635817375,-0.9825108817908688,1.0639689945826478,0.00024819374084472656,0.0005424022674560547,0
1.7500410079956055,0.4131011962890625,0.4032312035560608,-0.8462027907371521,0.7200240154944528,-0.6974687687802983,-0.014308511213704923,0.028272315154940792,0.4341702802615533,0.1991334939375451,0.5659910349044636,-0.9829955174522318,1.0681586796095606,0.00024771690368652344,0.0005638599395751953,0
1.7604007720947266,0.41258931159973145,0.4079543650150299,-0.8499497175216675,0.7268129558663423,-0.6976025566854616,-0.015510561374493085,0.025261795543957112,0.4335511505261481,0.1962970350642791,0.5669810173409452,-0.9834905086704726,1.0724981674477903,0.00024819374084472656,0.0005638599395751953,0
1.7701027393341064,0.4122805595397949,0.4102904200553894,-0.8517831563949585,0.7301909313352243,-0.6977292623038072,-0.01628101388517196,0.02257703894825258,0.43337500036074633,0.19363621421662364,0.5678952513834341,-0.983947625691717,1.0765621179817375,0.0002548694610595703,0.0005602836608886719,0
1.7800259590148926,0.41193678975105286,0.41260969638824463,-0.8535913825035095,0.7335497772938325,-0.6978504822780189,-0.016692876120627156,0.020186772482549978,0.43355086371294244,0.19091030957691976,0.5688174168371118,-0.9844087084185559,1.0807187465216195,0.0002529621124267578,0.0005559921264648438,0
1.7900362014770508,0.41155868768692017,0.4149113893508911,-0.855374813079834,0.7369052359154774,-0.6979673962784119,-0.01682887634336331,0.017886348312314816,0.4339880762853509,0.18815605062443494,0.5697344123479071,-0.9848672061739535,1.084911827078922,0.00015354156494140625,0.0003173351287841797,0
1.8001585006713867,0.4111455976963043,0.4171943962574005,-0.8571337461471558,0.7402634104357807,-0.6980814376762401,-0.01674946796531867,0.015726680042506377,0.43462481668022357,0.1853664816128903,0.5706481117943509,-0.9853240558971754,1.0891518458504372,0.00015306472778320312,0.00031828880310058594,0
1.809967279434204,0.4109412133693695,0.42269274592399597,-0.8610643744468689,0.7469658778777808,-0.698186377865092,-0.018232281534687443,0.01368031429617489,0.4340978690310009,0.18265908122571992,0.5715204808629135,-0.9857602404314567,1.0932605374906978,0.00015354156494140625,0.00031948089599609375,0
1.8201522827148438,0.41077733039855957,0.42540261149406433,-0.8629918098449707,0.7503148882435313,-0.6982815536384442,-0.01929351758090381,0.012184228630271604,0.43407298336355044,0.17984349239151767,0.5724127167039723,-0.9862063583519861,1.097526821688464,0.0001537799835205078,0.00031638145446777344,0
1.830085039138794,0.41057172417640686,0.42808666825294495,-0.8648896813392639,0.7536533162887573,-0.6983707437567703,-0.020099920285796387,0.011122442284260571,0.43436388660993586,0.17709343783024342,0.5732694953313543,-0.9866347476656772,1.101687444969981,0.0002455711364746094,0.0005602836608886719,0
1.8401188850402832,0.41003742814064026,0.43337729573249817,-0.8686011433601379,0.7603660788373257,-0.6984560880519164,-0.022357322350392787,0.00977494733047926,0.4336263457552702,0.17431125115909993,0.5741215792141496,-0.9870607896070748,1.1058904125128304,0.00024127960205078125,0.0005400180816650391,0
1.8500645160675049,0.4097091853618622,0.435983806848526,-0.870415449142456,0.7637106761000523,-0.6985387891157709,-0.023999667574706805,0.008854970503250846,0.4334180992520028,0.17154947892492242,0.5749528470062459,-0.9874764235031229,1.110056428695555,0.0001609325408935547,0.0003292560577392578,0
1.8599817752838135,0.40934208035469055,0.43856483697891235,-0.8722014427185059,0.7670433028429673,-0.6986184154448266,-0.025097616057350235,0.008192321148462148,0.4335803911060072,0.16879163812558054,0.5757685150291592,-0.9878842575145795,1.114210560521915,0.00014328956604003906,0.000301361083984375,0
1.870025634765625,0.4089362621307373,0.44112053513526917,-0.8739604353904724,0.7703732024198129,-0.6986956443571697,-0.025921819369623268,0.007687570598522592,0.43402296882056807,0.16599463940791323,0.5765811128434896,-0.9882905564217448,1.1184177225434815,0.00016832351684570312,0.0003304481506347656,0
1.880068302154541,0.4080062210559845,0.44615691900253296,-0.8774069547653198,0.77702781485282,-0.6987818912171516,-0.028175613511806953,0.00668543065029547,0.43341479206295264,0.16319406163859898,0.5773800293098966,-0.9886900146549482,1.1226243852223434,0.0001518726348876953,0.00031185150146484375,0
1.8899493217468262,0.40748438239097595,0.4486388862133026,-0.879094660282135,0.780347655237183,-0.6988632127879668,-0.029784455171463994,0.00597209357546842,0.4332962351165571,0.1604348094315805,0.5781528101831318,-0.9890764050915659,1.12676333703049,0.00014472007751464844,0.00030612945556640625,0
1.90016770362854,0.40692538022994995,0.4510965943336487,-0.8807564973831177,0.7836849661900028,-0.6989429794911166,-0.030897865566530378,0.005463189568460691,0.43356685331933076,0.15757750169881798,0.5789381063277481,-0.989469053163874,1.131043602823979,0.00015163421630859375,0.00031876564025878906,0
1.909886121749878,0.406329482793808,0.4535301923751831,-0.8823930621147156,0.7870267056581367,-0.6990173408885946,-0.03166839242636701,0.005101127151157967,0.4340296993094473,0.15485642886994636,0.5796718782532471,-0.9898359391266235,1.1351144442872467,0.0001513957977294922,0.0003192424774169922,0
1.9200665950775146,0.40503284335136414,0.4583292305469513,-0.8855958580970764,0.7937452679394186,-0.6990916528319865,-0.03368527804917002,0.004547207703388833,0.4334333756578744,0.15200232150148163,0.580426820760516,-0.990213410380258,1.1393788309827362,0.00017213821411132812,0.00032830238342285156,0
1.9299941062927246,0.40433260798454285,0.460695743560791,-0.8871620297431946,0.7971144956579966,-0.6991609524461807,-0.0349819836471671,0.0042268982341901115,0.43331189852239627,0.14921558773753776,0.5811494716302693,-0.9905747358151347,1.143537257156354,0.0001537799835205078,0.00031495094299316406,0
1.940002679824829,0.4035986363887787,0.4630395770072937,-0.888704240322113,0.8004654148228844,-0.6992329660541441,-0.035726395145171556,0.004041362511392016,0.43354241289479056,0.146402621783269,0.5818644793549311,-0.9909322396774656,1.1477296386338705,0.0001418590545654297,0.00030040740966796875,0
1.9500439167022705,0.40283215045928955,0.4653599262237549,-0.8902224898338318,0.8038072242016715,-0.6993038534106584,-0.03606812801553579,0.0039399488752888045,0.43402786823878386,0.1435770330683205,0.5825681381394784,-0.9912840690697391,1.151935702101487,0.00015664100646972656,0.0003228187561035156,0
