time,x,y,z,yaw,throttle,roll_rate,pitch_rate,yaw_rate,x_ref,y_ref,z_ref,yaw_ref,pred_time,nr_time,ctrl_callback_time,metadata
3.0994415283203125e-06,-0.057005416601896286,-0.14458099007606506,-0.23863983154296875,-0.11264823849354298,-0.4962748498301708,0.06459513480129248,-0.040444548151818374,0.042243089435109654,0.0,0.0,-0.6,0.0,0.0018863677978515625,0.003311634063720703,0.006598711013793945,Hardware
0.013345003128051758,-0.05699758604168892,-0.1445760577917099,-0.23863010108470917,-0.11264082537369464,-0.5046956649237737,0.10691777149253956,-0.07114766918171596,0.07181047211968268,0.0,0.0,-0.6,0.0,0.001184701919555664,0.0021271705627441406,0.005014181137084961,Nonlinear
0.021404027938842773,-0.056988008320331573,-0.14457160234451294,-0.2386166751384735,-0.11261415148778113,-0.5114649760653613,0.13340388990421617,-0.09385675538997029,0.09249763729176483,0.0,0.0,-0.6,0.0,0.00115203857421875,0.002050638198852539,0.004523038864135742,2x Speed
0.03070235252380371,-0.0569855198264122,-0.1445673704147339,-0.23860467970371246,-0.11262176999309025,-0.5169090036343662,0.14902277872434264,-0.11009997931122407,0.10698150985162974,0.0,0.0,-0.6,0.0,0.0016944408416748047,0.0027456283569335938,0.0063648223876953125,0OrderHold
0.04041433334350586,-0.05698742717504501,-0.14456331729888916,-0.23858927190303802,-0.11263700801970059,-0.5213009282683281,0.15792697506632722,-0.12103879078531143,0.1171259349035536,0.0,0.0,-0.6,0.0,0.001922607421875,0.0032367706298828125,0.0063703060150146484,QuatYawError
0.05020260810852051,-0.05698408931493759,-0.1445612758398056,-0.23859688639640808,-0.11260399752630956,-0.5248468388111038,0.16187356426376318,-0.12740189608551897,0.1242146535048588,0.0,0.0,-0.6,0.0,0.000995635986328125,0.0018274784088134766,0.003945589065551758,NoPyJoules
0.06017947196960449,-0.05697103962302208,-0.1445648968219757,-0.2386029213666916,-0.11250611549147825,-0.527693980994287,0.1641910577437212,-0.13158540114067102,0.12914005076270058,0.0,0.0,-0.6,0.0,0.0014507770538330078,0.0024061203002929688,0.004837512969970703,0
0.07051444053649902,-0.05696382746100426,-0.14457616209983826,-0.23861293494701385,-0.1124138339513724,-0.5299196649494916,0.16348739661082584,-0.1340570238058737,0.13255322326565164,0.0,0.0,-0.6,0.0,0.0017421245574951172,0.002954244613647461,0.005953788757324219,0
0.08052229881286621,-0.056956011801958084,-0.1445789784193039,-0.23864321410655975,-0.11214098342382386,-0.5316464988078086,0.16349190669642424,-0.1355955673493889,0.1348401250698878,0.0,0.0,-0.6,0.0,0.0018429756164550781,0.0031290054321289062,0.006235361099243164,0
0.09137487411499023,-0.05696459859609604,-0.14460936188697815,-0.23868080973625183,-0.11192353519065558,-0.5330276546322726,0.16239508539672767,-0.13633786627007283,0.13635941324541578,0.0,0.0,-0.6,0.0,0.0016813278198242188,0.002863168716430664,0.0060770511627197266,0
0.10130023956298828,-0.05697066709399223,-0.14464053511619568,-0.23871801793575287,-0.11189097512645683,-0.5341382133080793,0.16209357320019685,-0.1381332506976649,0.13741070494421131,0.0,0.0,-0.6,0.0,0.0016198158264160156,0.0028655529022216797,0.005884885787963867,0
0.11167454719543457,-0.056961484253406525,-0.14466309547424316,-0.23875530064105988,-0.11198770444145806,-0.5350098241059961,0.16190483442421394,-0.13752311528237313,0.13818288262649392,0.0,0.0,-0.6,0.0,0.0016024112701416016,0.0025987625122070312,0.005539417266845703,0
0.12205839157104492,-0.05695619806647301,-0.1446746289730072,-0.23879189789295197,-0.11199321035740803,-0.5357091372799743,0.1603575058380592,-0.1352864251396997,0.1387254717225732,0.0,0.0,-0.6,0.0,0.0017650127410888672,0.002915620803833008,0.005980968475341797,0
0.13019156455993652,-0.056930482387542725,-0.1446988731622696,-0.23883864283561707,-0.11183463556282852,-0.5362149108978969,0.15935873713019408,-0.13271654337467736,0.13904581854186163,0.0,0.0,-0.6,0.0,0.0019538402557373047,0.0031142234802246094,0.006945133209228516,0
0.14090323448181152,-0.05687180161476135,-0.1447228342294693,-0.23890052735805511,-0.11162120274094521,-0.5366423037094696,0.1592273916637433,-0.12931013617278855,0.13919002400715744,0.0,0.0,-0.6,0.0,0.0015196800231933594,0.0028901100158691406,0.0062541961669921875,0
0.1500861644744873,-0.056787002831697464,-0.1447330266237259,-0.23896925151348114,-0.11137856343213992,-0.5368852672337122,0.16054382166514033,-0.1251387731118574,0.13919997809206267,0.0,0.0,-0.6,0.0,0.0012466907501220703,0.0022258758544921875,0.004755973815917969,0
0.1609809398651123,-0.05667069926857948,-0.14473843574523926,-0.2390398234128952,-0.11114187974042114,-0.5371160908070066,0.1616890570287327,-0.12052076264826915,0.13911818956710187,0.0,0.0,-0.6,0.0,0.001268148422241211,0.0022618770599365234,0.0055773258209228516,0
0.17102479934692383,-0.0565224327147007,-0.14473532140254974,-0.23916277289390564,-0.11091132130601797,-0.5371850194503961,0.16165246745573442,-0.11414024917812722,0.13897447818672817,0.0,0.0,-0.6,0.0,0.0017819404602050781,0.002786874771118164,0.006531715393066406,0
0.18105101585388184,-0.056348174810409546,-0.1447240561246872,-0.23936165869235992,-0.11062532823024514,-0.5370705502912357,0.15996092433506964,-0.10713402335925264,0.13876663281705184,0.0,0.0,-0.6,0.0,0.0017919540405273438,0.0031223297119140625,0.006735563278198242,0
0.1909346580505371,-0.05615207180380821,-0.144682839512825,-0.23958821594715118,-0.11016546564626231,-0.5369362470669244,0.15644532068348424,-0.09902137043286047,0.13844869258928497,0.0,0.0,-0.6,0.0,0.0019333362579345703,0.0031669139862060547,0.006302356719970703,0
0.20039987564086914,-0.0559411458671093,-0.14462916553020477,-0.23984380066394806,-0.10951870929987044,-0.5367810617961812,0.15082201049593963,-0.08988729683364573,0.13798360079995137,0.0,0.0,-0.6,0.0,0.0015573501586914062,0.0026946067810058594,0.0062143802642822266,0
0.21191763877868652,-0.055728547275066376,-0.14457790553569794,-0.24015425145626068,-0.10874568983921473,-0.5366302879149927,0.14316833685046,-0.08088720318223896,0.1373681542496721,0.0,0.0,-0.6,0.0,0.0016942024230957031,0.0031239986419677734,0.0059664249420166016,0
0.22190213203430176,-0.055520810186862946,-0.1445261836051941,-0.2405078262090683,-0.10787404843999379,-0.5364488702032015,0.13281933811353064,-0.07193965955265376,0.1366104761397689,0.0,0.0,-0.6,0.0,0.001659393310546875,0.002981901168823242,0.006018161773681641,0
0.23180389404296875,-0.05531151220202446,-0.14447595179080963,-0.24093317985534668,-0.10685380851473215,-0.5361397165718339,0.12122671479205455,-0.0640478108763538,0.1356975114908637,0.0,0.0,-0.6,0.0,0.0020160675048828125,0.0033092498779296875,0.006339311599731445,0
0.24135875701904297,-0.05509348586201668,-0.14443126320838928,-0.241473987698555,-0.1056022370508273,-0.5356858390733827,0.10867114007052354,-0.05716770537925587,0.13458909693766594,0.0,0.0,-0.6,0.0,0.0017631053924560547,0.0030045509338378906,0.0062770843505859375,0
0.25083065032958984,-0.054873667657375336,-0.14437054097652435,-0.24213039875030518,-0.10417157577387771,-0.5351181212198528,0.0950282307230269,-0.0505925232370001,0.1332767087715716,0.0,0.0,-0.6,0.0,0.0013332366943359375,0.0023348331451416016,0.005037546157836914,0
0.26039981842041016,-0.05463507026433945,-0.14429700374603271,-0.24291086196899414,-0.10259551909941302,-0.5344189909255227,0.08153059834641793,-0.04260116091611639,0.1317670158023815,0.0,0.0,-0.6,0.0,0.0017838478088378906,0.002972126007080078,0.006730318069458008,0
0.27045297622680664,-0.05437987670302391,-0.14421507716178894,-0.24381546676158905,-0.10083828898710029,-0.5336752694458783,0.06942711044596513,-0.03336232991234423,0.13005126943183137,0.0,0.0,-0.6,0.0,0.0015532970428466797,0.0029010772705078125,0.006314992904663086,0
0.2806360721588135,-0.05413351580500603,-0.14410069584846497,-0.2447894811630249,-0.09892309530232443,-0.5329764305645347,0.05741006256218617,-0.02419934249252602,0.12813204934065556,0.0,0.0,-0.6,0.0,0.0016238689422607422,0.002928495407104492,0.00580906867980957,0
0.29111170768737793,-0.053906019777059555,-0.14393658936023712,-0.24581630527973175,-0.09690861640252842,-0.5323487882736404,0.04550518567489681,-0.014396750067664731,0.12603316568940914,0.0,0.0,-0.6,0.0,0.0017771720886230469,0.0028727054595947266,0.0060176849365234375,0
0.300900936126709,-0.053674470633268356,-0.14374805986881256,-0.246905118227005,-0.09478558539349585,-0.5317125857836228,0.034185096030581674,-0.002911724112159982,0.12376781050514961,0.0,0.0,-0.6,0.0,0.0015184879302978516,0.0028994083404541016,0.005957603454589844,0
0.3119058609008789,-0.05341518670320511,-0.14356666803359985,-0.2480716109275818,-0.0925872714646283,-0.5310099595850513,0.023767691297111808,0.010132299878952306,0.12135769415283858,0.0,0.0,-0.6,0.0,0.0016734600067138672,0.002880573272705078,0.0060155391693115234,0
0.3218512535095215,-0.05316396430134773,-0.14337533712387085,-0.24935080111026764,-0.09028268671656973,-0.5302261602992495,0.013864637203651074,0.02207379176623618,0.11880639342569878,0.0,0.0,-0.6,0.0,0.0014274120330810547,0.0024776458740234375,0.0053255558013916016,0
0.329984188079834,-0.052918896079063416,-0.14315380156040192,-0.2507072985172272,-0.08789082947928069,-0.529483696868245,0.003415287233647181,0.03421207728967341,0.11612353645271743,0.0,0.0,-0.6,0.0,0.001135110855102539,0.0019991397857666016,0.004333972930908203,0
0.3403205871582031,-0.05264490097761154,-0.1429050713777542,-0.25213807821273804,-0.08541877072415076,-0.528693523325011,-0.006452062441025995,0.046433592921005275,0.11331851453845668,0.0,0.0,-0.6,0.0,0.0014035701751708984,0.002429485321044922,0.005398750305175781,0
0.3504960536956787,-0.05235100910067558,-0.1426677703857422,-0.2536758780479431,-0.08283915448248086,-0.5278083617035553,-0.015480779406305068,0.05771836975084192,0.11038764310784276,0.0,0.0,-0.6,0.0,0.0015041828155517578,0.0024530887603759766,0.0055544376373291016,0
0.36011767387390137,-0.05207233130931854,-0.14243407547473907,-0.25533783435821533,-0.0801638198484004,-0.5268732544909772,-0.02430487092583172,0.06601699787087796,0.10733278261863782,0.0,0.0,-0.6,0.0,0.0010213851928710938,0.0019135475158691406,0.004693269729614258,0
0.3699328899383545,-0.05180460214614868,-0.14216795563697815,-0.2570779025554657,-0.07738609165720105,-0.5260283443092403,-0.03533621789391071,0.07271735449299,0.10415273220450005,0.0,0.0,-0.6,0.0,0.00119781494140625,0.002560138702392578,0.005559444427490234,0
0.38137173652648926,-0.051238175481557846,-0.14153626561164856,-0.2606023848056793,-0.07154271575266846,-0.525184604931626,-0.049254283792301144,0.07885377180979176,0.09973543095040513,0.0,0.0,-0.6,0.0,0.0013477802276611328,0.002377748489379883,0.005186319351196289,0
0.39137983322143555,-0.051238175481557846,-0.14153626561164856,-0.2606023848056793,-0.07154271575266846,-0.5244940214181921,-0.058449463234038365,0.08293464486980301,0.09664332007253199,0.0,0.0,-0.6,0.0,0.002001523971557617,0.0032575130462646484,0.006545543670654297,0
0.4020662307739258,-0.05061137303709984,-0.14091475307941437,-0.2644539177417755,-0.06545197926668155,-0.5234856114468449,-0.07057068731054825,0.0853522096720493,0.09219481627578242,0.0,0.0,-0.6,0.0,0.0013713836669921875,0.002354860305786133,0.005479335784912109,0
0.41086721420288086,-0.05061137303709984,-0.14091475307941437,-0.2644539177417755,-0.06545197926668155,-0.5226672824723452,-0.07848971999687315,0.08690111712189899,0.08908086361805098,0.0,0.0,-0.6,0.0,0.00115203857421875,0.002918720245361328,0.0057408809661865234,0
0.4208965301513672,-0.05032237246632576,-0.14055480062961578,-0.2664971947669983,-0.062306280978488275,-0.5219624751296158,-0.08820567868125742,0.08647109678073273,0.08572145989957215,0.0,0.0,-0.6,0.0,0.001634359359741211,0.0026748180389404297,0.0059430599212646484,0
0.43114709854125977,-0.05002385005354881,-0.14016962051391602,-0.2684985101222992,-0.05905769147302764,-0.5213857720936789,-0.09738898027247915,0.08746878324317386,0.08215165623208945,0.0,0.0,-0.6,0.0,0.0017628669738769531,0.002906322479248047,0.006125688552856445,0
0.4417605400085449,-0.04968800023198128,-0.13978590071201324,-0.27053549885749817,-0.055729131706616336,-0.5207704606932184,-0.10418362818120074,0.08828117422379968,0.0784045837524475,0.0,0.0,-0.6,0.0,0.001256704330444336,0.0022611618041992188,0.0052721500396728516,0
0.45098876953125,-0.04902251064777374,-0.13901764154434204,-0.27477502822875977,-0.04903586789675831,-0.5200085806683606,-0.1114246247680331,0.08674420688171222,0.07327165908800275,0.0,0.0,-0.6,0.0,0.0015957355499267578,0.0028841495513916016,0.005717277526855469,0
0.46001195907592773,-0.04902251064777374,-0.13901764154434204,-0.27477502822875977,-0.04903586789675831,-0.519394011730206,-0.11613441311146404,0.08563504791512762,0.06967861182288676,0.0,0.0,-0.6,0.0,0.00131988525390625,0.0021924972534179688,0.005159616470336914,0
0.4705846309661865,-0.04833994805812836,-0.13816002011299133,-0.27919435501098633,-0.042354993010320516,-0.5187483428962387,-0.11932200454177776,0.08501437074587824,0.0646581506548916,0.0,0.0,-0.6,0.0,0.0017044544219970703,0.002735137939453125,0.005202293395996094,0
0.4805271625518799,-0.04833994805812836,-0.13816002011299133,-0.27919435501098633,-0.042354993010320516,-0.5182294878448146,-0.1213220728507908,0.08454893940468301,0.06114382783728563,0.0,0.0,-0.6,0.0,0.0012471675872802734,0.002214193344116211,0.005497455596923828,0
0.49129343032836914,-0.04761862754821777,-0.1372254341840744,-0.2838025987148285,-0.03540563124790721,-0.5173368849786797,-0.12068145726693294,0.08424155162614883,0.05607779120407021,0.0,0.0,-0.6,0.0,0.0011761188507080078,0.0030591487884521484,0.00614476203918457,0
0.5004687309265137,-0.04761862754821777,-0.1372254341840744,-0.2838025987148285,-0.03540563124790721,-0.5166208349911681,-0.12002513941742379,0.08399697354650588,0.05253156556081174,0.0,0.0,-0.6,0.0,0.0014455318450927734,0.0025463104248046875,0.005579233169555664,0
0.5111603736877441,-0.047256361693143845,-0.13670258224010468,-0.2862280011177063,-0.0319008061982496,-0.5159691594140995,-0.11881137289734638,0.08357261001226873,0.04873489821691232,0.0,0.0,-0.6,0.0,0.0018117427825927734,0.003250598907470703,0.0063059329986572266,0
0.520615816116333,-0.046852774918079376,-0.13614653050899506,-0.28865936398506165,-0.02839041794335296,-0.5153191640014171,-0.11641614439557506,0.08405714736740498,0.04476083548059996,0.0,0.0,-0.6,0.0,0.0017278194427490234,0.0030155181884765625,0.0059967041015625,0
0.5302245616912842,-0.04643819481134415,-0.13563157618045807,-0.2912082076072693,-0.024787827142028263,-0.5145008501536572,-0.11124869108026494,0.08214088932059506,0.04062802001468112,0.0,0.0,-0.6,0.0,0.0015795230865478516,0.0025043487548828125,0.005580902099609375,0
0.5407288074493408,-0.045667052268981934,-0.13458849489688873,-0.2963508367538452,-0.017521428797021888,-0.5139120885799418,-0.10642442600383811,0.07657154353907943,0.035010149809160736,0.0,0.0,-0.6,0.0,0.0012540817260742188,0.0022821426391601562,0.0051648616790771484,0
0.5497486591339111,-0.045667052268981934,-0.13458849489688873,-0.2963508367538452,-0.017521428797021888,-0.5134383966215204,-0.10297659997898158,0.0727854173832692,0.03107764066529795,0.0,0.0,-0.6,0.0,0.0011837482452392578,0.0019600391387939453,0.004171609878540039,0
0.5610504150390625,-0.04475590959191322,-0.13352011144161224,-0.3015107214450836,-0.010258271407670896,-0.5127686852922897,-0.09723185780470184,0.06926303728400159,0.025601200243585875,0.0,0.0,-0.6,0.0,0.0013031959533691406,0.002225160598754883,0.0049436092376708984,0
0.5699496269226074,-0.04475590959191322,-0.13352011144161224,-0.3015107214450836,-0.010258271407670896,-0.5122309349269669,-0.09314838700588472,0.06686759527048511,0.021767691948387208,0.0,0.0,-0.6,0.0,0.0011832714080810547,0.002084493637084961,0.004487276077270508,0
0.5805089473724365,-0.043878305703401566,-0.13245469331741333,-0.30668553709983826,-0.003033264767177282,-0.5119225032389165,-0.08744262654602881,0.06365584389383086,0.01637485865156324,0.0,0.0,-0.6,0.0,0.0009052753448486328,0.0017025470733642578,0.003953456878662109,0
0.5900287628173828,-0.043878305703401566,-0.13245469331741333,-0.30668553709983826,-0.003033264767177282,-0.5116752752196827,-0.08347052363640511,0.06147895908733914,0.012599875343784612,0.0,0.0,-0.6,0.0,0.0011827945709228516,0.0020589828491210938,0.004453420639038086,0
0.6007790565490723,-0.042998749762773514,-0.13144856691360474,-0.3118537664413452,0.004255688021281144,-0.511086294233957,-0.07400174386986828,0.06233039843379021,0.007224029732668346,0.0,0.0,-0.6,0.0,0.000949859619140625,0.0017063617706298828,0.00394749641418457,0
0.61191725730896,-0.042998749762773514,-0.13144856691360474,-0.3118537664413452,0.004255688021281144,-0.510615061126927,-0.06741646395171567,0.06292999946161654,0.003460937804887096,0.0,0.0,-0.6,0.0,0.0014834403991699219,0.0024411678314208984,0.005956411361694336,0
0.6205780506134033,-0.042562033981084824,-0.130940780043602,-0.31445664167404175,0.007901275876609477,-0.5102123129529,-0.06156261303063757,0.06651438176517854,-0.0005403219903079241,0.0,0.0,-0.6,0.0,0.0013399124145507812,0.0029900074005126953,0.006186962127685547,0
0.6312611103057861,-0.04158956557512283,-0.12995707988739014,-0.3197081983089447,0.015189488116245545,-0.5096877005701574,-0.05349951844931512,0.07439825564948346,-0.006074283436808092,0.0,0.0,-0.6,0.0,0.0017697811126708984,0.003039121627807617,0.006348371505737305,0
0.6409316062927246,-0.04158956557512283,-0.12995707988739014,-0.3197081983089447,0.015189488116245545,-0.5092699449319534,-0.0479035561566615,0.07979942656672236,-0.009948056449358911,0.0,0.0,-0.6,0.0,0.0020301342010498047,0.0029938220977783203,0.006209373474121094,0
0.6507053375244141,-0.04111628234386444,-0.129465714097023,-0.3222842812538147,0.018826877336187927,-0.5090445557769774,-0.044969597900880204,0.08228705311215896,-0.014023718515622938,0.0,0.0,-0.6,0.0,0.0017917156219482422,0.002755880355834961,0.006763935089111328,0
0.661555290222168,-0.04064171016216278,-0.1289554238319397,-0.32483410835266113,0.02243031813860035,-0.5088515074621436,-0.0426791749415925,0.08409712954395977,-0.018227972262911542,0.0,0.0,-0.6,0.0,0.0013065338134765625,0.002338886260986328,0.005607128143310547,0
0.6731736660003662,-0.04011786729097366,-0.12845772504806519,-0.3273990750312805,0.026064037290993478,-0.5085507075517633,-0.03763809535169732,0.08530008915755917,-0.02253359456816193,0.0,0.0,-0.6,0.0,0.00924372673034668,0.01285099983215332,0.01934647560119629,0
0.6976029872894287,-0.03847350925207138,-0.12703847885131836,-0.33487531542778015,0.03693104752610803,-0.5084459053398149,-0.029455388287484768,0.08260366711806275,-0.029622659020005996,0.0,0.0,-0.6,0.0,0.003448486328125,0.007240772247314453,0.016195297241210938,0
0.720062255859375,-0.03847350925207138,-0.12703847885131836,-0.33487531542778015,0.03693104752610803,-0.50836296837952,-0.023845202715482273,0.08080594314491879,-0.0345850041362962,0.0,0.0,-0.6,0.0,0.0035905838012695312,0.0066280364990234375,0.014209508895874023,0
0.7394614219665527,-0.03610261157155037,-0.12523047626018524,-0.3443971574306488,0.051804794168764594,-0.5083637721772662,-0.015262501274106808,0.082460053299031,-0.04363630070868894,0.0,0.0,-0.6,0.0,0.0037322044372558594,0.006742715835571289,0.014767169952392578,0
0.7580657005310059,-0.03610261157155037,-0.12523047626018524,-0.3443971574306488,0.051804794168764594,-0.5083673363823841,-0.009419470576183576,0.08363757267617686,-0.04997220830936814,0.0,0.0,-0.6,0.0,0.003162384033203125,0.006339550018310547,0.014705657958984375,0
0.7786121368408203,-0.03370029479265213,-0.12353017926216125,-0.3530339300632477,0.06646789589706156,-0.5083781064853512,0.007436046362748607,0.09353809022701895,-0.059906006777945844,0.0,0.0,-0.6,0.0,0.0046122074127197266,0.007795095443725586,0.015614032745361328,0
0.7983424663543701,-0.03370029479265213,-0.12353017926216125,-0.3530339300632477,0.06646789589706156,-0.5083936265968807,0.01887204451425642,0.10039664672496437,-0.06685966570595926,0.0,0.0,-0.6,0.0,0.0011126995086669922,0.002828359603881836,0.007403373718261719,0
0.808530330657959,-0.03192918002605438,-0.12244755029678345,-0.35907429456710815,0.07701256342977317,-0.5087016844916614,0.030294382512223536,0.09906339115975854,-0.07568147728033525,0.0,0.0,-0.6,0.0,0.002277851104736328,0.003751516342163086,0.0066373348236083984,0
0.8194887638092041,-0.03192918002605438,-0.12244755029678345,-0.35907429456710815,0.07701256342977317,-0.5089540203994534,0.03803338895878762,0.09820210675093011,-0.08185674538239879,0.0,0.0,-0.6,0.0,0.001697540283203125,0.0034058094024658203,0.008277177810668945,0
0.8310492038726807,-0.030738452449440956,-0.12179155647754669,-0.36281946301460266,0.08367553775014995,-0.5089784091570421,0.04672188419303615,0.0942863238002685,-0.0886780484239904,0.0,0.0,-0.6,0.0,0.0021829605102539062,0.0036330223083496094,0.0073163509368896484,0
0.8425462245941162,-0.02953391708433628,-0.12122823297977448,-0.36663198471069336,0.09016247905046587,-0.5091097686716841,0.04942519606124373,0.09112142649542929,-0.09588556354072326,0.0,0.0,-0.6,0.0,0.0021059513092041016,0.003504037857055664,0.006915092468261719,0
0.8518648147583008,-0.02953391708433628,-0.12122823297977448,-0.36663198471069336,0.09016247905046587,-0.5092155637483229,0.05124949081360866,0.08896867739556277,-0.10093082412242595,0.0,0.0,-0.6,0.0,0.0017185211181640625,0.0032167434692382812,0.0069980621337890625,0
0.8621890544891357,-0.028920775279402733,-0.12094288319349289,-0.36843520402908325,0.09333102296202597,-0.5093340827527373,0.04998224813079149,0.0866933689590794,-0.10565071049646137,0.0,0.0,-0.6,0.0,0.0018894672393798828,0.0035195350646972656,0.0076601505279541016,0
0.8733925819396973,-0.02776932716369629,-0.12046363949775696,-0.3720904588699341,0.09954227719805522,-0.5092831105233298,0.051296235973688604,0.08393745465294081,-0.11128385129680758,0.0,0.0,-0.6,0.0,0.001756906509399414,0.0033414363861083984,0.007445573806762695,0
0.8833837509155273,-0.02776932716369629,-0.12046363949775696,-0.3720904588699341,0.09954227719805522,-0.509241576765535,0.052211707006979975,0.08207092220540801,-0.11522704985703207,0.0,0.0,-0.6,0.0,0.002208232879638672,0.0037374496459960938,0.007935523986816406,0
0.8947186470031738,-0.026541564613580704,-0.12005037814378738,-0.3758399784564972,0.10551815025104665,-0.5090403078126738,0.05948941782075416,0.07923730011831107,-0.12022824124405994,0.0,0.0,-0.6,0.0,0.0020868778228759766,0.003002166748046875,0.006685495376586914,0
0.9043333530426025,-0.026541564613580704,-0.12005037814378738,-0.3758399784564972,0.10551815025104665,-0.5088825680696439,0.06451247884021136,0.0773508867688919,-0.1237290752149931,0.0,0.0,-0.6,0.0,0.002457857131958008,0.003980875015258789,0.008394002914428711,0
0.9171428680419922,-0.025360682979226112,-0.11964825540781021,-0.37947139143943787,0.11140273168529946,-0.5087397247927596,0.0664316541277391,0.06955959120414876,-0.1283863770324778,0.0,0.0,-0.6,0.0,0.0020596981048583984,0.003630399703979492,0.008171558380126953,0
0.9290094375610352,-0.025360682979226112,-0.11964825540781021,-0.37947139143943787,0.11140273168529946,-0.5086217796158068,0.06779897265756177,0.06427141894263769,-0.1316464883047185,0.0,0.0,-0.6,0.0,0.001619577407836914,0.0035424232482910156,0.007809877395629883,0
0.9404141902923584,-0.024141332134604454,-0.11935192346572876,-0.3832450211048126,0.11711147723849452,-0.5085261655779175,0.06300454210174175,0.058586543137249134,-0.13606934577773397,0.0,0.0,-0.6,0.0,0.0012209415435791016,0.0029752254486083984,0.0070018768310546875,0
0.9514815807342529,-0.023505767807364464,-0.11924104392528534,-0.38510408997535706,0.11998593826431428,-0.5084344934349224,0.0596783611001844,0.05571722827369861,-0.14024326889352745,0.0,0.0,-0.6,0.0,0.002043485641479492,0.0036432743072509766,0.0075185298919677734,0
0.9621677398681641,-0.022288309410214424,-0.1190762147307396,-0.388894647359848,0.12564290586184804,-0.5082072972737444,0.05799780877147148,0.05315893640435011,-0.14528637792365717,0.0,0.0,-0.6,0.0,0.002366304397583008,0.0037698745727539062,0.006609439849853516,0
0.971670389175415,-0.022288309410214424,-0.1190762147307396,-0.388894647359848,0.12564290586184804,-0.5080215873477067,0.056923219521601454,0.051437093568268207,-0.14881655424474952,0.0,0.0,-0.6,0.0,0.0019121170043945312,0.0034987926483154297,0.007109403610229492,0
0.9817383289337158,-0.02101736329495907,-0.11894578486680984,-0.3926701247692108,0.13121614391331576,-0.5077413230306941,0.05793528189707972,0.04894153163620108,-0.1533776419388135,0.0,0.0,-0.6,0.0,0.0011119842529296875,0.0029222965240478516,0.005419015884399414,0
0.9919977188110352,-0.02101736329495907,-0.11894578486680984,-0.3926701247692108,0.13121614391331576,-0.5075156096034715,0.05871306759436858,0.047275501717159635,-0.15657040332465966,0.0,0.0,-0.6,0.0,0.0020132064819335938,0.0037775039672851562,0.0074863433837890625,0
1.0027015209197998,-0.019819820299744606,-0.11878744512796402,-0.39637482166290283,0.13662632990814721,-0.5073369217014125,0.061879094676638643,0.043501302693352124,-0.1608341560428127,0.0,0.0,-0.6,0.0,0.002026081085205078,0.0035712718963623047,0.006966829299926758,0
1.013437271118164,-0.019819820299744606,-0.11878744512796402,-0.39637482166290283,0.13662632990814721,-0.5071944712865636,0.06410255803887771,0.040959069600626785,-0.1638187829455211,0.0,0.0,-0.6,0.0,0.0019931793212890625,0.004448413848876953,0.009090900421142578,0
1.0261878967285156,-0.018613938242197037,-0.11872723698616028,-0.4001075029373169,0.14191866526086758,-0.5072072563962496,0.061831913770199975,0.035364008706453315,-0.16789264753468602,0.0,0.0,-0.6,0.0,0.0011320114135742188,0.0033292770385742188,0.007838249206542969,0
1.0368072986602783,-0.018613938242197037,-0.11872723698616028,-0.4001075029373169,0.14191866526086758,-0.5072124974216267,0.060288093590292725,0.03154482693209685,-0.1707443527471027,0.0,0.0,-0.6,0.0,0.0015866756439208984,0.0034253597259521484,0.007917404174804688,0
1.0489585399627686,-0.01740410551428795,-0.1187153309583664,-0.4036484658718109,0.14697209416232446,-0.5070503869099949,0.05550777796480891,0.028848871349292923,-0.17463558223383968,0.0,0.0,-0.6,0.0,0.0009982585906982422,0.0018231868743896484,0.005597114562988281,0
1.058196783065796,-0.016841039061546326,-0.1187315434217453,-0.40542343258857727,0.149475183713925,-0.5071002277881224,0.051370062145799665,0.02685427145504117,-0.17829810145640598,0.0,0.0,-0.6,0.0,0.0019099712371826172,0.0036187171936035156,0.008166790008544922,0
1.0677552223205566,-0.016841039061546326,-0.1187315434217453,-0.40542343258857727,0.149475183713925,-0.5071352333156594,0.04853257387948289,0.02548251861741441,-0.1808618649122035,0.0,0.0,-0.6,0.0,0.0010404586791992188,0.0018694400787353516,0.0053348541259765625,0
1.0774102210998535,-0.015678895637392998,-0.11876038461923599,-0.4089182913303375,0.15438339513288088,-0.5069325611543806,0.04969006046743829,0.02495150019957225,-0.18449707861336914,0.0,0.0,-0.6,0.0,0.0010154247283935547,0.002574920654296875,0.007443904876708984,0
1.0870394706726074,-0.015678895637392998,-0.11876038461923599,-0.4089182913303375,0.15438339513288088,-0.5067704227690983,0.05054537278335146,0.02461401031167471,-0.1870417282041862,0.0,0.0,-0.6,0.0,0.00917673110961914,0.011028289794921875,0.014517545700073242,0
1.104365348815918,-0.014089188538491726,-0.11878563463687897,-0.4140608310699463,0.16137706258786294,-0.5067300897191873,0.04914544173599234,0.015321379732421923,-0.19144560821337453,0.0,0.0,-0.6,0.0,0.002334117889404297,0.003461122512817383,0.006826162338256836,0
1.113765001296997,-0.014089188538491726,-0.11878563463687897,-0.4140608310699463,0.16137706258786294,-0.5066920035670004,0.04822346179468222,0.008989496231034013,-0.1945283242198077,0.0,0.0,-0.6,0.0,0.0025513172149658203,0.003788471221923828,0.0070383548736572266,0
1.1252379417419434,-0.013063663616776466,-0.11881382018327713,-0.41746336221694946,0.16588830434206686,-0.5067419110980008,0.04081299721450045,0.003822241976143879,-0.1983779410821366,0.0,0.0,-0.6,0.0,0.0024573802947998047,0.005071878433227539,0.011011838912963867,0
1.1389987468719482,-0.013063663616776466,-0.11881382018327713,-0.41746336221694946,0.16588830434206686,-0.5067719534909072,0.035745931551320775,0.00027898821755278436,-0.201072672885768,0.0,0.0,-0.6,0.0,0.002398967742919922,0.004746198654174805,0.010712862014770508,0
1.154289960861206,-0.01161410752683878,-0.11885721236467361,-0.4225099980831146,0.1721337546426386,-0.5065368167605556,0.03010303355243251,-0.004617885737559932,-0.20530102901102285,0.0,0.0,-0.6,0.0,0.0028221607208251953,0.0049822330474853516,0.010771989822387695,0
1.1679227352142334,-0.01161410752683878,-0.11885721236467361,-0.4225099980831146,0.1721337546426386,-0.5063401076780891,0.02634426297185408,-0.007943819066309261,-0.20826087829870252,0.0,0.0,-0.6,0.0,0.002451181411743164,0.004719257354736328,0.010753154754638672,0
1.181901216506958,-0.010240921750664711,-0.11889844387769699,-0.4275749623775482,0.1778957058936323,-0.5062103955106465,0.02479457365729836,-0.015252187879576017,-0.21249350451919963,0.0,0.0,-0.6,0.0,0.002856016159057617,0.005262613296508789,0.010341405868530273,0
1.1965196132659912,-0.010240921750664711,-0.11889844387769699,-0.4275749623775482,0.1778957058936323,-0.5061025503925463,0.023798794988776652,-0.02022301383741211,-0.21545634287354887,0.0,0.0,-0.6,0.0,0.0022444725036621094,0.004309415817260742,0.009842157363891602,0
1.2106685638427734,-0.009390311315655708,-0.11893227696418762,-0.43093836307525635,0.18146398181674364,-0.5060451426349827,0.01888887809975406,-0.02899370888968772,-0.21886843319275964,0.0,0.0,-0.6,0.0,0.002548694610595703,0.004898786544799805,0.011051416397094727,0
1.225118637084961,-0.009390311315655708,-0.11893227696418762,-0.43093836307525635,0.18146398181674364,-0.505992239320228,0.015574102741737532,-0.03497604551908655,-0.22125689641620824,0.0,0.0,-0.6,0.0,0.0028603076934814453,0.005225181579589844,0.011133909225463867,0
1.240727186203003,-0.008131255395710468,-0.1190146654844284,-0.43595263361930847,0.18665255660284405,-0.5057861091879546,0.009427240440633667,-0.03488473231009432,-0.2248745362174087,0.0,0.0,-0.6,0.0,0.0024764537811279297,0.004804849624633789,0.010271310806274414,0
1.2549176216125488,-0.007341859862208366,-0.11906108260154724,-0.43929585814476013,0.18993608967397424,-0.5054898344453009,0.008030016337607207,-0.035936930237756876,-0.22863820897992265,0.0,0.0,-0.6,0.0,0.002300262451171875,0.0046939849853515625,0.010513544082641602,0
1.268125057220459,-0.007341859862208366,-0.11906108260154724,-0.43929585814476013,0.18993608967397424,-0.5052500191042788,0.0071798043326641876,-0.03663922793871242,-0.23127277991368356,0.0,0.0,-0.6,0.0,0.0024080276489257812,0.004673004150390625,0.010416030883789062,0
1.283158779144287,-0.006277251522988081,-0.1190371960401535,-0.4443114101886749,0.1944234833698852,-0.5050470049739808,0.0070667310887370756,-0.04035478811570708,-0.23479975220328192,0.0,0.0,-0.6,0.0,0.002561807632446289,0.0048122406005859375,0.011087179183959961,0
1.298245906829834,-0.006277251522988081,-0.1190371960401535,-0.4443114101886749,0.1944234833698852,-0.5048835020361064,0.007066134821667024,-0.042876124982145006,-0.23726863280600183,0.0,0.0,-0.6,0.0,0.0025336742401123047,0.004769325256347656,0.010825634002685547,0
1.3134405612945557,-0.005263741593807936,-0.11896415054798126,-0.4492875635623932,0.19866806304622395,-0.5046961847472375,0.0026106616448968584,-0.045410936417389705,-0.24058856660653194,0.0,0.0,-0.6,0.0,0.002570629119873047,0.005224466323852539,0.011157751083374023,0
1.327472448348999,-0.005263741593807936,-0.11896415054798126,-0.4492875635623932,0.19866806304622395,-0.5045414872993231,-0.000361195627308809,-0.04714000695598258,-0.24291252026690402,0.0,0.0,-0.6,0.0,0.0019626617431640625,0.0034301280975341797,0.007658481597900391,0
1.3385303020477295,-0.0046580093912780285,-0.11892761290073395,-0.4525265097618103,0.2014347177020753,-0.5043050021873371,-4.611582811779228e-05,-0.04426527615760214,-0.24557678332510838,0.0,0.0,-0.6,0.0,0.001966714859008789,0.003509521484375,0.00798487663269043,0
1.348923683166504,-0.0046580093912780285,-0.11892761290073395,-0.4525265097618103,0.2014347177020753,-0.5041142773836758,0.0002394478888927656,-0.04230011223734772,-0.24744176746585222,0.0,0.0,-0.6,0.0,0.0017352104187011719,0.003192901611328125,0.00769352912902832,0
1.3604395389556885,-0.0041006747633218765,-0.1188250482082367,-0.4556598663330078,0.20386083202310462,-0.5039716340171517,0.002356545453233938,-0.04192232824467755,-0.2496570492347586,0.0,0.0,-0.6,0.0,0.0017092227935791016,0.0032541751861572266,0.0075795650482177734,0
1.371288537979126,-0.003855818882584572,-0.11878038942813873,-0.45726487040519714,0.2050411887841257,-0.5038156404697303,0.005462565646982786,-0.04394617274653256,-0.25165038025837616,0.0,0.0,-0.6,0.0,0.0016562938690185547,0.003204345703125,0.007842063903808594,0
1.3819406032562256,-0.003855818882584572,-0.11878038942813873,-0.45726487040519714,0.2050411887841257,-0.5036927876167573,0.0076355397614166,-0.04531840382131064,-0.25304571197490905,0.0,0.0,-0.6,0.0,0.001577138900756836,0.002950429916381836,0.007094383239746094,0
1.3920845985412598,-0.003149917349219322,-0.11853422969579697,-0.46186572313308716,0.20865719390214224,-0.5037601824133013,0.001684649869551364,-0.04912409766111854,-0.25537844609573734,0.0,0.0,-0.6,0.0,0.0016331672668457031,0.0029251575469970703,0.007272005081176758,0
1.4029173851013184,-0.003149917349219322,-0.11853422969579697,-0.46186572313308716,0.20865719390214224,-0.5038095252620975,-0.002393310715754493,-0.051725017988627324,-0.2570113599803179,0.0,0.0,-0.6,0.0,0.0016505718231201172,0.003240823745727539,0.007534980773925781,0
1.4147024154663086,-0.002696808660402894,-0.11832346767187119,-0.464876264333725,0.21074590613141603,-0.5036995646675423,-0.004827559864612271,-0.047152410499768975,-0.2589376667855016,0.0,0.0,-0.6,0.0,0.003389120101928711,0.005128622055053711,0.009392261505126953,0
1.4273719787597656,-0.002696808660402894,-0.11832346767187119,-0.464876264333725,0.21074590613141603,-0.5036075178509443,-0.006459293991730049,-0.04404028188027836,-0.2602860815491308,0.0,0.0,-0.6,0.0,0.0021347999572753906,0.003857851028442383,0.00826573371887207,0
1.4390172958374023,-0.0023162225261330605,-0.1180817186832428,-0.4678288698196411,0.212676509383767,-0.503603990915143,-0.00750440409396594,-0.03865432841362719,-0.2619539481033025,0.0,0.0,-0.6,0.0,0.001659393310546875,0.003131866455078125,0.007825374603271484,0
1.4506721496582031,-0.0021490531507879496,-0.11793885380029678,-0.469240665435791,0.21353372293847891,-0.5035461683943748,-0.007689516821792395,-0.035487029217557836,-0.26344290977423984,0.0,0.0,-0.6,0.0,0.0017223358154296875,0.0032706260681152344,0.0074596405029296875,0
1.461108922958374,-0.0018418608233332634,-0.11764883249998093,-0.47206300497055054,0.21518703655980057,-0.503563720031901,-0.008668657850119901,-0.03541516061596037,-0.26510517555189145,0.0,0.0,-0.6,0.0,0.001772165298461914,0.00337982177734375,0.007748603820800781,0
1.4724104404449463,-0.0018418608233332634,-0.11764883249998093,-0.47206300497055054,0.21518703655980057,-0.5035770787671447,-0.009342051843554511,-0.0353656998276707,-0.26626876159624807,0.0,0.0,-0.6,0.0,0.0017337799072265625,0.003384113311767578,0.008117914199829102,0
1.4836394786834717,-0.0015167189994826913,-0.11731212586164474,-0.4748232364654541,0.21678428165755767,-0.5035921596290832,-0.010978352320909747,-0.03605218737506825,-0.26768223873895636,0.0,0.0,-0.6,0.0,0.0016827583312988281,0.0032057762145996094,0.007391452789306641,0
1.4944782257080078,-0.0015167189994826913,-0.11731212586164474,-0.4748232364654541,0.21678428165755767,-0.5036032437003962,-0.012098412811031665,-0.03652008914505565,-0.2686716727388526,0.0,0.0,-0.6,0.0,0.002010822296142578,0.003987312316894531,0.008599519729614258,0
1.505753517150879,-0.0012156906304880977,-0.1169641986489296,-0.4774501323699951,0.2181983916171175,-0.5034402420250723,-0.013206624972867731,-0.029510786025361637,-0.26989456777361465,0.0,0.0,-0.6,0.0,0.001558542251586914,0.003159761428833008,0.007084846496582031,0
1.5171747207641602,-0.0012156906304880977,-0.1169641986489296,-0.4774501323699951,0.2181983916171175,-0.503305664517316,-0.013920067867886519,-0.024741974715875692,-0.27075059429794845,0.0,0.0,-0.6,0.0,0.0026009082794189453,0.003884553909301758,0.008582115173339844,0
1.5276508331298828,-0.0009300389792770147,-0.11655179411172867,-0.4800799787044525,0.2195419985868015,-0.5033546898207647,-0.0143724534686784,-0.016094418201510613,-0.2718536654786134,0.0,0.0,-0.6,0.0,0.0018112659454345703,0.0028047561645507812,0.00525355339050293,0
1.53592848777771,-0.0007878293399699032,-0.11632764339447021,-0.4813346564769745,0.22021314777698986,-0.5033601828005951,-0.014182837927875164,-0.011843754474470558,-0.2728774962513853,0.0,0.0,-0.6,0.0,0.001439809799194336,0.0026886463165283203,0.00524449348449707,0
1.5432679653167725,-0.0006683265673927963,-0.11610628664493561,-0.48257264494895935,0.22084546045669454,-0.5033853196773421,-0.015296137810928718,-0.013234076693061472,-0.2738312950472292,0.0,0.0,-0.6,0.0,0.0014369487762451172,0.0024890899658203125,0.004825592041015625,0
1.5500292778015137,-0.0006683265673927963,-0.11610628664493561,-0.48257264494895935,0.22084546045669454,-0.5034049805710662,-0.016062138729069607,-0.014181143540132205,-0.2744989542043109,0.0,0.0,-0.6,0.0,0.0015921592712402344,0.002529621124267578,0.004866600036621094,0
1.5599985122680664,-0.00036833417834714055,-0.11560743302106857,-0.48502790927886963,0.22199025918675047,-0.5034374654086394,-0.016202486100290507,-0.012514654538361635,-0.27539561513806066,0.0,0.0,-0.6,0.0,0.0011203289031982422,0.0020644664764404297,0.00478816032409668,0
1.5699777603149414,-0.00021863161236979067,-0.11535163223743439,-0.4862234890460968,0.22262189664692442,-0.503596253140619,-0.016620703385229797,-0.008764873424400287,-0.27626014183923825,0.0,0.0,-0.6,0.0,0.0010941028594970703,0.002036571502685547,0.004484653472900391,0
1.580071210861206,-7.319931319216266e-05,-0.1150706484913826,-0.487366259098053,0.22322172143503236,-0.5037264574326281,-0.017629105812220353,-0.002248081765949753,-0.27709024482560307,0.0,0.0,-0.6,0.0,0.0011897087097167969,0.0020902156829833984,0.004639863967895508,0
1.5899324417114258,-7.319931319216266e-05,-0.1150706484913826,-0.487366259098053,0.22322172143503236,-0.5038290125367931,-0.0183587614135662,0.0022017598675554235,-0.2776713169160668,0.0,0.0,-0.6,0.0,0.0011668205261230469,0.0020444393157958984,0.004503011703491211,0
1.5997583866119385,0.00023895088816061616,-0.114481620490551,-0.4896737039089203,0.22426827340076297,-0.5037751931598717,-0.020354165057251322,0.009369055434821166,-0.278470524366532,0.0,0.0,-0.6,0.0,0.001226186752319336,0.0021712779998779297,0.0042188167572021484,0
1.6116726398468018,0.0004061835934408009,-0.114159494638443,-0.4907679855823517,0.22473840772142614,-0.5038487181201471,-0.022960327434888825,0.015752665276949178,-0.2792062699521065,0.0,0.0,-0.6,0.0,0.0011386871337890625,0.002079010009765625,0.004744291305541992,0
1.6200954914093018,0.0005793480086140335,-0.11383043229579926,-0.4918305277824402,0.22512767854009716,-0.503882121879855,-0.02395447148419444,0.01918862909418105,-0.27986726841901954,0.0,0.0,-0.6,0.0,0.0013170242309570312,0.0022923946380615234,0.004889249801635742,0
1.6302595138549805,0.0007239058613777161,-0.11350762844085693,-0.49289533495903015,0.22546385789333834,-0.5040072220227386,-0.02504194001473929,0.01867165939214325,-0.280456034603315,0.0,0.0,-0.6,0.0,0.0010907649993896484,0.002141237258911133,0.004824399948120117,0
1.6406843662261963,0.0008703165221959352,-0.11314605176448822,-0.49387940764427185,0.22582918327200036,-0.5041630997879484,-0.025883028488604017,0.018151801994278956,-0.28100516794932007,0.0,0.0,-0.6,0.0,0.0010945796966552734,0.0020322799682617188,0.0047342777252197266,0
1.650430679321289,0.0010731896618381143,-0.11278367042541504,-0.4948863685131073,0.22613273539670467,-0.5042162062781311,-0.024995536317222372,0.019598304474889545,-0.28150339333828783,0.0,0.0,-0.6,0.0,0.0011546611785888672,0.0021212100982666016,0.004726886749267578,0
1.6600725650787354,0.0012580911861732602,-0.11240780353546143,-0.4958890378475189,0.2264335302169198,-0.5043712766930152,-0.02392089766464503,0.0204737313591565,-0.28196494916814596,0.0,0.0,-0.6,0.0,0.001184225082397461,0.0020885467529296875,0.004743814468383789,0
1.6702938079833984,0.0014070094330236316,-0.11200445890426636,-0.49679329991340637,0.22674767850145378,-0.504573879985402,-0.02492976899581017,0.024224851400737733,-0.282405843855753,0.0,0.0,-0.6,0.0,0.0012860298156738281,0.0022525787353515625,0.004892826080322266,0
1.6803996562957764,0.0015853599179536104,-0.11158739775419235,-0.49769535660743713,0.22701325769770456,-0.5046482862391889,-0.027588999471719118,0.029964523431151274,-0.2828140623356659,0.0,0.0,-0.6,0.0,0.0013210773468017578,0.0023221969604492188,0.004982709884643555,0
1.6899919509887695,0.001774545875377953,-0.11119242012500763,-0.49862563610076904,0.22721177292687034,-0.5046737131282281,-0.03245316177556691,0.03424426895292478,-0.2831742584825422,0.0,0.0,-0.6,0.0,0.0010941028594970703,0.0019843578338623047,0.004717588424682617,0
1.6997883319854736,0.001947825658135116,-0.1107674390077591,-0.4994969367980957,0.2273311002271545,-0.504915034424061,-0.039700549312872355,0.03565865320152133,-0.28347114352296215,0.0,0.0,-0.6,0.0,0.0014042854309082031,0.002241849899291992,0.004754066467285156,0
1.7114408016204834,0.002115222392603755,-0.11032020300626755,-0.5002820491790771,0.2274070946006036,-0.5050547854466433,-0.04232176620759723,0.034895728191763266,-0.2837074609412996,0.0,0.0,-0.6,0.0,0.0012042522430419922,0.0021514892578125,0.0048007965087890625,0
1.7206358909606934,0.0022869727108627558,-0.1098894253373146,-0.5011152625083923,0.2274987733146736,-0.5050504887750901,-0.04040633627045412,0.033731351939988205,-0.28390726265191213,0.0,0.0,-0.6,0.0,0.0011744499206542969,0.002081632614135742,0.004755496978759766,0
1.730126142501831,0.0024745638947933912,-0.10942495614290237,-0.501941442489624,0.22758351348817912,-0.5052202260299243,-0.04013421332581965,0.03360594564801197,-0.2840789014144055,0.0,0.0,-0.6,0.0,0.0012407302856445312,0.0023741722106933594,0.005015134811401367,0
1.7403981685638428,0.0026963376440107822,-0.10892118513584137,-0.5027138590812683,0.22767193049603326,-0.5053007477440756,-0.04008498750583449,0.03448434078323578,-0.2842322049260962,0.0,0.0,-0.6,0.0,0.0014624595642089844,0.002454042434692383,0.0052034854888916016,0
1.7500770092010498,0.0029176599346101284,-0.10842788219451904,-0.5035223364830017,0.22771369099374558,-0.5053724681912639,-0.04117977794350563,0.033733854794263204,-0.2843551775709218,0.0,0.0,-0.6,0.0,0.0012943744659423828,0.002295255661010742,0.005126237869262695,0
1.7600438594818115,0.0031121543142944574,-0.1079297736287117,-0.5042580962181091,0.2277201976580252,-0.5056213097721123,-0.04364337400851716,0.03208688835394687,-0.28444369842140466,0.0,0.0,-0.6,0.0,0.0011751651763916016,0.0021333694458007812,0.00471186637878418,0
1.7700724601745605,0.0033261170610785484,-0.10742771625518799,-0.5049222707748413,0.22771226752017928,-0.5057908213696911,-0.04677871084813781,0.03276557874570206,-0.28450268921505045,0.0,0.0,-0.6,0.0,0.0014693737030029297,0.0025510787963867188,0.005465269088745117,0
1.7801032066345215,0.003556501818820834,-0.10693325847387314,-0.5056855082511902,0.22766924674250008,-0.505727285419713,-0.049377053411226585,0.03427670294783671,-0.28452784997897285,0.0,0.0,-0.6,0.0,0.0012781620025634766,0.002218961715698242,0.004830837249755859,0
1.7907886505126953,0.0037834581453353167,-0.10640118271112442,-0.5064004063606262,0.22762338821609351,-0.505929705832964,-0.05259644885967964,0.03621886940035539,-0.28452826556631605,0.0,0.0,-0.6,0.0,0.001107931137084961,0.002037525177001953,0.00480961799621582,0
1.799804449081421,0.004016428720206022,-0.10587567836046219,-0.5069957971572876,0.22756121041513167,-0.5060795449945085,-0.05213332472676167,0.03707297033861373,-0.28450523980209563,0.0,0.0,-0.6,0.0,0.001337289810180664,0.0022323131561279297,0.004742860794067383,0
1.8113892078399658,0.004237547051161528,-0.10538247227668762,-0.5076693296432495,0.22742091812161436,-0.5061358221332903,-0.04912980592998691,0.034643333324371715,-0.2844365121570724,0.0,0.0,-0.6,0.0,0.0014998912811279297,0.002496004104614258,0.005157470703125,0
1.8198480606079102,0.0044408924877643585,-0.10484150052070618,-0.5082460641860962,0.22727542546238783,-0.5064038266691193,-0.045148832486982045,0.03229920991424479,-0.2843338430583462,0.0,0.0,-0.6,0.0,0.0029277801513671875,0.004101276397705078,0.007006406784057617,0
1.8306548595428467,0.004705838859081268,-0.10430409759283066,-0.5088230967521667,0.2271345476082249,-0.5063904432880517,-0.038434017280876386,0.03221853709710885,-0.2842091454939268,0.0,0.0,-0.6,0.0,0.001140594482421875,0.0022242069244384766,0.0049283504486083984,0
1.8406400680541992,0.00498454924672842,-0.10378570854663849,-0.5094661712646484,0.22697570968529246,-0.5064206194513284,-0.03513443358578931,0.03008561051805834,-0.28406229297773355,0.0,0.0,-0.6,0.0,0.0011444091796875,0.0020651817321777344,0.00472259521484375,0
1.850160837173462,0.0052261147648096085,-0.1032245010137558,-0.5099937915802002,0.22683613779534723,-0.5067169130462794,-0.0374713659589549,0.026939995774268276,-0.28390715675766887,0.0,0.0,-0.6,0.0,0.0015130043029785156,0.002490997314453125,0.005381345748901367,0
1.8602230548858643,0.005484616383910179,-0.10266463458538055,-0.510504961013794,0.22668164927058024,-0.5067563199001716,-0.039166338825758644,0.025779851387902734,-0.28374062820683593,0.0,0.0,-0.6,0.0,0.001150369644165039,0.002094745635986328,0.005097150802612305,0
1.8698689937591553,0.005738682113587856,-0.10213056206703186,-0.5110994577407837,0.2265240047762511,-0.506737348701397,-0.039152543856484236,0.024707378816847946,-0.2835649415358819,0.0,0.0,-0.6,0.0,0.0011484622955322266,0.002081155776977539,0.004545450210571289,0
1.8806061744689941,0.006008536089211702,-0.10154429823160172,-0.5116115808486938,0.22635920596085837,-0.5069227522256694,-0.03900638379014382,0.027812600077041127,-0.28338016131044197,0.0,0.0,-0.6,0.0,0.0011398792266845703,0.0020809173583984375,0.004810333251953125,0
1.8898332118988037,0.006325782276690006,-0.1009349524974823,-0.512129008769989,0.22616560354377266,-0.5068796579725552,-0.03493149245866606,0.03131579352343768,-0.2831782142462243,0.0,0.0,-0.6,0.0,0.0013210773468017578,0.002271890640258789,0.004948854446411133,0
1.9007689952850342,0.0065864636562764645,-0.10034289956092834,-0.5126470327377319,0.22599396300874477,-0.5069456889566724,-0.03057963847354697,0.028991904449347097,-0.2829724861006365,0.0,0.0,-0.6,0.0,0.0012917518615722656,0.0024230480194091797,0.005320310592651367,0
1.9115571975708008,0.006844681221991777,-0.09971629828214645,-0.5131056308746338,0.22575502782900003,-0.5070650379392391,-0.027989692678585153,0.026415557023888387,-0.2827388757063208,0.0,0.0,-0.6,0.0,0.0012083053588867188,0.0021669864654541016,0.004868745803833008,0
1.920905351638794,0.007155506405979395,-0.09909408539533615,-0.5136043429374695,0.22544752228509807,-0.5070373365465646,-0.024650521754351885,0.023610882198060117,-0.28246003385134044,0.0,0.0,-0.6,0.0,0.0016188621520996094,0.0026617050170898438,0.005344867706298828,0
1.9300649166107178,0.007457846775650978,-0.09848111867904663,-0.5141234397888184,0.22522103206698402,-0.5071225755254883,-0.023849959926834648,0.02040812385805058,-0.2821799107210576,0.0,0.0,-0.6,0.0,0.0012328624725341797,0.002266407012939453,0.005225181579589844,0
1.9401650428771973,0.00775946956127882,-0.09782320261001587,-0.5145407915115356,0.22503294039497307,-0.5072638859161969,-0.025250255653759046,0.01955155046146289,-0.2819132901528555,0.0,0.0,-0.6,0.0,0.001341104507446289,0.0023577213287353516,0.005039215087890625,0
1.950141191482544,0.008076174184679985,-0.09718509018421173,-0.5150040984153748,0.22485688877803808,-0.5072671085562706,-0.025664281585079683,0.019127883754967673,-0.2816606363987599,0.0,0.0,-0.6,0.0,0.0014066696166992188,0.0024271011352539062,0.004986286163330078,0
1.960059642791748,0.008361360058188438,-0.09655793011188507,-0.5154246091842651,0.22467324098924038,-0.5074296580359062,-0.028585634524653465,0.018583516334852147,-0.2814149108501007,0.0,0.0,-0.6,0.0,0.001123666763305664,0.0021347999572753906,0.00505828857421875,0
1.970055103302002,0.008663109503686428,-0.0959341898560524,-0.5158128142356873,0.22445313540740314,-0.5074979135620823,-0.029384736591597196,0.02164686803680261,-0.2811603633728469,0.0,0.0,-0.6,0.0,0.0011594295501708984,0.0021343231201171875,0.0046732425689697266,0
1.979851245880127,0.00898793525993824,-0.09531071782112122,-0.516207218170166,0.22415402175717608,-0.5074544644181956,-0.026867772082240386,0.02549810468932157,-0.28087001251993415,0.0,0.0,-0.6,0.0,0.0019364356994628906,0.002905607223510742,0.0054013729095458984,0
1.9909753799438477,0.009264874272048473,-0.09469836950302124,-0.5165882110595703,0.22385674604931405,-0.5075509685170042,-0.02294074742921554,0.02719247980220378,-0.280555288532447,0.0,0.0,-0.6,0.0,0.0011246204376220703,0.0020241737365722656,0.004767417907714844,0
1.9997460842132568,0.009543610736727715,-0.0940525010228157,-0.5168731212615967,0.2235534061454528,-0.507758901235376,-0.01876264572929403,0.027780546362145955,-0.280221229277258,0.0,0.0,-0.6,0.0,0.0018794536590576172,0.0028808116912841797,0.005417823791503906,0
2.01068377494812,0.00986354798078537,-0.09342402964830399,-0.5172039866447449,0.22331521844418148,-0.507745144378505,-0.014828484493109799,0.026138822636912414,-0.279898067410649,0.0,0.0,-0.6,0.0,0.001565694808959961,0.0025610923767089844,0.005164623260498047,0
2.019745349884033,0.010199313051998615,-0.09277080744504929,-0.5175588726997375,0.22308001289760981,-0.5078544074030421,-0.014698770444899827,0.021425850577563153,-0.27958365202405827,0.0,0.0,-0.6,0.0,0.0013115406036376953,0.002504110336303711,0.00506138801574707,0
2.030277967453003,0.010533817112445831,-0.09209263324737549,-0.5178423523902893,0.22281403695923455,-0.508125593925724,-0.0158463066736249,0.01798718192199021,-0.27926382027655405,0.0,0.0,-0.6,0.0,0.001081705093383789,0.0020132064819335938,0.004754781723022461,0
2.041168689727783,0.010845527984201908,-0.09144102782011032,-0.5180948972702026,0.22257474254584944,-0.508223947120833,-0.01509496597976829,0.01683929686101073,-0.2789502026482817,0.0,0.0,-0.6,0.0,0.0015108585357666016,0.0024652481079101562,0.0051686763763427734,0
2.0500566959381104,0.01114659383893013,-0.09079556167125702,-0.5183804631233215,0.22226759038009025,-0.5083571060773678,-0.014770443225186844,0.018520062009866195,-0.27861548824633137,0.0,0.0,-0.6,0.0,0.0012941360473632812,0.0022852420806884766,0.00506138801574707,0
2.060042381286621,0.011461073532700539,-0.09012148529291153,-0.5186024308204651,0.22186516775062234,-0.50847039006826,-0.014748897192119614,0.023734999357447766,-0.27823027967892106,0.0,0.0,-0.6,0.0,0.0011124610900878906,0.0020492076873779297,0.004775524139404297,0
2.0701422691345215,0.011799050495028496,-0.0894392728805542,-0.5188466310501099,0.2214496742898792,-0.5084620595397685,-0.01478729618524715,0.0272201419695407,-0.27780482363394987,0.0,0.0,-0.6,0.0,0.0011749267578125,0.002104043960571289,0.004788398742675781,0
2.080151081085205,0.012083828449249268,-0.08876842260360718,-0.519067108631134,0.22099885484477405,-0.5085674495202718,-0.013929831974098254,0.026123662212098164,-0.27733794711054915,0.0,0.0,-0.6,0.0,0.0011723041534423828,0.0020897388458251953,0.004955768585205078,0
2.0901429653167725,0.012343049980700016,-0.08808101713657379,-0.5191907286643982,0.22058299859333344,-0.5088175589978491,-0.013075288711840856,0.024658244630526953,-0.2768551874498849,0.0,0.0,-0.6,0.0,0.00113677978515625,0.002082347869873047,0.004848957061767578,0
2.099835157394409,0.012651312164962292,-0.08740105479955673,-0.5193305015563965,0.2202032737082914,-0.5087930263588469,-0.010739873140994779,0.023393416987149723,-0.27637485885552254,0.0,0.0,-0.6,0.0,0.0011515617370605469,0.0020377635955810547,0.004709005355834961,0
2.1112864017486572,0.012967439368367195,-0.08674672245979309,-0.519571840763092,0.21981575688766095,-0.5089396581493787,-0.011560705336696887,0.01907517235692454,-0.2758933100317391,0.0,0.0,-0.6,0.0,0.000988006591796875,0.0017843246459960938,0.004372596740722656,0
2.1196701526641846,0.013244757428765297,-0.0860581248998642,-0.519660234451294,0.21939630343944277,-0.5092459949405473,-0.014538892139389819,0.01434043227173381,-0.27539893081200206,0.0,0.0,-0.6,0.0,0.0016515254974365234,0.0025975704193115234,0.005375385284423828,0
2.130117893218994,0.013536080718040466,-0.08540036529302597,-0.5197425484657288,0.2188894007654105,-0.509371609034854,-0.01492741310481549,0.01114191695812276,-0.2748627768554235,0.0,0.0,-0.6,0.0,0.0013840198516845703,0.0023534297943115234,0.005034446716308594,0
2.140794515609741,0.013799468986690044,-0.08479251712560654,-0.5198657512664795,0.2183602196323191,-0.5094724635440346,-0.013230670996735824,0.008955637138334617,-0.27428902616091666,0.0,0.0,-0.6,0.0,0.001377105712890625,0.002293825149536133,0.004942655563354492,0
2.150040864944458,0.014038823544979095,-0.08416523039340973,-0.5199311971664429,0.21784271214136447,-0.50961946117372,-0.014084957054474365,0.01182008665947744,-0.27369333536564566,0.0,0.0,-0.6,0.0,0.0011875629425048828,0.0021076202392578125,0.0047643184661865234,0
2.1597988605499268,0.01431131362915039,-0.08351472020149231,-0.5199974775314331,0.21728325995130138,-0.5095490571026888,-0.013865042806177489,0.016179595230212396,-0.27306655723769063,0.0,0.0,-0.6,0.0,0.001435995101928711,0.002471923828125,0.00531005859375,0
2.1701619625091553,0.014549522660672665,-0.0829167366027832,-0.5200986266136169,0.2167101968800284,-0.5095853571352118,-0.012624249330370322,0.015966900246057052,-0.27241291389639477,0.0,0.0,-0.6,0.0,0.0013113021850585938,0.0023238658905029297,0.005323648452758789,0
2.1802585124969482,0.014748922549188137,-0.08232422918081284,-0.520081639289856,0.21613413061403447,-0.5098056363409279,-0.012939947476118008,0.013170443148424025,-0.2717393387077399,0.0,0.0,-0.6,0.0,0.0011224746704101562,0.002103567123413086,0.005146980285644531,0
2.1902339458465576,0.014983252622187138,-0.08174379914999008,-0.5200784802436829,0.2155300287272494,-0.5098478427454347,-0.01206338634093819,0.008085413593795207,-0.2710412978681372,0.0,0.0,-0.6,0.0,0.0010547637939453125,0.0019850730895996094,0.004650592803955078,0
2.1997687816619873,0.015205317176878452,-0.0811864584684372,-0.5201700329780579,0.21490934324475086,-0.5098218234462312,-0.010021365406313145,0.0018837153562688879,-0.2703199122244783,0.0,0.0,-0.6,0.0,0.0010259151458740234,0.0018639564514160156,0.004239559173583984,0
2.2111990451812744,0.015414835885167122,-0.08060132712125778,-0.520177960395813,0.21429815851078562,-0.5100191605440628,-0.009976237231950394,-0.0018705919881472034,-0.2695857479986802,0.0,0.0,-0.6,0.0,0.001149892807006836,0.0020749568939208984,0.004538059234619141,0
2.2196929454803467,0.01563352718949318,-0.08005274087190628,-0.5201789140701294,0.21369958339567177,-0.5100787959042143,-0.007880309717983418,-0.0037078470317495876,-0.2688473673724538,0.0,0.0,-0.6,0.0,0.001077413558959961,0.0019230842590332031,0.0042819976806640625,0
2.229748487472534,0.015819067135453224,-0.07952667772769928,-0.5201899409294128,0.21306584511342752,-0.5102198106150945,-0.008329814907814157,-0.00469987009277873,-0.2680928490782642,0.0,0.0,-0.6,0.0,0.0010478496551513672,0.0019211769104003906,0.004309654235839844,0
2.239882469177246,0.01599438302218914,-0.0789974257349968,-0.5201845765113831,0.21241174066708432,-0.5101619445535102,-0.0071151223080277055,-0.0029917594753168424,-0.26731939710494235,0.0,0.0,-0.6,0.0,0.0010302066802978516,0.0018155574798583984,0.004333972930908203,0
2.2498114109039307,0.016188494861125946,-0.07846952974796295,-0.520222008228302,0.2117160265047914,-0.5100605864577484,-0.004463005187117962,-0.0005600554733628206,-0.26651708791275724,0.0,0.0,-0.6,0.0,0.0011370182037353516,0.0020389556884765625,0.004610776901245117,0
2.260064125061035,0.01635795086622238,-0.07797316461801529,-0.5202627778053284,0.21101822970703277,-0.5099669239139307,-1.2249959857085942e-05,0.0005831462731141447,-0.26569379767906814,0.0,0.0,-0.6,0.0,0.0011506080627441406,0.0020732879638671875,0.005055904388427734,0
2.2700862884521484,0.01651531271636486,-0.07746266573667526,-0.5202165246009827,0.21033138844892418,-0.5101081809381978,0.0010067379627481526,-0.0002306429566288307,-0.2648599290436951,0.0,0.0,-0.6,0.0,0.0016281604766845703,0.0026879310607910156,0.005300760269165039,0
2.279852867126465,0.01667426899075508,-0.0769743099808693,-0.5201873779296875,0.20966574238161595,-0.5100234393742497,0.0031819551464386114,-0.0048518186029657745,-0.2640266037236934,0.0,0.0,-0.6,0.0,0.0014507770538330078,0.002462148666381836,0.0051326751708984375,0
2.290212631225586,0.01682763546705246,-0.07650449872016907,-0.5202324390411377,0.2090179381140925,-0.510052818551353,0.002639059432841843,-0.010468015564283218,-0.26320034939937087,0.0,0.0,-0.6,0.0,0.0013811588287353516,0.002363443374633789,0.005278348922729492,0
2.300138473510742,0.01701648160815239,-0.07599575817584991,-0.52025306224823,0.20838637321861245,-0.5101006992442139,0.0031148328270660256,-0.013296578778285096,-0.2623851345365401,0.0,0.0,-0.6,0.0,0.0011019706726074219,0.0019931793212890625,0.004671335220336914,0
2.3112633228302,0.017208002507686615,-0.07551060616970062,-0.5202611088752747,0.20776185202364553,-0.5101773273165443,0.005139115533333567,-0.01399598274200165,-0.26158028868444594,0.0,0.0,-0.6,0.0,0.001165628433227539,0.0020732879638671875,0.004887819290161133,0
2.3205127716064453,0.017368340864777565,-0.07504954934120178,-0.5202500820159912,0.20713057400066967,-0.5102442278205291,0.0073447356097003065,-0.012185118326374443,-0.2607801673293641,0.0,0.0,-0.6,0.0,0.001107931137084961,0.0020499229431152344,0.0051343441009521484,0
2.329846143722534,0.017528392374515533,-0.07459466904401779,-0.5202056169509888,0.20650758813667183,-0.5102397225406806,0.00852873954835604,-0.0071670379721622554,-0.2599864626818076,0.0,0.0,-0.6,0.0,0.0013725757598876953,0.002409219741821289,0.005057334899902344,0
2.34015154838562,0.01770402491092682,-0.0741707980632782,-0.5202434062957764,0.20587783103943866,-0.5100909103718618,0.010245938737754375,-0.002157288540654791,-0.25919471051705556,0.0,0.0,-0.6,0.0,0.001155853271484375,0.002109527587890625,0.004810810089111328,0
2.3501243591308594,0.017845939844846725,-0.07375054806470871,-0.520251452922821,0.2052220228334282,-0.5100914887561301,0.012032259258031166,0.0009158154208207831,-0.25839455592447524,0.0,0.0,-0.6,0.0,0.0013539791107177734,0.0023069381713867188,0.00496220588684082,0
2.3601200580596924,0.018007872626185417,-0.0733044296503067,-0.5202069282531738,0.2045904294559959,-0.510130854682146,0.015874692756842942,0.003055515185316273,-0.25759760019313194,0.0,0.0,-0.6,0.0,0.0012428760528564453,0.002228975296020508,0.004913806915283203,0
2.3700661659240723,0.01820145919919014,-0.07284501940011978,-0.5201860070228577,0.2039946352503143,-0.510038047020616,0.020843520253521465,0.0033786311108016396,-0.25681630835405017,0.0,0.0,-0.6,0.0,0.0013644695281982422,0.0023064613342285156,0.0051860809326171875,0
2.380345582962036,0.01840078830718994,-0.07240545004606247,-0.5202550292015076,0.2033782861416844,-0.5100509696057557,0.022285952748425725,0.0020260879358632625,-0.2560382731509783,0.0,0.0,-0.6,0.0,0.0010857582092285156,0.0020263195037841797,0.004891633987426758,0
2.389826774597168,0.018603742122650146,-0.07193239033222198,-0.5202147960662842,0.20275932175371286,-0.5101744501262154,0.021987380451448706,0.0016612231586348677,-0.2552615368633279,0.0,0.0,-0.6,0.0,0.0012161731719970703,0.0025293827056884766,0.00516200065612793,0
2.400068998336792,0.018845433369278908,-0.07146833091974258,-0.5201924443244934,0.20213854135126386,-0.510315774139866,0.022977895049035683,0.0020157395059891272,-0.2544850288110543,0.0,0.0,-0.6,0.0,0.0011248588562011719,0.002103567123413086,0.004667997360229492,0
