time,x,y,z,yaw,throttle,roll_rate,pitch_rate,yaw_rate,x_ref,y_ref,z_ref,yaw_ref,pred_time,nr_time,ctrl_callback_time,metadata
4.4909374713897705,0.009107752703130245,-0.07041044533252716,-0.47650405764579773,0.05801036118845136,-0.515264628467939,0.008842774445463228,0.00383506758325855,-0.07325336584170912,0.0,0.0,-0.6,0.0,0.0013003349304199219,0.002401590347290039,0.005621671676635742,0
4.500163316726685,0.009041027165949345,-0.07060226798057556,-0.47634053230285645,0.05767439135361382,-0.5152648762959945,0.008570903293775075,0.006629458362425001,-0.0729052528468016,0.0,0.0,-0.6,0.0,0.001392364501953125,0.0025322437286376953,0.0057697296142578125,0
4.511001348495483,0.009017680771648884,-0.0707809180021286,-0.4762841463088989,0.0573441309748251,-0.5152449100939811,0.007847746602469492,0.00922543862521843,-0.07253772610832059,0.0,0.0,-0.6,0.0,0.0018112659454345703,0.0030744075775146484,0.005925178527832031,0
4.520016193389893,0.008958349004387856,-0.07096768170595169,-0.476187527179718,0.057023464486995606,-0.5154725909525342,0.0065026241833383,0.009236030760665684,-0.07216020745844781,0.0,0.0,-0.6,0.0,0.0015206336975097656,0.0028252601623535156,0.00569605827331543,0
4.530529975891113,0.0088599668815732,-0.07115063816308975,-0.47592678666114807,0.05670424718079959,-0.5158731414426828,0.0024885613643302546,0.010175962032396997,-0.07177623791371236,0.0,0.0,-0.6,0.0,0.0015971660614013672,0.002512693405151367,0.0049970149993896484,0
4.540032625198364,0.008803898468613625,-0.07135307043790817,-0.4757474660873413,0.05634802256455581,-0.5158685329683178,-0.0006286809840467299,0.01543427862696192,-0.07137387500130747,0.0,0.0,-0.6,0.0,0.0016207695007324219,0.003177165985107422,0.006220340728759766,0
4.550607919692993,0.008763376623392105,-0.07156626135110855,-0.4756713807582855,0.055964813597227034,-0.5156755597335052,-0.0003848047376385574,0.021598153229241877,-0.07094851759987579,0.0,0.0,-0.6,0.0,0.001916646957397461,0.003103494644165039,0.006070613861083984,0
4.560553789138794,0.008630071766674519,-0.07198206335306168,-0.4753480851650238,0.05525862352735714,-0.5156716635146221,0.002729604737077625,0.027770055394463866,-0.07038594614267206,0.0,0.0,-0.6,0.0,0.001638650894165039,0.003180265426635742,0.0060040950775146484,0
4.570285320281982,0.008630071766674519,-0.07198206335306168,-0.4753480851650238,0.05525862352735714,-0.5156697285417796,0.0048579509942526765,0.03197882719699472,-0.06999214612262941,0.0,0.0,-0.6,0.0,0.0016894340515136719,0.002694845199584961,0.0057752132415771484,0
4.580579519271851,0.00846551638096571,-0.07242079079151154,-0.4750150442123413,0.05458265705887915,-0.5156869176636297,0.00729485032349716,0.032006001462159206,-0.06946299868291897,0.0,0.0,-0.6,0.0,0.001622915267944336,0.0028085708618164062,0.005941629409790039,0
4.590099096298218,0.00846551638096571,-0.07242079079151154,-0.4750150442123413,0.05458265705887915,-0.5157023714320836,0.008953947145097447,0.03202403468389486,-0.069092595475123,0.0,0.0,-0.6,0.0,0.002048969268798828,0.003374814987182617,0.006475210189819336,0
4.60027551651001,0.008456828072667122,-0.07263799756765366,-0.47489017248153687,0.05427700013742363,-0.5156231742750865,0.007455684325601757,0.032783798063556704,-0.06871869188412001,0.0,0.0,-0.6,0.0,0.001851797103881836,0.003137826919555664,0.007002830505371094,0
4.611507177352905,0.008450502529740334,-0.07285316288471222,-0.47483280301094055,0.05397724079024037,-0.5157069943097441,0.005261912652739079,0.0317395952195588,-0.0683445496152242,0.0,0.0,-0.6,0.0,0.0017580986022949219,0.0031287670135498047,0.006473541259765625,0
4.6219587326049805,0.008348961360752583,-0.07327302545309067,-0.47445201873779297,0.05333766454129109,-0.5159046627719246,0.0038437900696396167,0.033230453058037804,-0.06784280893364115,0.0,0.0,-0.6,0.0,0.0013055801391601562,0.0023813247680664062,0.005339860916137695,0
4.629993200302124,0.008348961360752583,-0.07327302545309067,-0.47445201873779297,0.05333766454129109,-0.5160621954094768,0.0028262157262508654,0.0342576156468834,-0.06749159045653301,0.0,0.0,-0.6,0.0,0.0011925697326660156,0.002039670944213867,0.0048999786376953125,0
4.641574382781982,0.008301608264446259,-0.07371149957180023,-0.47427210211753845,0.052694497083926435,-0.5159982070863365,0.004567914070426509,0.04006550724918601,-0.067004549726046,0.0,0.0,-0.6,0.0,0.0017979145050048828,0.0028772354125976562,0.005751609802246094,0
4.650466203689575,0.008301608264446259,-0.07371149957180023,-0.47427210211753845,0.052694497083926435,-0.5159477691625556,0.005774049070465637,0.044023777225597555,-0.06666362121470465,0.0,0.0,-0.6,0.0,0.0014274120330810547,0.00278472900390625,0.0063970088958740234,0
4.66075873374939,0.008274445310235023,-0.07390560954809189,-0.4741339087486267,0.05238395775318808,-0.5159596233551373,0.005935751099685546,0.047300768171351606,-0.06630851900773883,0.0,0.0,-0.6,0.0,0.0015041828155517578,0.0026526451110839844,0.005795001983642578,0
4.6700873374938965,0.008258656598627567,-0.07411128282546997,-0.4740143120288849,0.05210603968343395,-0.5158160646646887,0.007163300077652202,0.048707459794456294,-0.06595572818670496,0.0,0.0,-0.6,0.0,0.0017364025115966797,0.002899646759033203,0.006018161773681641,0
4.680660009384155,0.008226270787417889,-0.07432208210229874,-0.47391730546951294,0.05179346846964412,-0.5158552002861048,0.007459784989020894,0.04638541126622735,-0.06559156040681037,0.0,0.0,-0.6,0.0,0.0016164779663085938,0.002983570098876953,0.006217002868652344,0
4.690356492996216,0.008192376233637333,-0.07451176643371582,-0.4737425744533539,0.051589612563242904,-0.5159640466033482,0.00757691999000891,0.04429479106611524,-0.06526019699598339,0.0,0.0,-0.6,0.0,0.0016055107116699219,0.0028030872344970703,0.005910396575927734,0
4.701640844345093,0.00819468591362238,-0.07491419464349747,-0.47355887293815613,0.05119832686248209,-0.5160172300439896,0.00818365422548688,0.040813670725984054,-0.0648815104706192,0.0,0.0,-0.6,0.0,0.001703023910522461,0.0029239654541015625,0.00594782829284668,0
4.711243391036987,0.00819468591362238,-0.07491419464349747,-0.47355887293815613,0.05119832686248209,-0.5160599151761363,0.008583228506236162,0.038439934626492374,-0.06461642990286426,0.0,0.0,-0.6,0.0,0.0016224384307861328,0.002966642379760742,0.006261110305786133,0
4.721383333206177,0.008130889385938644,-0.07510532438755035,-0.4733811914920807,0.050966335324094135,-0.5162278519916326,0.006874249784062961,0.035539832518928095,-0.06434387667854032,0.0,0.0,-0.6,0.0,0.0013751983642578125,0.0025010108947753906,0.00549006462097168,0
4.730347156524658,0.008089926093816757,-0.07530200481414795,-0.4731864333152771,0.050787034607614245,-0.5163509297178341,0.003996799896139262,0.03624105993904788,-0.06408585165283381,0.0,0.0,-0.6,0.0,0.0013649463653564453,0.002434968948364258,0.0051021575927734375,0
4.742220401763916,0.00803032610565424,-0.07573539763689041,-0.47299376130104065,0.05035410329549294,-0.5164062578567779,0.003835121545980598,0.03812253495406483,-0.06374288489279267,0.0,0.0,-0.6,0.0,0.001833200454711914,0.0031065940856933594,0.006168365478515625,0
4.751399755477905,0.00803032610565424,-0.07573539763689041,-0.47299376130104065,0.05035410329549294,-0.5164506106579242,0.003711437740797857,0.03940750886756228,-0.06350280816076476,0.0,0.0,-0.6,0.0,0.0012760162353515625,0.0023958683013916016,0.005499362945556641,0
4.760034561157227,0.007971435785293579,-0.0759081020951271,-0.47276771068573,0.05019340427688668,-0.5165195357531728,0.004475497359922339,0.04177180636143919,-0.06327449231636786,0.0,0.0,-0.6,0.0,0.0017278194427490234,0.0030107498168945312,0.006348848342895508,0
4.770656585693359,0.007934069260954857,-0.07609093189239502,-0.4725740849971771,0.050025033954232655,-0.5163056580090242,0.008213714201664597,0.04238693072746698,-0.063051532354294,0.0,0.0,-0.6,0.0,0.0016224384307861328,0.002843618392944336,0.005770444869995117,0
4.780311584472656,0.007869641296565533,-0.07630208879709244,-0.47244763374328613,0.04985637588159528,-0.5162931890432142,0.010038690841260267,0.03901472608089016,-0.0628322136036033,0.0,0.0,-0.6,0.0,0.0016202926635742188,0.0030961036682128906,0.006085872650146484,0
4.7908008098602295,0.007819236256182194,-0.07647816091775894,-0.4722230136394501,0.0497132332979934,-0.516345196098042,0.008319421230851907,0.03389428871314168,-0.06262501200926987,0.0,0.0,-0.6,0.0,0.0016410350799560547,0.0028696060180664062,0.005942821502685547,0
4.800525426864624,0.007827138528227806,-0.0766460970044136,-0.4720084071159363,0.04956400860726116,-0.5164492610557541,0.0038888483376524636,0.029766544430419574,-0.06242401163421187,0.0,0.0,-0.6,0.0,0.0013163089752197266,0.0025017261505126953,0.0053768157958984375,0
4.811143636703491,0.007836122997105122,-0.07683468610048294,-0.47187039256095886,0.04936012614584611,-0.51640373415063,0.00207297727755093,0.023586172418314774,-0.06220685544864082,0.0,0.0,-0.6,0.0,0.0017540454864501953,0.0032987594604492188,0.006223917007446289,0
4.821289300918579,0.007749208249151707,-0.07718654721975327,-0.4714173972606659,0.04891297498956304,-0.5166202838474591,-3.443670955629663e-05,0.02022530866661494,-0.061887164435135034,0.0,0.0,-0.6,0.0,0.001432657241821289,0.002494335174560547,0.005506992340087891,0
4.830035209655762,0.007741439156234264,-0.07738294452428818,-0.4712354838848114,0.048732469409817666,-0.5165431370887386,-2.5978938010276075e-05,0.01964226319242319,-0.06159569113327644,0.0,0.0,-0.6,0.0,0.0013439655303955078,0.0023789405822753906,0.0052602291107177734,0
4.8409106731414795,0.007741439156234264,-0.07738294452428818,-0.4712354838848114,0.048732469409817666,-0.5164812187353099,2.4121141595405887e-07,0.019243881923670342,-0.06139165982197516,0.0,0.0,-0.6,0.0,0.0017817020416259766,0.0032193660736083984,0.006021261215209961,0
4.85094428062439,0.007682909723371267,-0.07772480696439743,-0.4707997739315033,0.048400239819461725,-0.5165326219297093,-0.0037358157238191274,0.01951416217299627,-0.061124251807680566,0.0,0.0,-0.6,0.0,0.0013666152954101562,0.002605438232421875,0.005483150482177734,0
4.8609230518341064,0.007666995748877525,-0.07791338115930557,-0.4706307351589203,0.048172138577413086,-0.5164636036351469,-0.005311356195163489,0.01844115079471879,-0.060851528231906336,0.0,0.0,-0.6,0.0,0.0017905235290527344,0.0029609203338623047,0.006116628646850586,0
4.870165586471558,0.007666995748877525,-0.07791338115930557,-0.4706307351589203,0.048172138577413086,-0.5164069982481742,-0.00636842876835726,0.0177097288815151,-0.0606606217288642,0.0,0.0,-0.6,0.0,0.0016810894012451172,0.002940654754638672,0.005924701690673828,0
4.880586862564087,0.0075961994007229805,-0.07811835408210754,-0.470432311296463,0.047921321271765176,-0.5165194820740792,-0.0065822268168615325,0.013705107472611812,-0.06043293068711711,0.0,0.0,-0.6,0.0,0.0019834041595458984,0.0032830238342285156,0.006863594055175781,0
4.889946222305298,0.00751579599454999,-0.07828578352928162,-0.47011250257492065,0.047683406296280394,-0.5166628736382536,-0.006598259366898896,0.009092995294888408,-0.06018432884208737,0.0,0.0,-0.6,0.0,0.0026619434356689453,0.003809213638305664,0.0069561004638671875,0
4.901711940765381,0.007468469440937042,-0.07846012711524963,-0.46988725662231445,0.04745428590388572,-0.5166676635512856,-0.006935278027604321,0.0038546364319353215,-0.059924387403418336,0.0,0.0,-0.6,0.0,0.0014910697937011719,0.0026235580444335938,0.00557398796081543,0
4.911145448684692,0.007368795108050108,-0.07879124581813812,-0.4695007801055908,0.04710007005780037,-0.5169703237436377,-0.011774546759031985,-0.0053513088909682436,-0.05960959745406802,0.0,0.0,-0.6,0.0,0.0014522075653076172,0.002595663070678711,0.005906105041503906,0
4.921030044555664,0.007368795108050108,-0.07879124581813812,-0.4695007801055908,0.04710007005780037,-0.51720859602241,-0.015163209004349964,-0.011633233487583623,-0.059389244489522784,0.0,0.0,-0.6,0.0,0.001810312271118164,0.003039121627807617,0.00603485107421875,0
4.930009603500366,0.0073457262478768826,-0.0789690762758255,-0.46927011013031006,0.04687359502249628,-0.51718355504841,-0.015917141180189803,-0.01558529294093881,-0.05915006927610188,0.0,0.0,-0.6,0.0,0.0014216899871826172,0.002473592758178711,0.005321025848388672,0
4.941182374954224,0.007282237056642771,-0.07935623079538345,-0.46890443563461304,0.046443783176575125,-0.5172022841445888,-0.015130635119486606,-0.013475233145174566,-0.058821467184487025,0.0,0.0,-0.6,0.0,0.0011420249938964844,0.0020165443420410156,0.004638671875,0
4.950412750244141,0.007279768120497465,-0.0795283168554306,-0.4687196612358093,0.04620930709444911,-0.5170551310961471,-0.01269425261231674,-0.011592228824713127,-0.05850351718955938,0.0,0.0,-0.6,0.0,0.0016360282897949219,0.002954244613647461,0.00595855712890625,0
4.961474180221558,0.007237650919705629,-0.0797281563282013,-0.4685809016227722,0.045978730671572474,-0.5169770194206275,-0.010786143545648962,-0.012017067141259895,-0.05819448603453155,0.0,0.0,-0.6,0.0,0.001649618148803711,0.0029706954956054688,0.006062746047973633,0
4.970353126525879,0.007237650919705629,-0.0797281563282013,-0.4685809016227722,0.045978730671572474,-0.5169155960425473,-0.009463528246447753,-0.012307645932502944,-0.05797816422601179,0.0,0.0,-0.6,0.0,0.0017466545104980469,0.00299072265625,0.005934238433837891,0
4.980219841003418,0.007182016037404537,-0.07991581410169601,-0.46839508414268494,0.045800559340764026,-0.516798143598373,-0.008212864942663635,-0.01383756456251642,-0.05775992471099479,0.0,0.0,-0.6,0.0,0.0016880035400390625,0.0029447078704833984,0.006112813949584961,0
4.990725755691528,0.007124562747776508,-0.08032708615064621,-0.46810802817344666,0.04547961258586934,-0.5167429809684669,-0.007177166474594818,-0.01979285457948258,-0.05748680201739763,0.0,0.0,-0.6,0.0,0.0016121864318847656,0.002736330032348633,0.005690097808837891,0
5.00104832649231,0.0071070315316319466,-0.08051002770662308,-0.4679832458496094,0.045325932589154995,-0.5247116448953371,-0.003695587486418865,-0.14542212269921784,-0.0572379861331115,0.25021176287862273,0.0,-0.9947326576433392,0.0,0.0017809867858886719,0.003225088119506836,0.006087064743041992,0
5.011498928070068,0.0071070315316319466,-0.08051002770662308,-0.4679832458496094,0.045325932589154995,-0.5310028259087424,-0.003311828194955587,-0.23059539326345851,-0.05706381501411134,0.24772674610207224,0.0,-0.997247768980186,0.0,0.0017969608306884766,0.002945423126220703,0.005966901779174805,0
5.021145820617676,0.007064870558679104,-0.08088084310293198,-0.4678010642528534,0.04504581675146624,-0.5362356683609085,-0.0025021454682491234,-0.2887508148517633,-0.056836851791678,0.24541039613798638,0.0,-0.9995470646339014,0.0,0.0018706321716308594,0.0031538009643554688,0.006139516830444336,0
5.030390977859497,0.007064870558679104,-0.08088084310293198,-0.4678010642528534,0.04504581675146624,-0.5405489474815173,-0.003076425790489459,-0.3258399308316944,-0.0566779775359746,0.24317048000560654,0.0,-1.0017302477928365,0.0,0.0015840530395507812,0.0026731491088867188,0.006025552749633789,0
5.040691375732422,0.0069726514630019665,-0.08122290670871735,-0.46755746006965637,0.04482354143613299,-0.5439979124703306,-0.005129967618727232,-0.34335724052016026,-0.05648341231373229,0.2406520358411183,0.0,-1.0041389337459437,0.0,0.0013878345489501953,0.0025322437286376953,0.005162239074707031,0
5.051042795181274,0.006952333729714155,-0.08138362318277359,-0.46751558780670166,0.044689072598689185,-0.546833747570487,-0.006849837666076671,-0.34993491320345255,-0.05629679084412107,0.23809708216704337,0.0,-1.0065341682184659,0.0,0.001443624496459961,0.0025589466094970703,0.005831003189086914,0
5.061701774597168,0.006918410304933786,-0.08153485506772995,-0.46749985218048096,0.04464140867307603,-0.5491606862817183,-0.0068147247598156335,-0.34870009953741293,-0.056148281843288406,0.2354413070212283,0.0,-1.0089737263664706,0.0,0.0014281272888183594,0.0025124549865722656,0.005438566207885742,0
5.071491241455078,0.006910455413162708,-0.08166897296905518,-0.4674469530582428,0.04462793922161582,-0.5510070440161229,-0.005470336935584871,-0.3423862347526638,-0.056039274498407836,0.23298015232235353,0.0,-1.0111900622609002,0.0,0.0018939971923828125,0.0031349658966064453,0.00620269775390625,0
5.0807037353515625,0.006910455413162708,-0.08166897296905518,-0.4674469530582428,0.04462793922161582,-0.5525065621871396,-0.0049014731347348395,-0.3359383273147405,-0.05596296935699149,0.23064499516387088,0.0,-1.01325441345941,0.0,0.0016968250274658203,0.0028057098388671875,0.0061511993408203125,0
5.0907416343688965,0.0069070374593138695,-0.08195263892412186,-0.4674336016178131,0.04455975800852583,-0.5536901954983261,-0.004392066353806843,-0.3274714720277589,-0.05588398780309124,0.22807980076064993,0.0,-1.0154799511921422,0.0,0.002011537551879883,0.003244161605834961,0.006615400314331055,0
5.100358009338379,0.0069070374593138695,-0.08195263892412186,-0.4674336016178131,0.04455975800852583,-0.5546539495429038,-0.004255620720339709,-0.31988958004077367,-0.055828700715361064,0.22560218424298278,0.0,-1.017588591806144,0.0,0.0017533302307128906,0.0030503273010253906,0.00623321533203125,0
5.111082315444946,0.007080062758177519,-0.08227172493934631,-0.4677542746067047,0.04449489979078668,-0.5552491873317051,-0.004231414859175811,-0.3050374286090211,-0.05576567792229781,0.22281613185994772,0.0,-1.0199128959182395,0.0,0.002036571502685547,0.0034453868865966797,0.006565570831298828,0
5.120873689651489,0.007080062758177519,-0.08227172493934631,-0.4677542746067047,0.04449489979078668,-0.5557205942745708,-0.004309757086137884,-0.29337519458987993,-0.05572156196715348,0.22025152588619032,0.0,-1.0220096787704527,0.0,0.0017399787902832031,0.003215312957763672,0.007044076919555664,0
5.13014817237854,0.007213199511170387,-0.08242390304803848,-0.46798545122146606,0.044427721529906275,-0.5561355651115059,-0.004788380578971694,-0.2788071348806401,-0.05566548895072234,0.21780410744766188,0.0,-1.0239733030405105,0.0,0.0014257431030273438,0.002508878707885742,0.005437612533569336,0
5.139992952346802,0.0074976971372962,-0.08268403261899948,-0.46865811944007874,0.044280731066800534,-0.5561895561374738,-0.00792553969324709,-0.2549376598180288,-0.05557111641555593,0.21518704594323385,0.0,-1.0260335763240127,0.0,0.0014679431915283203,0.002555370330810547,0.005468845367431641,0
5.150428056716919,0.007689016871154308,-0.0828184261918068,-0.46919044852256775,0.044234948582966525,-0.55602853031749,-0.011412454668013737,-0.22989517427878295,-0.05548788720950168,0.21239178686637986,0.0,-1.0281900948483003,0.0,0.0019106864929199219,0.0031538009643554688,0.00711369514465332,0
5.160468816757202,0.007883647456765175,-0.0829353779554367,-0.46979889273643494,0.044237967199826554,-0.5559814228750782,-0.016147057884966152,-0.2067033105863055,-0.055430758746586144,0.20968175695456578,0.0,-1.0302383999391347,0.0,0.0012867450714111328,0.0026183128356933594,0.005844831466674805,0
5.1710875034332275,0.008083623833954334,-0.08303045481443405,-0.47041115164756775,0.04421050684046554,-0.5557115757400201,-0.017810808775686034,-0.1853873397055721,-0.055380471187784844,0.20679425768597182,0.0,-1.0323758753649255,0.0,0.0016756057739257812,0.00305938720703125,0.0063169002532958984,0
5.180504560470581,0.008083623833954334,-0.08303045481443405,-0.47041115164756775,0.04421050684046554,-0.5554750979144049,-0.018881718863338646,-0.16981923786470135,-0.05534526989662397,0.2042152745507929,0.0,-1.0342465859779923,0.0,0.0016520023345947266,0.0029730796813964844,0.006012439727783203,0
5.191079378128052,0.008553356863558292,-0.08323919773101807,-0.47208860516548157,0.044035365371880714,-0.5550181656702945,-0.018029582146111885,-0.14528737683269385,-0.05525495094209206,0.20129906374833045,0.0,-1.036319204619679,0.0,0.0017702579498291016,0.0030486583709716797,0.006165981292724609,0
5.200199842453003,0.008553356863558292,-0.08323919773101807,-0.47208860516548157,0.044035365371880714,-0.5546254167254933,-0.01734953985926187,-0.12764239504174316,-0.05519172767391977,0.1987670142503239,0.0,-1.038082755551268,0.0,0.0016276836395263672,0.002920389175415039,0.005722761154174805,0
5.211831331253052,0.009083098731935024,-0.08338253945112228,-0.47399580478668213,0.04392370479312322,-0.5540506681404029,-0.01613676922237213,-0.1006785948408273,-0.05510559866916513,0.1955154582586442,0.0,-1.0402993378943748,0.0,0.0016205310821533203,0.0033752918243408203,0.006378889083862305,0
5.220975160598755,0.009083098731935024,-0.08338253945112228,-0.47399580478668213,0.04392370479312322,-0.5535626740636843,-0.015184548970950285,-0.08140835719019514,-0.055045308365836806,0.19294194884194418,0.0,-1.0420161029413832,0.0,0.001922607421875,0.0032875537872314453,0.005959510803222656,0
5.2302565574646,0.009390215389430523,-0.08346706628799438,-0.4751643240451813,0.04387136826878591,-0.552887683297305,-0.013089595741289919,-0.05823092819405912,-0.05498347895688054,0.19031430706631794,0.0,-1.0437353647858343,0.0,0.0018074512481689453,0.002903461456298828,0.00561833381652832,0
5.2408411502838135,0.010056869126856327,-0.08362594246864319,-0.47776171565055847,0.04370262552979933,-0.5521562111753832,-0.011245831013108044,-0.035348413812862634,-0.05487691984349105,0.1872990353454969,0.0,-1.04566716313897,0.0,0.0013790130615234375,0.0024809837341308594,0.005342006683349609,0
5.250702381134033,0.010428125038743019,-0.08370975404977798,-0.47923657298088074,0.04364214630943208,-0.5511673655906713,-0.009145207671346724,-0.014853915082677888,-0.054779648756480774,0.1844721809746861,0.0,-1.0474390936753988,0.0,0.0019211769104003906,0.0031881332397460938,0.006196498870849609,0
5.26117730140686,0.010865244083106518,-0.0837964117527008,-0.48084670305252075,0.04358348847134934,-0.5503683343342394,-0.008132730843845436,0.004324042555030879,-0.054689562306292634,0.18145105109879958,0.0,-1.0492916905881966,0.0,0.0017483234405517578,0.0030264854431152344,0.005785226821899414,0
5.270851135253906,0.01134142279624939,-0.08390003442764282,-0.48247140645980835,0.04352490572638686,-0.5496380735178269,-0.0068891890386212455,0.02221632963071661,-0.0546045332618,0.17864443632253407,0.0,-1.050975356750356,0.0,0.002008676528930664,0.003175973892211914,0.0071103572845458984,0
5.282376527786255,0.011827709153294563,-0.08400750160217285,-0.48419779539108276,0.043491694694740665,-0.5488024439389625,-0.006728178781592253,0.04085234374931389,-0.0545325587937877,0.1752802675656367,0.0,-1.052946905912767,0.0,0.0017347335815429688,0.0033235549926757812,0.006094217300415039,0
5.291191339492798,0.011827709153294563,-0.08400750160217285,-0.48419779539108276,0.043491694694740665,-0.5481427045934144,-0.006413015220110838,0.0543790892388237,-0.05448217666617915,0.17269259071602328,0.0,-1.0544294156480087,0.0,0.0017926692962646484,0.002901792526245117,0.005883932113647461,0
5.300488471984863,0.012407701462507248,-0.0841003805398941,-0.48606324195861816,0.04347344464241602,-0.54740162675508,-0.006177704389481177,0.07282599618819807,-0.05444006540723145,0.1699497415705206,0.0,-1.055969092132054,0.0,0.0016639232635498047,0.0029654502868652344,0.006071329116821289,0
5.310818433761597,0.013654378242790699,-0.08427193015813828,-0.4899662733078003,0.04358990592360623,-0.5465107252081867,-0.0045008179655687775,0.08929280363484618,-0.054454260506414345,0.16688609764848494,0.0,-1.0576508254688428,0.0,0.0015256404876708984,0.0025968551635742188,0.005725860595703125,0
5.320048570632935,0.013654378242790699,-0.08427193015813828,-0.4899662733078003,0.04358990592360623,-0.5458166930487792,-0.003133939300874815,0.10143384974313006,-0.054464197075842366,0.1641345522389226,0.0,-1.0591275606627923,0.0,0.0016105175018310547,0.0026831626892089844,0.005811214447021484,0
5.330773830413818,0.015089522115886211,-0.08445043116807938,-0.49432632327079773,0.043668262203931975,-0.5452499545455776,-0.007976415636928929,0.11423492490437848,-0.054500536279564145,0.1609209066034027,0.0,-1.0608125831074715,0.0,0.001720428466796875,0.0029921531677246094,0.006067514419555664,0
5.340620040893555,0.015862606465816498,-0.08451321721076965,-0.4965260624885559,0.04370439723568568,-0.5444091706300781,-0.01146871291658617,0.12744950955129586,-0.05453952435907706,0.1579554170115445,0.0,-1.062330091788654,0.0,0.001374959945678711,0.0024542808532714844,0.005336284637451172,0
5.350065469741821,0.016682913526892662,-0.08460927754640579,-0.49891412258148193,0.04377024513535978,-0.5434183611820422,-0.012120034266376698,0.14154836044280225,-0.0545915089771139,0.15509718472598882,0.0,-1.063759244150786,0.0,0.0010821819305419922,0.0019173622131347656,0.004526853561401367,0
5.360702276229858,0.01755797676742077,-0.08469514548778534,-0.5013673901557922,0.04390562145045166,-0.5427669596216832,-0.012291387246508393,0.15628304480704908,-0.054678664327899015,0.15186296941938965,0.0,-1.0653373408258615,0.0,0.0016689300537109375,0.002780437469482422,0.005814313888549805,0
5.370764255523682,0.018465906381607056,-0.08476437628269196,-0.5038108825683594,0.044056858986707165,-0.5420184750208856,-0.008198614879883874,0.169351871853561,-0.05479638714954448,0.14878875296181154,0.0,-1.0667994744188647,0.0,0.0017018318176269531,0.0027861595153808594,0.005872488021850586,0
5.381020784378052,0.01939636841416359,-0.08481249958276749,-0.5063414573669434,0.04420717452710604,-0.5411949933013483,-0.0034900387207538715,0.18115954275297846,-0.054935161452346004,0.1456406116522992,0.0,-1.0682590332379336,0.0,0.0018773078918457031,0.0029947757720947266,0.005994081497192383,0
5.389983177185059,0.01939636841416359,-0.08481249958276749,-0.5063414573669434,0.04420717452710604,-0.540564653500174,-7.02480172034229e-05,0.1902845696288753,-0.05503230346430696,0.14287796186834364,0.0,-1.0695088230586882,0.0,0.0013782978057861328,0.0024871826171875,0.005427837371826172,0
5.400343894958496,0.021467849612236023,-0.08490440994501114,-0.5116012096405029,0.04450538399394531,-0.5399714876210728,0.0023533315968873566,0.2029208494272283,-0.05521213142274434,0.1396709292341101,0.0,-1.070923716055514,0.0,0.0028934478759765625,0.004173755645751953,0.007073402404785156,0
5.411935806274414,0.022510329261422157,-0.08493677526712418,-0.514252781867981,0.044677602851865804,-0.5393294063217344,0.0013053582015628425,0.21464155031043453,-0.05540259306537069,0.13606620563991303,0.0,-1.0724685840244859,0.0,0.001409769058227539,0.0025186538696289062,0.005567073822021484,0
5.421912908554077,0.02362692356109619,-0.08497034013271332,-0.5170573592185974,0.04477749039515023,-0.5385400039610736,0.0008429105349530869,0.22635693130148,-0.05557337404394094,0.13294994058813378,0.0,-1.073765830960606,0.0,0.0016524791717529297,0.0027306079864501953,0.006252765655517578,0
5.4305739402771,0.02362692356109619,-0.08497034013271332,-0.5170573592185974,0.04477749039515023,-0.5379355699472615,0.0007436043388055638,0.2354981625884269,-0.05569292072893998,0.13023470214067867,0.0,-1.0748675458680488,0.0,0.0017571449279785156,0.0029420852661132812,0.006142854690551758,0
5.440327882766724,0.02477428689599037,-0.0850047618150711,-0.5198836326599121,0.044819649023523415,-0.5375296379678061,7.222143394067812e-05,0.24090550397571336,-0.055792412894079164,0.1271659161941132,0.0,-1.0760810171698312,0.0,0.0013737678527832031,0.0023560523986816406,0.005300998687744141,0
5.450711727142334,0.027174459770321846,-0.08508505672216415,-0.5255618691444397,0.04505964058695583,-0.5368223852972922,-0.0008452473952957618,0.24275458734053462,-0.055952054245963966,0.12388653355261874,0.0,-1.077340994689507,0.0,0.0010142326354980469,0.0025703907012939453,0.0050966739654541016,0
5.460930824279785,0.02844162844121456,-0.085092693567276,-0.5284991264343262,0.045196977335968974,-0.5363522859888018,-0.0043309770392575,0.24436082329114325,-0.05611530447316297,0.12064699287530899,0.0,-1.0785487834555854,0.0,0.0017046928405761719,0.002804994583129883,0.0062596797943115234,0
5.470245838165283,0.029744314029812813,-0.08507397025823593,-0.5313980579376221,0.04537746103595288,-0.535938070968207,-0.007229228421349909,0.24640556743645464,-0.056297261019696385,0.11768378977484209,0.0,-1.0796217917920943,0.0,0.0015964508056640625,0.0031235218048095703,0.005840778350830078,0
5.479913711547852,0.029744314029812813,-0.08507397025823593,-0.5313980579376221,0.04537746103595288,-0.5356271494704802,-0.009071060632425033,0.24922191352083164,-0.05642463060226967,0.11459825116630447,0.0,-1.0807071829120507,0.0,0.0017573833465576172,0.0029876232147216797,0.0059816837310791016,0
5.489943265914917,0.032392583787441254,-0.08510251343250275,-0.5373656749725342,0.04567617052780843,-0.5351561254174312,-0.012325444545107034,0.2523157696435636,-0.0566258053695169,0.1113867070958766,0.0,-1.0818026544232842,0.0,0.0017435550689697266,0.0030050277709960938,0.006103515625,0
5.500490427017212,0.03380133956670761,-0.08510667085647583,-0.5403896570205688,0.04573470838372338,-0.534648527959398,-0.014146970330942752,0.2558284561596134,-0.05678857940255793,0.10799813287876688,0.0,-1.0829210166010854,0.0,0.0017592906951904297,0.0029671192169189453,0.0059320926666259766,0
5.5108723640441895,0.03519598767161369,-0.08511330187320709,-0.5434013605117798,0.04576476227782285,-0.5342155142523611,-0.013257806480610763,0.25474894846782764,-0.05691379143597399,0.10465167639582944,0.0,-1.0839880636003967,0.0,0.0019478797912597656,0.003271341323852539,0.006476640701293945,0
5.520443677902222,0.03519598767161369,-0.08511330187320709,-0.5434013605117798,0.04576476227782285,-0.5338849332652177,-0.012514407550836838,0.25549117512254294,-0.05700143985936527,0.101557166433864,0.0,-1.0849419978831027,0.0,0.0021927356719970703,0.0036156177520751953,0.006658315658569336,0
5.530738830566406,0.03805604204535484,-0.08511639386415482,-0.5495167970657349,0.045921015989640795,-0.5332872829610903,-0.009660658332251658,0.25140662889083315,-0.05712138889767107,0.09821893468300379,0.0,-1.0859360666402698,0.0,0.001672983169555664,0.003082275390625,0.006201744079589844,0
5.539988994598389,0.03950582072138786,-0.08509853482246399,-0.5526019930839539,0.046010443683654506,-0.5328848079024601,-0.008785197444414361,0.2469426035324027,-0.05723888860974018,0.0952112374831507,0.0,-1.0868008614254527,0.0,0.0013225078582763672,0.0023865699768066406,0.005156517028808594,0
5.549981594085693,0.04098806157708168,-0.08508048206567764,-0.5556543469429016,0.046147435063396795,-0.532562535913962,-0.010141116560396206,0.2444868328766974,-0.057372510175591904,0.0919535908160656,0.0,-1.087704807688655,0.0,0.001148223876953125,0.0019795894622802734,0.004637956619262695,0
5.560367584228516,0.04248052090406418,-0.08509839326143265,-0.5588186979293823,0.04625001761066581,-0.5320393345640277,-0.011546545838603112,0.2406850728404157,-0.057504513726913994,0.08855860805112027,0.0,-1.0886109462791302,0.0,0.002115011215209961,0.003183603286743164,0.006062030792236328,0
5.570400714874268,0.04397854581475258,-0.08507654815912247,-0.5619142055511475,0.046263199610195,-0.5318022275399842,-0.017563707677535782,0.23669819116811247,-0.057601859462662906,0.08527048841332144,0.0,-1.0894538905444355,0.0,0.0014841556549072266,0.0024945735931396484,0.005881071090698242,0
5.5811028480529785,0.045519545674324036,-0.08506815880537033,-0.5650709867477417,0.04627773225888317,-0.5314163569141049,-0.021408999808594405,0.23030537834698314,-0.05767545122094528,0.08175428618863484,0.0,-1.0903178465637482,0.0,0.0016834735870361328,0.0027670860290527344,0.005886077880859375,0
5.589925050735474,0.045519545674324036,-0.08506815880537033,-0.5650709867477417,0.04627773225888317,-0.5311049655453145,-0.023914649680840675,0.22739240337708297,-0.05772696545174288,0.07884914235920669,0.0,-1.091002657979696,0.0,0.0018668174743652344,0.003092050552368164,0.006159543991088867,0
5.600633382797241,0.04854438453912735,-0.08506327867507935,-0.5713707804679871,0.046283950937855464,-0.5308090773488425,-0.023794108312251875,0.21561331666795305,-0.057765357417915775,0.07531521369037297,0.0,-1.0918005538128537,0.0,0.0014121532440185547,0.002338409423828125,0.005669593811035156,0
5.610863447189331,0.04854438453912735,-0.08506327867507935,-0.5713707804679871,0.046283950937855464,-0.5305615095048725,-0.023613113679208448,0.20923555529610047,-0.057792231794236835,0.07193157898802656,0.0,-1.0925286089427995,0.0,0.001802206039428711,0.003113985061645508,0.006762504577636719,0
5.620524883270264,0.05163721740245819,-0.08506246656179428,-0.5777600407600403,0.0463641073396471,-0.5303297956949753,-0.0207424089218444,0.200643739667413,-0.057841102508333395,0.06872955628552484,0.0,-1.0931854427169003,0.0,0.0014295578002929688,0.002548694610595703,0.005611419677734375,0
5.631534099578857,0.053196247667074203,-0.08506153523921967,-0.5809059739112854,0.046412277021548626,-0.5299044501340103,-0.017758165238022462,0.19398690995219264,-0.0578933756389141,0.06507355674004746,0.0,-1.0938974152464653,0.0,0.001825094223022461,0.003047466278076172,0.005922555923461914,0
5.641381740570068,0.054732777178287506,-0.08507698029279709,-0.5841512680053711,0.0463885542513178,-0.5294291374005619,-0.016804618406998286,0.1862386661314004,-0.057921070791484036,0.061797042682448226,0.0,-1.0945012707025965,0.0,0.001355886459350586,0.0025022029876708984,0.005274534225463867,0
5.649715900421143,0.05628468468785286,-0.08505124598741531,-0.5873395800590515,0.046342879788414164,-0.5290747262656977,-0.01818539695615967,0.18107350138863,-0.057923329474694134,0.05901970835945217,0.0,-1.0949879331587775,0.0,0.0010042190551757812,0.0018396377563476562,0.003999233245849609,0
5.659754514694214,0.057847265154123306,-0.0850573256611824,-0.5905890464782715,0.046240105368528475,-0.5285510737956205,-0.017149788677935266,0.17429878980207955,-0.05788637014548411,0.05566930028570611,0.0,-1.0955443951299166,0.0,0.002105712890625,0.003248453140258789,0.00571751594543457,0
5.670259952545166,0.05934932827949524,-0.08506042510271072,-0.5937983393669128,0.04615885237980977,-0.5282753101436882,-0.016958946616522797,0.16544314593531698,-0.0578300287442676,0.052157480863390907,0.0,-1.0960918912514204,0.0,0.0017218589782714844,0.00299835205078125,0.006056308746337891,0
5.680737495422363,0.060883551836013794,-0.08504468202590942,-0.5969669222831726,0.04611303201938765,-0.5278415741164808,-0.015616548302066288,0.15766022086776757,-0.05777340712825769,0.0486496287593637,0.0,-1.0966023854816584,0.0,0.001748800277709961,0.0029785633087158203,0.005863666534423828,0
5.690606355667114,0.0624336376786232,-0.08506257832050323,-0.6002958416938782,0.04606811947486981,-0.5273910284733547,-0.013832372257621833,0.14798097033984695,-0.057716929792856614,0.04534099164979264,0.0,-1.097050708796587,0.0,0.0017049312591552734,0.0030400753021240234,0.0060710906982421875,0
5.70087456703186,0.06397132575511932,-0.08506634086370468,-0.6035307049751282,0.046033441532034175,-0.5271751814025865,-0.014944390846793611,0.13979936537500137,-0.057664391429512456,0.04189409219861067,0.0,-1.0974836471531493,0.0,0.0015935897827148438,0.0026586055755615234,0.005830526351928711,0
5.7115888595581055,0.06549280881881714,-0.08508232980966568,-0.60675448179245,0.04600618982142072,-0.5269403998188175,-0.016651241056684564,0.13266693508655134,-0.057617395183691536,0.038293054385548995,0.0,-1.0978988962124274,0.0,0.001875162124633789,0.0030918121337890625,0.006193876266479492,0
5.72075891494751,0.06549280881881714,-0.08508232980966568,-0.60675448179245,0.04600618982142072,-0.5267415770500763,-0.0177320867435018,0.12934423583248983,-0.05758449781161685,0.03520775260991718,0.0,-1.098224660465279,0.0,0.00148773193359375,0.0025491714477539062,0.005706310272216797,0
5.730619192123413,0.06845133006572723,-0.08515460044145584,-0.6132400035858154,0.04583585639504195,-0.5263301058442706,-0.015622003706961263,0.12636897146485984,-0.05749759461627246,0.03188714319257516,0.0,-1.098544416249947,0.0,0.001590728759765625,0.002957582473754883,0.005937814712524414,0
5.740471124649048,0.06845133006572723,-0.08515460044145584,-0.6132400035858154,0.04583585639504195,-0.5259977503902113,-0.014055681916810267,0.12608653952393287,-0.05743676237953151,0.028566450729885732,0.0,-1.0988322775958341,0.0,0.002018451690673828,0.0033364295959472656,0.006345033645629883,0
5.750922441482544,0.07137962430715561,-0.08521630614995956,-0.6197927594184875,0.04562389095688728,-0.5256373002903885,-0.008191824341265301,0.12246628944788711,-0.057314692774504905,0.02504090447171204,0.0,-1.0991030694554813,0.0,0.0013599395751953125,0.0022444725036621094,0.004984378814697266,0
5.759812355041504,0.07278791815042496,-0.08522634953260422,-0.6229894161224365,0.04546709433586836,-0.525311893353305,-0.0020467179427343515,0.11739330710091772,-0.05717044531810409,0.022040041248786,0.0,-1.099305362944447,0.0,0.0012466907501220703,0.0020868778228759766,0.004536867141723633,0
5.770139217376709,0.07414484769105911,-0.08526946604251862,-0.6262720227241516,0.045342324196409406,-0.5247938090837297,0.0037811675999576593,0.11005058858337037,-0.05702268329632628,0.018552095741010997,0.0,-1.09950796806885,0.0,0.0017170906066894531,0.002895832061767578,0.006036520004272461,0
5.78009819984436,0.07551312446594238,-0.08528167754411697,-0.6295287013053894,0.045206250219547446,-0.5245124153367893,0.00481438912269907,0.10499028022714084,-0.05686822213975884,0.015186648391095795,0.0,-1.0996703672183923,0.0,0.0019450187683105469,0.0032279491424560547,0.006128549575805664,0
5.79060697555542,0.0768730491399765,-0.08531507849693298,-0.6327817440032959,0.04507178190013694,-0.5242177833085879,0.006889828474641268,0.0989791294354998,-0.05670967371038256,0.011633889068344921,0.0,-1.0998065931699192,0.0,0.0018215179443359375,0.0031096935272216797,0.0064618587493896484,0
5.801715850830078,0.07815232127904892,-0.08536139875650406,-0.6359809637069702,0.04492930102308894,-0.5240485903835923,0.0065100687186933435,0.09243066498971796,-0.05654525948092617,0.00787695311370789,0.0,-1.0999113510728744,0.0,0.0016274452209472656,0.0029430389404296875,0.005918741226196289,0
5.812017202377319,0.07941308617591858,-0.08538499474525452,-0.6391703486442566,0.04484403320734144,-0.5236987716429611,0.00433987843415177,0.09074098074908712,-0.0563981940894015,0.004392294417542692,0.0,-1.0999724385573093,0.0,0.0018870830535888672,0.003374814987182617,0.006436586380004883,0
5.820525884628296,0.07941308617591858,-0.08538499474525452,-0.6391703486442566,0.04484403320734144,-0.5234104188151336,0.0029712288036498227,0.09112277306380731,-0.056295248315334105,0.0015137019870039275,0.0,-1.0999967267079716,0.0,0.0016820430755615234,0.0028748512268066406,0.0061914920806884766,0
5.830705642700195,0.08184995502233505,-0.0854773074388504,-0.6457164287567139,0.0446354356521137,-0.5231755504532114,0.004134903536981346,0.0875758948466291,-0.0561449621902764,-0.0019303538494028726,0.0,-1.0999946767223983,0.0,0.0018320083618164062,0.002974987030029297,0.006154298782348633,0
5.841187953948975,0.08298967033624649,-0.08551186323165894,-0.6488549709320068,0.04452266355851047,-0.5229410819341217,0.006380902745453858,0.0836856565562122,-0.05599747236763492,-0.0054765718862454515,0.0,-1.0999571504632741,0.0,0.0016791820526123047,0.0031380653381347656,0.006385087966918945,0
5.851044654846191,0.08409657329320908,-0.08557258546352386,-0.6520789861679077,0.04440867035153287,-0.5224644898721124,0.011886463361372501,0.07730668366355868,-0.05585148203916942,-0.008810636492776735,0.0,-1.0998890862610495,0.0,0.0017728805541992188,0.003041505813598633,0.005894899368286133,0
5.860067129135132,0.08516282588243484,-0.08561795204877853,-0.6552835702896118,0.04430500658466622,-0.5222435169456826,0.01588330753258913,0.07222566321620465,-0.055710414896668566,-0.011861827268619701,0.0,-1.099798938039911,0.0,0.0010144710540771484,0.001850128173828125,0.003982067108154297,0
5.870543479919434,0.08621642738580704,-0.08566819876432419,-0.6584908962249756,0.044229665603737804,-0.5218385977053382,0.020879009754120194,0.06951752637896341,-0.05558341502906958,-0.015403537531289983,0.0,-1.09966088004168,0.0,0.0017864704132080078,0.0029027462005615234,0.006183624267578125,0
5.8804771900177,0.08719784021377563,-0.08572070300579071,-0.6616847515106201,0.04416169475238907,-0.52153272618233,0.025073764851380548,0.06645522022391126,-0.05546902605249462,-0.01876034551518987,0.0,-1.099496851825808,0.0,0.001819610595703125,0.0031206607818603516,0.006072044372558594,0
5.891085386276245,0.08810020238161087,-0.08577917516231537,-0.664793848991394,0.044149155751544815,-0.5214809138830756,0.026038690563971525,0.06447816424362254,-0.05538425164357562,-0.022343158765453557,0.0,-1.0992861051579088,0.0,0.0016946792602539062,0.0026421546936035156,0.005872249603271484,0
5.901339530944824,0.0889788568019867,-0.08585887402296066,-0.6678840517997742,0.04415170935578162,-0.5210815836021411,0.026825944324797974,0.0620961777132799,-0.055325867158921044,-0.02580416548843491,0.0,-1.0990474825055259,0.0,0.001958131790161133,0.0034797191619873047,0.006470441818237305,0
5.910739183425903,0.0889788568019867,-0.08585887402296066,-0.6678840517997742,0.04415170935578162,-0.5207482161417727,0.027495066653768538,0.06219066193724117,-0.05528499801966288,-0.028974542843477294,0.0,-1.0987986179258908,0.0,0.001959085464477539,0.0031833648681640625,0.006078243255615234,0
5.920374870300293,0.090629443526268,-0.08603774011135101,-0.6742411255836487,0.04410273543508073,-0.5205405777629948,0.025359902803315452,0.05741130644388737,-0.05523802440191925,-0.03222204627299554,0.0,-1.09851361484737,0.0,0.0017681121826171875,0.0030286312103271484,0.006005287170410156,0
5.929840564727783,0.09136391431093216,-0.0861341655254364,-0.6772775650024414,0.04401026173870434,-0.5204257218698785,0.02626401096872291,0.05117915719210496,-0.05517046523335767,-0.03540953708606452,0.0,-1.0982041996922935,0.0,0.0019865036010742188,0.003351926803588867,0.006674289703369141,0
5.940698623657227,0.09200901538133621,-0.08625031262636185,-0.6803198456764221,0.043886606791183794,-0.5202580555013339,0.03016591288859177,0.04450918699083996,-0.0550768032100443,-0.03906222781141612,0.0,-1.0978133728861055,0.0,0.001983642578125,0.0032415390014648438,0.006227970123291016,0
5.950613260269165,0.09262659400701523,-0.08634942770004272,-0.6833275556564331,0.043774213523536616,-0.5200506857176926,0.03572668106410438,0.04020904857789608,-0.054969092318357345,-0.042393799393770124,0.0,-1.0974230357546269,0.0,0.0015535354614257812,0.002624034881591797,0.0054166316986083984,0
5.9604246616363525,0.09323348850011826,-0.08647450059652328,-0.6863687038421631,0.043702901754050685,-0.5197900695897418,0.041267984509047985,0.03633768633284622,-0.05486695278061907,-0.04568684903586926,0.0,-1.0970053484100406,0.0,0.0009746551513671875,0.0017938613891601562,0.004386186599731445,0
5.970727920532227,0.09374451637268066,-0.0866021066904068,-0.68927401304245,0.043640976392832515,-0.5196301595362429,0.043928474049194505,0.031076924222658415,-0.05477223309374564,-0.04914055432882119,0.0,-1.0965331238428098,0.0,0.002065896987915039,0.0034630298614501953,0.006426095962524414,0
5.9810662269592285,0.09418438374996185,-0.0866970643401146,-0.6920511722564697,0.04357817176856246,-0.5196343052181823,0.04462225363770337,0.027049892403583672,-0.05468237757883288,-0.052601108072551035,0.0,-1.096024743955602,0.0,0.0016567707061767578,0.002783060073852539,0.006395578384399414,0
5.990668058395386,0.09461086243391037,-0.0868287906050682,-0.6948438286781311,0.043481212496220854,-0.5194319242859391,0.04523897556706047,0.02436378417709749,-0.054583118991265764,-0.0558104428160468,0.0,-1.0955216266352612,0.0,0.0017609596252441406,0.0028481483459472656,0.005697011947631836,0
6.000968933105469,0.09501747786998749,-0.08697794377803802,-0.6976974010467529,0.04337659460367028,-0.5191658743420379,0.04418553195983543,0.023365889740167345,-0.0544744062702624,-0.059248074023054105,0.0,-1.094948787104055,0.0,0.0019001960754394531,0.003191709518432617,0.006976127624511719,0
6.01078724861145,0.09501747786998749,-0.08697794377803802,-0.6976974010467529,0.04337659460367028,-0.5189336894845735,0.043567058922980795,0.024387268631074082,-0.05439830736556004,-0.06251920152141523,0.0,-1.094370947440583,0.0,0.0017442703247070312,0.003116607666015625,0.006394386291503906,0
6.020287036895752,0.09570732712745667,-0.08723054081201553,-0.7031755447387695,0.04318551613855647,-0.5188467329661378,0.04298955263908783,0.018265071804619244,-0.05427338370785083,-0.0656788493230961,0.0,-1.0937823275731229,0.0,0.0015001296997070312,0.0030002593994140625,0.006078243255615234,0
6.030612230300903,0.09594481438398361,-0.08737529814243317,-0.7058426737785339,0.04308289055623496,-0.51892907196864,0.040729332961377526,0.008645373490776464,-0.05414745255408381,-0.06910673859967263,0.0,-1.0931096889918974,0.0,0.001417398452758789,0.0024781227111816406,0.005808115005493164,0
6.0409040451049805,0.09614774584770203,-0.08752571791410446,-0.7085102200508118,0.04296206041980724,-0.5188332574921537,0.04030781681088442,0.0011026774899724088,-0.054013989445286514,-0.07251669604949497,0.0,-1.0924052114002722,0.0,0.0018656253814697266,0.0032303333282470703,0.006318092346191406,0
6.0510735511779785,0.09637130051851273,-0.08767809718847275,-0.7111726999282837,0.04281111968051177,-0.5187170258118085,0.041400339558762184,-0.0032738687100050574,-0.05386396249189249,-0.07587908090415772,0.0,-1.0916758186953537,0.0,0.0013408660888671875,0.002422332763671875,0.005404233932495117,0
6.060040473937988,0.09652353823184967,-0.08784761279821396,-0.713841438293457,0.0427215178789446,-0.5186212907211047,0.04301463966689264,-0.0062615633935425965,-0.05372534294892887,-0.07883777827776627,0.0,-1.0910052854667003,0.0,0.002210855484008789,0.003427267074584961,0.006088733673095703,0
6.070119380950928,0.09652353823184967,-0.08784761279821396,-0.713841438293457,0.0427215178789446,-0.5185220316192748,0.04416552365462293,-0.0066690436476468645,-0.05362830926885453,-0.08215630102889375,0.0,-1.0902210196346631,0.0,0.0019266605377197266,0.0032134056091308594,0.006720066070556641,0
6.080586194992065,0.09669597446918488,-0.08813238888978958,-0.7189231514930725,0.04264564841852244,-0.5185045631824338,0.04429462830200049,-0.007721700936960549,-0.05353193464514401,-0.08559428531330905,0.0,-1.0893723888617102,0.0,0.0014002323150634766,0.0028939247131347656,0.005916595458984375,0
6.090789318084717,0.09669467806816101,-0.08830287307500839,-0.7214710712432861,0.042556480941151394,-0.5183613584579858,0.04176027630342874,-0.009542749233955974,-0.053431034604532676,-0.0889372254684267,0.0,-1.0885116983591234,0.0,0.0020155906677246094,0.0032498836517333984,0.006312131881713867,0
6.10131311416626,0.09668038040399551,-0.088466577231884,-0.7240211963653564,0.04240601817974164,-0.5182731686425522,0.03709281270984603,-0.009973434760913284,-0.05330398104057601,-0.09237616362937101,0.0,-1.0875894613182107,0.0,0.0017921924591064453,0.0030345916748046875,0.0060193538665771484,0
6.111862659454346,0.09665582329034805,-0.08864646404981613,-0.7265228033065796,0.04221772100783827,-0.5181714939405987,0.033866229588183173,-0.011494497919216279,-0.05314443210634271,-0.09581392116861538,0.0,-1.0866299043612946,0.0,0.001489400863647461,0.0028476715087890625,0.006136417388916016,0
6.120802879333496,0.09665582329034805,-0.08864646404981613,-0.7265228033065796,0.04221772100783827,-0.5180641450070902,0.031710253749555425,-0.011100616324096216,-0.053032747852379165,-0.09871946572786508,0.0,-1.08578931949424,0.0,0.002009153366088867,0.0033235549926757812,0.006482124328613281,0
6.130260944366455,0.09632900357246399,-0.08898855000734329,-0.7313500046730042,0.04186264957322726,-0.5180959167385486,0.02970582600914366,-0.017496131179694556,-0.05282141708662548,-0.10178527815496273,0.0,-1.0848727476981619,0.0,0.001417398452758789,0.002542257308959961,0.00550389289855957,0
6.139882802963257,0.0961235761642456,-0.08916802704334259,-0.7337349057197571,0.041774393246035726,-0.5179591840965937,0.030022665135597416,-0.02253647856735041,-0.05264038942790126,-0.10489545228861691,0.0,-1.0839115812444464,0.0,0.0013537406921386719,0.0027239322662353516,0.0055866241455078125,0
6.150052785873413,0.09590348601341248,-0.0893639475107193,-0.7361791133880615,0.041642511886425156,-0.5178334969609085,0.029721445231087478,-0.02709707420360938,-0.052464214556940184,-0.10817293261832088,0.0,-1.0828642615973547,0.0,0.0017626285552978516,0.0030977725982666016,0.006136894226074219,0
6.160250425338745,0.09561358392238617,-0.08953239023685455,-0.7385590076446533,0.0415146655640172,-0.5177345131387455,0.02914656400745939,-0.030827753899516825,-0.0522929497763646,-0.11144882870929457,0.0,-1.0817817936224445,0.0,0.0013580322265625,0.00243377685546875,0.005146026611328125,0
6.169780492782593,0.09527982771396637,-0.08969815075397491,-0.7408456802368164,0.041328533039141156,-0.5178785418210434,0.027905874673403736,-0.03148385520590417,-0.05210326473313318,-0.11450049060054016,0.0,-1.0807410431927607,0.0,0.0015208721160888672,0.0029137134552001953,0.006514072418212891,0
6.180839538574219,0.09487725049257278,-0.08988584578037262,-0.7431289553642273,0.041102429200534314,-0.5176942061090066,0.0276445805522677,-0.031055002582508883,-0.05188569626339381,-0.11802955515773082,0.0,-1.0794981397660208,0.0,0.0013968944549560547,0.002544879913330078,0.0055158138275146484,0
6.190222978591919,0.09443354606628418,-0.09005951136350632,-0.7454337477684021,0.04086846413994279,-0.5175666537726789,0.024490860765149607,-0.02895792523021263,-0.05164566143685445,-0.12101335364037269,0.0,-1.078414019555667,0.0,0.0017719268798828125,0.0030431747436523438,0.0060558319091796875,0
6.201096534729004,0.09396279603242874,-0.09025540947914124,-0.7477337121963501,0.04068166044954342,-0.5173769715341712,0.021485346882634492,-0.02767970968526206,-0.05140758567437672,-0.12445851815698264,0.0,-1.077123947851832,0.0,0.0019338130950927734,0.003074169158935547,0.0060577392578125,0
6.211416721343994,0.09343307465314865,-0.09044297784566879,-0.749963641166687,0.0404216415985847,-0.5173360443759952,0.0170229774498793,-0.03023068992872547,-0.051143425571533,-0.1277156416896435,0.0,-1.0758660995989036,0.0,0.001628875732421875,0.0029840469360351562,0.006190299987792969,0
6.221512794494629,0.0928068459033966,-0.09062738716602325,-0.7521582245826721,0.040156352194334895,-0.5173271128064969,0.013212031071654137,-0.036689973212705104,-0.05085902997294872,-0.13088973663194306,0.0,-1.0746041848843304,0.0,0.0017094612121582031,0.0029485225677490234,0.006169319152832031,0
6.231680393218994,0.09215022623538971,-0.09081101417541504,-0.7542937397956848,0.03991514108133242,-0.5172037798906399,0.012082083832588835,-0.04183474291384334,-0.05056949888656355,-0.13407371854905517,0.0,-1.0733020847356676,0.0,0.0013682842254638672,0.002370595932006836,0.00549006462097168,0
6.240787029266357,0.09146937727928162,-0.09102369844913483,-0.7565054893493652,0.039641007930213065,-0.5169374513447842,0.013071137411899384,-0.04356648652887909,-0.050264027194424424,-0.1369144746567488,0.0,-1.0721093395564099,0.0,0.0016770362854003906,0.002799510955810547,0.0059337615966796875,0
6.251104116439819,0.09076004475355148,-0.09121016412973404,-0.7587141990661621,0.03935618629349803,-0.5167406184766502,0.014410427702887417,-0.04374717806096441,-0.0499433888961589,-0.1401199928424931,0.0,-1.07072790275531,0.0,0.001850128173828125,0.0030775070190429688,0.006833314895629883,0
6.260100603103638,0.08998037129640579,-0.09138566255569458,-0.760807454586029,0.03912832423059981,-0.5167927253404259,0.01443783244807368,-0.04288465626375851,-0.049633493813785935,-0.14290383704688495,0.0,-1.069497250938529,0.0,0.0014333724975585938,0.002471923828125,0.005101203918457031,0
6.26981782913208,0.08914348483085632,-0.09157136082649231,-0.7628750205039978,0.03886522553988495,-0.5166724764379964,0.013541026967550066,-0.04298197570648645,-0.04931790524710732,-0.14589855747376912,0.0,-1.0681408664838161,0.0,0.0009396076202392578,0.0028967857360839844,0.00534367561340332,0
6.279972553253174,0.08823190629482269,-0.09175779670476913,-0.7649770379066467,0.038540969445837986,-0.5164314157688734,0.011730318590461336,-0.04336240756987499,-0.04897539721516471,-0.1490143498341359,0.0,-1.0666934220085882,0.0,0.0017921924591064453,0.0031702518463134766,0.0064122676849365234,0
6.290724992752075,0.08731342107057571,-0.09194821864366531,-0.7670779228210449,0.038247169528899914,-0.5162272335922435,0.00920207935824536,-0.041258264945010864,-0.04862546662395281,-0.15229788333084793,0.0,-1.0651275213829212,0.0,0.0018055438995361328,0.0033185482025146484,0.006281614303588867,0
6.300686359405518,0.08635473996400833,-0.09214731305837631,-0.7691416144371033,0.03796403012117445,-0.515960065482632,0.007916646436823516,-0.03989062542892152,-0.04827433793220713,-0.1553251686087436,0.0,-1.0636464442595601,0.0,0.0014820098876953125,0.002582550048828125,0.005480766296386719,0
6.3114173412323,0.08532939851284027,-0.09232956171035767,-0.7711633443832397,0.03764623179867781,-0.515925513410824,0.005697420306494633,-0.04109055373984373,-0.04790937347704953,-0.15857022035234208,0.0,-1.062018405254257,0.0,0.00177764892578125,0.0030374526977539062,0.006041526794433594,0
6.32143759727478,0.08423157781362534,-0.0925111472606659,-0.7731088995933533,0.03738919233937587,-0.5157711281883552,0.0059984141210489604,-0.0447372323634781,-0.04755750856120097,-0.16158495100604633,0.0,-1.0604678785452266,0.0,0.0017380714416503906,0.0031936168670654297,0.006263256072998047,0
6.331432104110718,0.08313160389661789,-0.09270641207695007,-0.7750793099403381,0.037109574506852205,-0.5155433272748338,0.006445573697454363,-0.047476802385409245,-0.047206346432910606,-0.16457683366892994,0.0,-1.0588923207519239,0.0,0.0017766952514648438,0.003000497817993164,0.006099700927734375,0
6.341590166091919,0.081993468105793,-0.09290940314531326,-0.7771264910697937,0.036815633453641805,-0.5152700958283396,0.00858007509645699,-0.05025262391747534,-0.04685030504815315,-0.167601935274789,0.0,-1.0572614380167895,0.0,0.0017514228820800781,0.0030841827392578125,0.006603717803955078,0
6.351476669311523,0.08080526441335678,-0.09307581186294556,-0.7790232300758362,0.03649570360902566,-0.5152995173946012,0.009580490403842571,-0.049995928666488616,-0.046481102387092195,-0.17053065098238832,0.0,-1.0556457051481711,0.0,0.0014142990112304688,0.003816843032836914,0.006778240203857422,0
6.360702037811279,0.08080526441335678,-0.09307581186294556,-0.7790232300758362,0.03649570360902566,-0.5152907745881569,0.010255864812743876,-0.048529631473928726,-0.046222660524349195,-0.1732494744648023,0.0,-1.0541128402380764,0.0,0.0015256404876708984,0.0026705265045166016,0.0059621334075927734,0
6.3697357177734375,0.07820392400026321,-0.0934169590473175,-0.7827266454696655,0.036009748236640424,-0.5150313397218839,0.012010094434760183,-0.04553934550022677,-0.045859517955784954,-0.1758984555151039,0.0,-1.0525883893136037,0.0,0.0009865760803222656,0.0018472671508789062,0.0040318965911865234,0
6.380664825439453,0.07681763172149658,-0.09358139336109161,-0.7845966815948486,0.03571613957964741,-0.514839170814907,0.012217704387300382,-0.04103280378528137,-0.04549521491141761,-0.17908529188211333,0.0,-1.0507132491785127,0.0,0.001976490020751953,0.003284931182861328,0.00652766227722168,0
6.3908021450042725,0.07543879747390747,-0.09375195950269699,-0.7864199280738831,0.03540378030709397,-0.5145946493878536,0.01163051015644034,-0.03809593375170119,-0.045123068053152936,-0.18202338922986316,0.0,-1.048943950889249,0.0,0.0019958019256591797,0.003083467483520508,0.0068891048431396484,0
6.4015021324157715,0.07399307936429977,-0.0939251109957695,-0.7882249355316162,0.03511102651675137,-0.514545206039824,0.009631367660809981,-0.03939191889368564,-0.044752782580988866,-0.18510559827344997,0.0,-1.0470453121795193,0.0,0.0019001960754394531,0.00322723388671875,0.006170511245727539,0
6.411982297897339,0.0725007951259613,-0.09408216923475266,-0.7899242639541626,0.03484118274075658,-0.5144984224192494,0.009358430340257518,-0.04296970603405396,-0.04439239133447628,-0.18810529196310072,0.0,-1.045154873135235,0.0,0.0016090869903564453,0.0027980804443359375,0.006094455718994141,0
6.422280311584473,0.07097524404525757,-0.09424340724945068,-0.7915998697280884,0.03463161505046017,-0.5143043176423878,0.010593118938426708,-0.04440425398737068,-0.04406152957805601,-0.19103404636186497,0.0,-1.0432677839971736,0.0,0.0018036365509033203,0.0030689239501953125,0.006571531295776367,0
6.430600643157959,0.07097524404525757,-0.09424340724945068,-0.7915998697280884,0.03463161505046017,-0.5141149954661466,0.01149078085693859,-0.044189214967081475,-0.043829926348562,-0.19338653575553053,0.0,-1.041721867175697,0.0,0.0017952919006347656,0.0029921531677246094,0.005995273590087891,0
6.440272092819214,0.0678367018699646,-0.09456823766231537,-0.7950611114501953,0.0342720497135067,-0.5140926305207059,0.014550870662908465,-0.043988374957617975,-0.0435329670865587,-0.19610530832896939,0.0,-1.0399012039388589,0.0,0.0013921260833740234,0.0029251575469970703,0.0061473846435546875,0
6.450069189071655,0.0678367018699646,-0.09456823766231537,-0.7950611114501953,0.0342720497135067,-0.5140371143216177,0.016641828316361247,-0.04252906221226909,-0.04332509560315631,-0.1988419256613583,0.0,-1.0380310549216574,0.0,0.001741170883178711,0.0028145313262939453,0.0057239532470703125,0
6.45987606048584,0.06456296890974045,-0.09484858065843582,-0.7982409596443176,0.03400059146271799,-0.5139064440567597,0.01818621938992903,-0.04162115914989655,-0.04307778872072891,-0.20156341337208591,0.0,-1.0361331689787006,0.0,0.0013613700866699219,0.0024251937866210938,0.005683422088623047,0
6.469933748245239,0.0628400444984436,-0.09498930722475052,-0.7998154759407043,0.033801692803326164,-0.5138926198053618,0.01889352290448907,-0.039848890024065886,-0.04283008690575758,-0.2043356882112593,0.0,-1.0341600368159305,0.0,0.0011324882507324219,0.0021762847900390625,0.0046329498291015625,0
6.479743242263794,0.06109173223376274,-0.09514002501964569,-0.8013600707054138,0.033608325831676056,-0.5137098166357363,0.01998475724692439,-0.0353881290652573,-0.04258418302090865,-0.2070209487674309,0.0,-1.032209721256077,0.0,0.0018529891967773438,0.0031311511993408203,0.005836009979248047,0
6.490286588668823,0.0593232624232769,-0.0952882319688797,-0.8028805255889893,0.033386494407541316,-0.5135743071729676,0.01956878359803218,-0.031362974599110215,-0.0423288635174643,-0.20988633336817566,0.0,-1.0300852139354433,0.0,0.0017828941345214844,0.0030117034912109375,0.006108522415161133,0
6.500100135803223,0.05747338756918907,-0.0954483151435852,-0.8043708801269531,0.03318767053052308,-0.5135522893592205,0.018905986656305086,-0.03230076039560445,-0.04207558091117098,-0.21253379582655102,0.0,-1.0280816168529627,0.0,0.0015728473663330078,0.002843141555786133,0.0059893131256103516,0
6.511241912841797,0.05558503046631813,-0.09556717425584793,-0.8057007789611816,0.03304771460528754,-0.513660726259051,0.01642668815539151,-0.035741952286008294,-0.04184579961480274,-0.2155163869092133,0.0,-1.0257765163562667,0.0,0.0018529891967773438,0.003350973129272461,0.006165981292724609,0
6.521132946014404,0.05370765179395676,-0.09570752084255219,-0.8070945143699646,0.03294104179289887,-0.5135037730430534,0.016493898750247184,-0.03893906130888167,-0.04164495040269902,-0.21814322485219023,0.0,-1.0237033676283263,0.0,0.0015788078308105469,0.0030591487884521484,0.006152153015136719,0
6.531524658203125,0.05179591849446297,-0.09585155546665192,-0.8085090517997742,0.0328159323402622,-0.5133474026422322,0.019601360586108955,-0.042317466732015176,-0.041457439909487664,-0.22088154660286033,0.0,-1.0214983284853305,0.0,0.0017404556274414062,0.0030057430267333984,0.006164073944091797,0
6.54132342338562,0.04986504092812538,-0.09598749130964279,-0.8098798394203186,0.032690705715294595,-0.5133383560412513,0.021605340353653097,-0.04215371263896668,-0.04127922257987701,-0.22344320929146896,0.0,-1.019394009253229,0.0,0.00135040283203125,0.0026404857635498047,0.005806922912597656,0
6.550938367843628,0.04790491983294487,-0.09608486294746399,-0.8111364245414734,0.032534364714787205,-0.5132979697536441,0.023156463560822224,-0.03962411457216309,-0.04109584257395898,-0.22593733167147673,0.0,-1.0173056717639435,0.0,0.0015032291412353516,0.0031032562255859375,0.0059893131256103516,0
